{"totalEdits":39463799,"totalBuildings":32368282,"totalRoads":842861.96480063,"mappersOnline":17,"totalTasksMapped":1555836,"totalMappers":129400,"totalProjects":1597,"Tanzania":[{"type":"Feature","properties":{"title":"Manyoni, Singida, Tanzania Mini Grids Project 05","id":4555,"area":2172.2334385231957,"year":"2018","lastUpdated":"2018-05-24T13:47:51.718614","changesets":1476,"mappers":57,"roads":0.354646008845444,"buildings":32058,"edits":32104,"latest":"2018-05-24T13:46:32.000Z"},"geometry":{"type":"Point","coordinates":[34.89457414391987,-6.337178718154652]}},{"type":"Feature","properties":{"title":"Central Singida, Singida, Tanzania Mini Grids Project 00 North","id":4508,"area":2138.0235797080213,"year":"2018","lastUpdated":"2018-07-13T13:11:39.577533","changesets":2429,"mappers":66,"roads":2.19560796896209,"buildings":85349,"edits":85596,"latest":"2018-07-13T13:11:37.000Z"},"geometry":{"type":"Point","coordinates":[34.85630752643853,-4.7195257307215375]}},{"type":"Feature","properties":{"title":"Lindi, Lindi, Tanzania Mini Grids Project 02","id":4488,"area":1271.4706951916876,"year":"2018","lastUpdated":"2018-07-10T07:57:50.042617","changesets":883,"mappers":66,"roads":0.580704859074677,"buildings":12370,"edits":12419,"latest":"2018-07-10T07:18:13.000Z"},"geometry":{"type":"Point","coordinates":[39.32480989462478,-9.704243210868535]}},{"type":"Feature","properties":{"title":"Tunduru, Ruvuma, Tanzania Mini Grids Project 02","id":4424,"area":1549.6766515243964,"year":"2018","lastUpdated":"2018-05-04T08:55:20.079197","changesets":855,"mappers":63,"roads":0.0711115935309787,"buildings":21117,"edits":21136,"latest":"2018-05-07T07:56:42.000Z"},"geometry":{"type":"Point","coordinates":[37.44642487877472,-11.304728564657015]}},{"type":"Feature","properties":{"title":"Tunduru, Ruvuma, Tanzania Mini Grids Project 01","id":4423,"area":1513.3163670277308,"year":"2018","lastUpdated":"2018-06-29T11:40:34.768077","changesets":748,"mappers":73,"roads":0.672637130613432,"buildings":15105,"edits":15129,"latest":"2018-06-29T11:40:17.000Z"},"geometry":{"type":"Point","coordinates":[37.15242795625945,-11.620027648839601]}},{"type":"Feature","properties":{"title":"S. Monduli, Simanjiro, Tanzania Mini Grids - MapSwipe Project 04 - 02","id":4479,"area":131.2262807333246,"year":"2018","lastUpdated":"2018-05-04T09:42:42.952002","changesets":136,"mappers":50,"roads":0.000165500103078919,"buildings":1412,"edits":1414,"latest":"2018-05-04T09:36:27.000Z"},"geometry":{"type":"Point","coordinates":[37.140374705660484,-4.974450733390372]}},{"type":"Feature","properties":{"title":"Lindi, Lindi, Tanzania Mini Grids Project 05","id":4499,"area":1350.3603655694978,"year":"2018","lastUpdated":"2018-06-29T06:38:06.752377","changesets":1100,"mappers":66,"roads":1.12477553899274,"buildings":28479,"edits":28638,"latest":"2018-06-29T06:31:34.000Z"},"geometry":{"type":"Point","coordinates":[39.68909574499,-9.801786594046861]}},{"type":"Feature","properties":{"title":"Mbulu Center Village, Tanzania Mini Grids Project 01","id":4436,"area":12.606083526364179,"year":"2018","lastUpdated":"2018-04-19T11:23:53.908966","changesets":134,"mappers":33,"roads":0.0184481585815086,"buildings":1409,"edits":1446,"latest":"2018-04-20T09:10:43.000Z"},"geometry":{"type":"Point","coordinates":[33.0464779901525,-8.959391550342504]}},{"type":"Feature","properties":{"title":"Mpwapwa, Dodoma, Tanzania Mini Grids Project 06","id":4419,"area":1290.5067497887903,"year":"2018","lastUpdated":"2018-06-30T10:06:16.399635","changesets":2176,"mappers":91,"roads":10.7518575631284,"buildings":54733,"edits":54794,"latest":"2018-06-30T12:14:33.000Z"},"geometry":{"type":"Point","coordinates":[36.618562445229166,-6.32822085806907]}},{"type":"Feature","properties":{"title":"Heru Shingo Ward, Kigoma, Tanzania Mini Grids Project 01","id":4387,"area":789.0955168862893,"year":"2018","lastUpdated":"2018-06-27T06:10:33.707732","changesets":1455,"mappers":37,"roads":4.58334806253399,"buildings":33003,"edits":33301,"latest":"2018-06-01T13:26:31.000Z"},"geometry":{"type":"Point","coordinates":[30.310435947907735,-4.113678655615293]}},{"type":"Feature","properties":{"title":"Tunduru, Ruvuma, Tanzania Mini Grids Project 03","id":4378,"area":1369.2568876847938,"year":"2018","lastUpdated":"2018-05-03T12:58:11.041494","changesets":1018,"mappers":60,"roads":0.263537837490913,"buildings":23394,"edits":23430,"latest":"2018-05-03T13:14:28.000Z"},"geometry":{"type":"Point","coordinates":[37.28765739124834,-11.152541317436667]}},{"type":"Feature","properties":{"title":"Igalula Ward, Kigoma, Tanzania Mini Grids Project 01","id":4386,"area":1169.7270185651328,"year":"2018","lastUpdated":"2018-04-17T14:00:20.573026","changesets":912,"mappers":37,"roads":0.00817977234302703,"buildings":9782,"edits":9783,"latest":"2018-04-17T14:00:26.000Z"},"geometry":{"type":"Point","coordinates":[30.054356569129087,-6.011588890040766]}},{"type":"Feature","properties":{"title":"Urambo, Tabora, Tanzania Mini Grids Project 08","id":4355,"area":1512.9535222617567,"year":"2018","lastUpdated":"2018-06-29T06:36:14.716443","changesets":1803,"mappers":62,"roads":0.0539411172980745,"buildings":55003,"edits":55009,"latest":"2018-06-29T06:38:59.000Z"},"geometry":{"type":"Point","coordinates":[31.652766553125133,-4.666160203174864]}},{"type":"Feature","properties":{"title":"Urambo, Tabora, Tanzania Mini Grids Project 07","id":4354,"area":1417.644733786158,"year":"2018","lastUpdated":"2018-07-02T08:16:09.808700","changesets":1438,"mappers":66,"roads":0.235986987394966,"buildings":40728,"edits":40743,"latest":"2018-07-02T08:15:16.000Z"},"geometry":{"type":"Point","coordinates":[31.960650180526155,-4.799811038966155]}},{"type":"Feature","properties":{"title":"Urambo, Tabora, Tanzania Mini Grids Project 09-10","id":4377,"area":1677.5206088742302,"year":"2018","lastUpdated":"2018-05-21T13:20:07.112179","changesets":1703,"mappers":67,"roads":0.363745706229784,"buildings":26610,"edits":26624,"latest":"2018-05-21T13:49:44.000Z"},"geometry":{"type":"Point","coordinates":[32.006976077428725,-4.486466132072692]}},{"type":"Feature","properties":{"title":"Central Singida, Singida, Tanzania Mini Grids Project 04 South","id":4528,"area":2679.1732629690173,"year":"2018","lastUpdated":"2018-05-17T05:23:15.289640","changesets":1170,"mappers":63,"roads":0.0259764287875841,"buildings":20358,"edits":20362,"latest":"2018-05-17T13:46:29.000Z"},"geometry":{"type":"Point","coordinates":[34.69281190135674,-5.4332570462654575]}},{"type":"Feature","properties":{"title":"Urambo, Tabora, Tanzania Mini Grids Project 04","id":4366,"area":1540.7875686482291,"year":"2018","lastUpdated":"2018-04-23T12:46:20.979070","changesets":1920,"mappers":73,"roads":6.26198278193171,"buildings":42229,"edits":42283,"latest":"2018-04-23T12:45:52.000Z"},"geometry":{"type":"Point","coordinates":[31.8072741219125,-5.113293963680001]}},{"type":"Feature","properties":{"title":"Urambo, Tabora, Tanzania Mini Grids Project 06","id":4353,"area":1555.7313427834936,"year":"2018","lastUpdated":"2018-06-29T06:38:02.088669","changesets":2204,"mappers":67,"roads":0.0376777707116761,"buildings":58216,"edits":58229,"latest":"2018-06-29T06:36:08.000Z"},"geometry":{"type":"Point","coordinates":[31.85480028894,-4.912515247337495]}},{"type":"Feature","properties":{"title":"Kigoma_9","id":4090,"area":1.722690665551124,"year":"2018","lastUpdated":"2018-02-15T09:43:57.762973","changesets":290,"mappers":6,"roads":0.249339693562493,"buildings":1929,"edits":1941,"latest":"2018-02-15T09:43:50.000Z"},"geometry":{"type":"Point","coordinates":[29.825238216387262,-6.003663870933533]}},{"type":"Feature","properties":{"title":"Mbozi, Mbeya, Tanzania Mini Grids Project 03","id":4289,"area":1303.883290131881,"year":"2018","lastUpdated":"2018-06-29T13:16:07.336988","changesets":2723,"mappers":78,"roads":1712.56467120964,"buildings":64564,"edits":69636,"latest":"2018-06-29T13:53:40.000Z"},"geometry":{"type":"Point","coordinates":[32.660369621525334,-8.981003005244997]}},{"type":"Feature","properties":{"title":"Priority Villages, Ruvuma Region, Tanzania Mini Grids Project","id":4801,"area":491.345226887175,"year":"2018","lastUpdated":"2018-07-03T15:18:55.293383","changesets":586,"mappers":30,"roads":0.0476650649909273,"buildings":26872,"edits":26882,"latest":"2018-06-28T09:53:53.000Z"},"geometry":{"type":"Point","coordinates":[35.45485146842986,-10.678797947427933]}},{"type":"Feature","properties":{"title":"Tanzania Development Trust: Mwanza West Community Mapping Project","id":4358,"area":1290.9455273129195,"year":"2018","lastUpdated":"2018-07-27T23:14:31.508597","changesets":14493,"mappers":1077,"roads":6964.82294827093,"buildings":125532,"edits":171719,"latest":"2018-07-27T19:08:15.000Z"},"geometry":{"type":"Point","coordinates":[32.548552534014256,-2.6391112035937363]}},{"type":"Feature","properties":{"title":"Tanzania Development Trust: Shinyanga East community mapping project","id":4166,"area":1007.0589397559861,"year":"2018","lastUpdated":"2018-07-23T11:09:53.237997","changesets":2405,"mappers":338,"roads":1451.95322551139,"buildings":24137,"edits":29931,"latest":"2018-07-26T10:02:22.000Z"},"geometry":{"type":"Point","coordinates":[33.66405700164086,-3.5303866913753184]}},{"type":"Feature","properties":{"title":"Shinyanga_Tabora_Geita","id":4076,"area":3994.8430365253507,"year":"2018","lastUpdated":"2018-03-16T14:29:11.097041","changesets":47,"mappers":13,"roads":0.000161002645333808,"buildings":2061,"edits":2064,"latest":"2018-03-16T14:28:46.000Z"},"geometry":{"type":"Point","coordinates":[32.00242391521419,-4.080067283243879]}},{"type":"Feature","properties":{"title":"PEPFAR TANZANIA: GEITA DC","id":3903,"area":4738.968040349855,"year":"2018","lastUpdated":"2018-07-10T06:41:26.690980","changesets":5543,"mappers":268,"roads":3129.3516222182,"buildings":60063,"edits":84041,"latest":"2018-07-25T17:31:56.000Z"},"geometry":{"type":"Point","coordinates":[32.06279754752212,-2.682505789886702]}},{"type":"Feature","properties":{"title":"Tanzania Development Trust:  Mwanza East","id":3993,"area":6942.748601206665,"year":"2018","lastUpdated":"2018-07-27T14:20:14.734798","changesets":7711,"mappers":354,"roads":9171.58612712474,"buildings":151316,"edits":207805,"latest":"2018-07-27T14:19:56.000Z"},"geometry":{"type":"Point","coordinates":[33.151702880859375,-2.8604853284710874]}},{"type":"Feature","properties":{"title":"Tanzania Development Trust: Manyoni district mapping project","id":3253,"area":1144.4488878187772,"year":"2018","lastUpdated":"2018-02-19T11:31:46.467382","changesets":0,"mappers":0,"roads":0,"buildings":0,"edits":0,"latest":null},"geometry":{"type":"Point","coordinates":[34.83352661132815,-5.7092421794668216]}},{"type":"Feature","properties":{"title":"Tanzania Development Trust: Simiyu district mapping project part 1 - Updated Imagery","id":3177,"area":1361.7036746910928,"year":"2018","lastUpdated":"2018-07-26T13:31:18.776274","changesets":0,"mappers":0,"roads":0,"buildings":0,"edits":0,"latest":null},"geometry":{"type":"Point","coordinates":[34.246062786235,-2.4162541152175003]}},{"type":"Feature","properties":{"title":"Tanzania Development Trust: Masasi district, Mtwara Region","id":3251,"area":1622.139093292662,"year":"2018","lastUpdated":"2018-02-17T10:13:50.185746","changesets":0,"mappers":0,"roads":0,"buildings":0,"edits":0,"latest":null},"geometry":{"type":"Point","coordinates":[38.77120971679688,-10.7730228886694]}},{"type":"Feature","properties":{"title":"Tanzania Development Trust: Singida district community mapping project ","id":3159,"area":746.5381861519145,"year":"2018","lastUpdated":"2018-04-14T11:47:27.250647","changesets":0,"mappers":0,"roads":0,"buildings":0,"edits":0,"latest":null},"geometry":{"type":"Point","coordinates":[35.00739145072836,-4.7137063082032755]}},{"type":"Feature","properties":{"title":"PEPFAR Tanzania: Mbeya CC","id":2556,"area":256.08947868821076,"year":"2018","lastUpdated":"2018-05-07T03:44:11.992952","changesets":3674,"mappers":263,"roads":1309.65000981764,"buildings":21914,"edits":54339,"latest":"2018-05-15T06:12:15.000Z"},"geometry":{"type":"Point","coordinates":[33.487846817016006,-8.911443046528687]}},{"type":"Feature","properties":{"title":"Tanzania Development Trust: Simiyu district mapping project part 1","id":2501,"area":6430.819090940454,"year":"2018","lastUpdated":"2018-01-24T12:18:11.755027","changesets":0,"mappers":0,"roads":0,"buildings":0,"edits":0,"latest":null},"geometry":{"type":"Point","coordinates":[33.963684082031236,-2.4816321015734735]}},{"type":"Feature","properties":{"title":"PEPFAR Tanzania: Shinyanga","id":2301,"area":565.5201463076456,"year":"2017","lastUpdated":"2017-11-16T23:33:37.890014","changesets":5198,"mappers":302,"roads":2277.42607148261,"buildings":46163,"edits":71621,"latest":"2017-11-16T23:33:01.000Z"},"geometry":{"type":"Point","coordinates":[33.44573190915658,-3.633071239733379]}},{"type":"Feature","properties":{"title":"Tanzania Development Trust: Serengeti district mapping project part 2","id":2261,"area":11207.631576365555,"year":"2018","lastUpdated":"2018-05-22T06:15:57.092496","changesets":33973,"mappers":1625,"roads":29371.871301095,"buildings":602966,"edits":917465,"latest":"2018-07-14T15:32:32.000Z"},"geometry":{"type":"Point","coordinates":[33.563361167907715,-1.6146094797775092]}},{"type":"Feature","properties":{"title":"MSD & JSI/USAID Tanzania Road Import - Iringa region","id":2157,"area":30284.59973311939,"year":"2016","lastUpdated":"2016-10-20T13:22:29.952382","changesets":85,"mappers":13,"roads":2909.39047680426,"buildings":712,"edits":3579,"latest":"2016-10-19T21:15:43.000Z"},"geometry":{"type":"Point","coordinates":[35.12966588259462,-8.90039717715023]}},{"type":"Feature","properties":{"title":"Missing Maps: Dar es Salaam - Ramani Huria 7","id":2125,"area":15.59172030179052,"year":"2017","lastUpdated":"2017-12-11T17:19:29.232404","changesets":681,"mappers":54,"roads":23.3546858581492,"buildings":15759,"edits":16703,"latest":"2017-12-11T17:19:19.000Z"},"geometry":{"type":"Point","coordinates":[39.22768489444798,-6.724982791087041]}},{"type":"Feature","properties":{"title":"MSD & JSI/USAID Tanzania Road Import - Mwanza region","id":2138,"area":18452.858077930265,"year":"2017","lastUpdated":"2017-09-04T11:31:29.126756","changesets":149,"mappers":15,"roads":3770.57157796073,"buildings":105,"edits":5447,"latest":"2016-11-14T12:29:58.000Z"},"geometry":{"type":"Point","coordinates":[32.94155795664897,-2.648829790193047]}},{"type":"Feature","properties":{"title":"MSD & JSI/USAID Tanzania Road Import - Mbeya region","id":2111,"area":19769.484038509396,"year":"2016","lastUpdated":"2016-09-26T19:17:08.424814","changesets":79,"mappers":5,"roads":2211.37645137462,"buildings":3314,"edits":7568,"latest":"2016-10-05T18:18:41.000Z"},"geometry":{"type":"Point","coordinates":[33.53129587985334,-8.652609274565219]}},{"type":"Feature","properties":{"title":"Missing Maps: Dar es Salaam - Ramani Huria 8","id":2242,"area":18.297857125006182,"year":"2017","lastUpdated":"2017-04-26T13:26:16.487958","changesets":402,"mappers":13,"roads":17.3508405937143,"buildings":9226,"edits":9722,"latest":"2016-12-08T19:06:28.000Z"},"geometry":{"type":"Point","coordinates":[39.19390890056493,-6.76004283446328]}},{"type":"Feature","properties":{"title":"MSD & JSI/USAID Tanzania Road Import - Pwani region","id":2110,"area":21135.143831005626,"year":"2016","lastUpdated":"2016-11-09T09:08:14.321577","changesets":0,"mappers":0,"roads":0,"buildings":0,"edits":0,"latest":null},"geometry":{"type":"Point","coordinates":[38.66302671069425,-7.24398878152632]}},{"type":"Feature","properties":{"title":"MSD & JSI/USAID Tanzania Road Import - Mara region","id":2095,"area":18583.120612545095,"year":"2016","lastUpdated":"2016-12-02T22:50:50.785436","changesets":0,"mappers":0,"roads":0,"buildings":0,"edits":0,"latest":null},"geometry":{"type":"Point","coordinates":[34.25431061911746,-1.7219985711602823]}},{"type":"Feature","properties":{"title":"MSD & JSI/USAID Tanzania Road Import - Shinyaga region","id":2049,"area":35039.611042625445,"year":"2016","lastUpdated":"2016-08-22T11:27:17.050654","changesets":0,"mappers":0,"roads":0,"buildings":0,"edits":0,"latest":null},"geometry":{"type":"Point","coordinates":[34.09181497141662,-3.1247602533541907]}},{"type":"Feature","properties":{"title":"MSD & JSI/USAID Tanzania Road Import - Manyara region","id":1973,"area":40580.74888215921,"year":"2016","lastUpdated":"2016-07-03T20:50:06.210422","changesets":0,"mappers":0,"roads":0,"buildings":0,"edits":0,"latest":null},"geometry":{"type":"Point","coordinates":[36.2647809052761,-4.352401182141463]}},{"type":"Feature","properties":{"title":"MSD & JSI/USAID Tanzania Road Import - Morogoro region","id":2050,"area":28136.915277094853,"year":"2016","lastUpdated":"2016-08-23T17:28:25.347311","changesets":0,"mappers":0,"roads":0,"buildings":0,"edits":0,"latest":null},"geometry":{"type":"Point","coordinates":[36.961234396207985,-7.8614884864610755]}},{"type":"Feature","properties":{"title":"MSD & JSI/USAID Tanzania Road Import - Tanga region","id":1921,"area":26453.26230241192,"year":"2016","lastUpdated":"2016-11-26T18:48:48.999774","changesets":0,"mappers":0,"roads":0,"buildings":0,"edits":0,"latest":null},"geometry":{"type":"Point","coordinates":[38.09654675335962,-5.362412457676792]}},{"type":"Feature","properties":{"title":"MSD & JSI/USAID Tanzania Road Import - Kilimanjaro region","id":1972,"area":11317.826802773296,"year":"2016","lastUpdated":"2016-08-31T08:40:56.222091","changesets":0,"mappers":0,"roads":0,"buildings":0,"edits":0,"latest":null},"geometry":{"type":"Point","coordinates":[37.47095374471149,-3.5857099932097873]}},{"type":"Feature","properties":{"title":"Peace Corps Tanzania -- Lushoto","id":1903,"area":69.21165370312055,"year":"2017","lastUpdated":"2017-09-19T04:44:26.195543","changesets":640,"mappers":88,"roads":126.39665147357,"buildings":9101,"edits":10836,"latest":"2017-07-28T23:41:56.000Z"},"geometry":{"type":"Point","coordinates":[38.303773299507476,-4.810238891566513]}},{"type":"Feature","properties":{"title":"MSD & JSI/USAID Tanzania Road Import - Singida region","id":1999,"area":26074.754451063287,"year":"2016","lastUpdated":"2016-09-25T10:42:24.947931","changesets":0,"mappers":0,"roads":0,"buildings":0,"edits":0,"latest":null},"geometry":{"type":"Point","coordinates":[34.50140704015796,-5.676229952710943]}},{"type":"Feature","properties":{"title":"MSD & JSI/USAID Tanzania Road Import - Arusha region","id":1971,"area":31245.987566415035,"year":"2017","lastUpdated":"2017-07-24T23:13:32.143193","changesets":0,"mappers":0,"roads":0,"buildings":0,"edits":0,"latest":null},"geometry":{"type":"Point","coordinates":[35.98178328230096,-2.99082315747327]}},{"type":"Feature","properties":{"title":"MSD & JSI/USAID Tanzania Road Import - Dodoma region","id":2012,"area":30070.63156173727,"year":"2016","lastUpdated":"2016-09-16T13:16:37.526872","changesets":0,"mappers":0,"roads":0,"buildings":0,"edits":0,"latest":null},"geometry":{"type":"Point","coordinates":[35.84633163505444,-5.8241716175440175]}},{"type":"Feature","properties":{"title":"Tanzania Development Trust: Serengeti district mapping project","id":1788,"area":13584.124479203561,"year":"2018","lastUpdated":"2018-07-21T15:24:49.405542","changesets":0,"mappers":0,"roads":0,"buildings":0,"edits":0,"latest":null},"geometry":{"type":"Point","coordinates":[34.658088684082024,-1.9070894696788552]}},{"type":"Feature","properties":{"title":"MSD & JSI/USAID Tanzania Road Import - Kagera region","id":2000,"area":20054.048144070715,"year":"2017","lastUpdated":"2017-08-17T15:35:09.385364","changesets":0,"mappers":0,"roads":0,"buildings":0,"edits":0,"latest":null},"geometry":{"type":"Point","coordinates":[31.041926812127926,-2.3254413013888326]}},{"type":"Feature","properties":{"title":"MSD & JSI/USAID Tanzania Road Import - Rukwa and Katavi regions","id":1462,"area":23601.174016426638,"year":"2016","lastUpdated":"2016-11-09T18:57:37.926429","changesets":0,"mappers":0,"roads":0,"buildings":0,"edits":0,"latest":null},"geometry":{"type":"Point","coordinates":[31.18854567490904,-7.033630568874043]}},{"type":"Feature","properties":{"title":"MSD & JSI/USAID Tanzania Road Import - Zanzibar region","id":1299,"area":2309.3542336056603,"year":"2017","lastUpdated":"2017-03-25T22:18:08.637646","changesets":0,"mappers":0,"roads":0,"buildings":0,"edits":0,"latest":null},"geometry":{"type":"Point","coordinates":[39.31937084402078,-6.027515801549827]}},{"type":"Feature","properties":{"title":"MSD & JSI/USAID Tanzania Road Import - Kigoma and Tabora regions","id":1233,"area":55716.44775664574,"year":"2017","lastUpdated":"2017-09-08T08:29:26.684641","changesets":89,"mappers":5,"roads":7164.0075520837,"buildings":137,"edits":14011,"latest":"2015-10-15T16:49:58.000Z"},"geometry":{"type":"Point","coordinates":[32.221144436424595,-4.716038295525221]}},{"type":"Feature","properties":{"title":"MSD & JSI/USAID Tanzania Road Import - Mtwara & Lindi Regions + Tunduru District","id":1194,"area":59075.33727007736,"year":"2016","lastUpdated":"2016-05-20T14:26:58.661670","changesets":0,"mappers":0,"roads":0,"buildings":0,"edits":0,"latest":null},"geometry":{"type":"Point","coordinates":[38.17747568450677,-10.184904231832341]}},{"type":"Feature","properties":{"title":"MSD & JSI/USAID Tanzania Road Import - West Ruvuma region","id":1256,"area":10512.14514732082,"year":"2016","lastUpdated":"2016-04-04T16:27:39.061397","changesets":0,"mappers":0,"roads":0,"buildings":0,"edits":0,"latest":null},"geometry":{"type":"Point","coordinates":[35.73071423073114,-10.644452430898227]}},{"type":"Feature","properties":{"title":"Ngorongoro Conservation Area","id":1040,"area":8640.922363295951,"year":"2017","lastUpdated":"2017-04-25T12:38:43.230359","changesets":0,"mappers":0,"roads":0,"buildings":0,"edits":0,"latest":null},"geometry":{"type":"Point","coordinates":[35.421957288469606,-3.139810074677604]}},{"type":"Feature","properties":{"title":"Serengeti National Park","id":834,"area":13370.038280033767,"year":"2017","lastUpdated":"2017-07-05T09:52:49.480984","changesets":0,"mappers":0,"roads":0,"buildings":0,"edits":0,"latest":null},"geometry":{"type":"Point","coordinates":[34.71995007142858,-1.969435597802197]}},{"type":"Feature","properties":{"title":"Kasulu, Kasulu, Tanzania Mini Grids Project 01","id":4563,"area":1132.117945620699,"year":"2018","lastUpdated":"2018-06-22T13:47:54.809568","changesets":1683,"mappers":62,"roads":6.80675700959666,"buildings":46061,"edits":46543,"latest":"2018-06-22T13:37:34.000Z"},"geometry":{"type":"Point","coordinates":[30.223387298585,-4.60036034805499]}},{"type":"Feature","properties":{"title":"Kasulu, Kasulu, Tanzania Mini Grids Project 04","id":4571,"area":2136.1760422465886,"year":"2018","lastUpdated":"2018-07-16T06:27:37.607948","changesets":2501,"mappers":67,"roads":13.8254831502391,"buildings":55848,"edits":56667,"latest":"2018-07-16T06:27:29.000Z"},"geometry":{"type":"Point","coordinates":[29.98247064013143,-4.6984841931908]}},{"type":"Feature","properties":{"title":"Kasulu, Kasulu, Tanzania Mini Grids Project 05","id":4572,"area":2206.993164418614,"year":"2018","lastUpdated":"2018-06-21T06:47:41.876386","changesets":659,"mappers":53,"roads":0.332538602551101,"buildings":7553,"edits":7645,"latest":"2018-06-21T06:47:28.000Z"},"geometry":{"type":"Point","coordinates":[30.58835132393096,-4.543021986400334]}},{"type":"Feature","properties":{"title":"Kasulu, Kasulu, Tanzania Mini Grids Project 02","id":4569,"area":1983.2479906601172,"year":"2018","lastUpdated":"2018-06-21T06:42:11.871140","changesets":1354,"mappers":62,"roads":1.61439788714098,"buildings":46289,"edits":46619,"latest":"2018-06-20T13:13:28.000Z"},"geometry":{"type":"Point","coordinates":[30.10818888197763,-4.140006794490141]}},{"type":"Feature","properties":{"title":"Tabora, Tabora, Tanzania Mini Grids Project 03","id":4585,"area":1693.3910497782038,"year":"2018","lastUpdated":"2018-05-31T12:30:55.852006","changesets":1678,"mappers":65,"roads":5.09675418876548,"buildings":25872,"edits":26598,"latest":"2018-05-30T13:54:08.000Z"},"geometry":{"type":"Point","coordinates":[32.49827423592803,-5.097769430191667]}},{"type":"Feature","properties":{"title":"Mivumoni Village, Pangani District, Tanzania Mini Grids Project","id":4699,"area":0.818188879689272,"year":"2018","lastUpdated":"2018-06-07T14:22:25.703646","changesets":78,"mappers":17,"roads":0.0276900086096642,"buildings":366,"edits":370,"latest":"2018-06-07T14:01:00.000Z"},"geometry":{"type":"Point","coordinates":[38.903763126037596,-5.307186790941633]}},{"type":"Feature","properties":{"title":"Kigoma_12","id":4098,"area":3.729917625288736,"year":"2018","lastUpdated":"2018-02-12T06:54:13.338393","changesets":479,"mappers":6,"roads":0.434900266530263,"buildings":2941,"edits":2951,"latest":"2018-02-12T06:53:36.000Z"},"geometry":{"type":"Point","coordinates":[29.9389865678107,-5.924358173879355]}},{"type":"Feature","properties":{"title":"S. Monduli, Simanjiro, Tanzania Mini Grids - MapSwipe Project 04 - 03","id":4478,"area":166.70877071205354,"year":"2018","lastUpdated":"2018-05-07T07:19:53.188978","changesets":123,"mappers":47,"roads":0,"buildings":1480,"edits":1480,"latest":"2018-05-04T09:16:49.000Z"},"geometry":{"type":"Point","coordinates":[37.56197930444573,-5.003146663344777]}},{"type":"Feature","properties":{"title":"Lindi, Lindi, Tanzania Mini Grids Project 04","id":4495,"area":2400.161505147141,"year":"2018","lastUpdated":"2018-07-02T06:32:32.947392","changesets":1774,"mappers":65,"roads":3.81934683994176,"buildings":47301,"edits":47458,"latest":"2018-06-29T06:39:00.000Z"},"geometry":{"type":"Point","coordinates":[39.76326133480001,-10.168453829364001]}},{"type":"Feature","properties":{"title":"Central Singida, Singida, Tanzania Mini Grids Project 05 East","id":4529,"area":1299.832349107584,"year":"2018","lastUpdated":"2018-05-17T09:08:08.102064","changesets":829,"mappers":53,"roads":0.392972178332061,"buildings":16651,"edits":16659,"latest":"2018-05-17T11:23:30.000Z"},"geometry":{"type":"Point","coordinates":[35.19340611670751,-4.901696314033335]}},{"type":"Feature","properties":{"title":"Manyoni, Singida, Tanzania Mini Grids Project 03","id":4533,"area":2145.5742223790444,"year":"2018","lastUpdated":"2018-05-18T07:14:49.538516","changesets":1111,"mappers":60,"roads":11.822358790697,"buildings":20618,"edits":21074,"latest":"2018-05-18T13:10:25.000Z"},"geometry":{"type":"Point","coordinates":[35.212920812232916,-5.7381875379846266]}},{"type":"Feature","properties":{"title":"Chemba and Bahi Districts, Tanzania Mini Grids Project 06","id":4657,"area":1954.498784623165,"year":"2018","lastUpdated":"2018-06-14T09:15:54.656575","changesets":1739,"mappers":67,"roads":0.0871877791220345,"buildings":23455,"edits":23473,"latest":"2018-06-15T19:15:22.000Z"},"geometry":{"type":"Point","coordinates":[35.518366503705884,-5.7085387258819065]}},{"type":"Feature","properties":{"title":"kagera_3","id":4072,"area":5.425110699350517,"year":"2018","lastUpdated":"2018-01-29T13:51:44.560135","changesets":66,"mappers":4,"roads":0,"buildings":1436,"edits":1436,"latest":"2018-01-30T06:14:28.000Z"},"geometry":{"type":"Point","coordinates":[31.78296036744672,-1.9859577129840518]}},{"type":"Feature","properties":{"title":"Lindi - Mini Grids","id":4260,"area":235.67207484051517,"year":"2018","lastUpdated":"2018-04-18T21:53:41.412313","changesets":133,"mappers":23,"roads":23.0772557724216,"buildings":2266,"edits":2684,"latest":"2018-04-18T21:53:28.000Z"},"geometry":{"type":"Point","coordinates":[39.305670260454285,-10.707404745317382]}},{"type":"Feature","properties":{"title":"Kipili Ward, Rukwa, Tanzania Mini Grids Project 01","id":4401,"area":180.26824654575853,"year":"2018","lastUpdated":"2018-05-08T10:13:30.293395","changesets":455,"mappers":51,"roads":0.000599220796289046,"buildings":9512,"edits":9513,"latest":"2018-05-08T10:13:16.000Z"},"geometry":{"type":"Point","coordinates":[30.596896102411772,-7.461640143485554]}},{"type":"Feature","properties":{"title":"Zanzibar Roads - Unguja Island - 02","id":3666,"area":467.0999763333136,"year":"2017","lastUpdated":"2017-10-02T18:35:16.494476","changesets":182,"mappers":13,"roads":1127.1061948184,"buildings":5,"edits":6570,"latest":"2017-10-04T08:29:26.000Z"},"geometry":{"type":"Point","coordinates":[39.26414174907967,-5.856335474346869]}},{"type":"Feature","properties":{"title":"Kigoma_17","id":4105,"area":4.227050493859274,"year":"2018","lastUpdated":"2018-02-15T09:58:31.382396","changesets":84,"mappers":8,"roads":0.193564177598396,"buildings":1322,"edits":1325,"latest":"2018-02-22T12:12:21.000Z"},"geometry":{"type":"Point","coordinates":[29.924467030509287,-5.732861759308482]}},{"type":"Feature","properties":{"title":"kagera_1","id":4070,"area":36.69351653109927,"year":"2018","lastUpdated":"2018-01-29T08:30:21.754241","changesets":3,"mappers":1,"roads":0,"buildings":2,"edits":2,"latest":"2018-01-27T16:53:46.000Z"},"geometry":{"type":"Point","coordinates":[31.86992732951731,-1.6797556657183264]}},{"type":"Feature","properties":{"title":"Mahenye-Njombe","id":4178,"area":419.20452177017404,"year":"2018","lastUpdated":"2018-02-28T05:34:07.695778","changesets":557,"mappers":14,"roads":2.81615930013736,"buildings":28307,"edits":28364,"latest":"2018-02-23T12:45:33.000Z"},"geometry":{"type":"Point","coordinates":[34.79358795360073,-9.509275911526554]}},{"type":"Feature","properties":{"title":"Kigoma_11","id":4097,"area":4.492849273495634,"year":"2018","lastUpdated":"2018-02-09T07:33:00.557116","changesets":215,"mappers":4,"roads":0,"buildings":5705,"edits":5705,"latest":"2018-02-09T07:23:31.000Z"},"geometry":{"type":"Point","coordinates":[29.899492785288036,-5.944963869712221]}},{"type":"Feature","properties":{"title":"Itona_Kilosa","id":4179,"area":741.6959938125862,"year":"2018","lastUpdated":"2018-04-11T06:43:22.814485","changesets":409,"mappers":55,"roads":1.35885332610885,"buildings":3691,"edits":3744,"latest":"2018-04-11T07:21:08.000Z"},"geometry":{"type":"Point","coordinates":[35.53547612786605,-8.535150251339573]}},{"type":"Feature","properties":{"title":"Kagera_Goziba","id":4079,"area":1.1395975392255964,"year":"2018","lastUpdated":"2018-01-29T07:04:24.380360","changesets":0,"mappers":0,"roads":0,"buildings":0,"edits":0,"latest":null},"geometry":{"type":"Point","coordinates":[32.61356799061652,-1.4704301698877245]}},{"type":"Feature","properties":{"title":"Kigoma_5","id":4086,"area":3.7491092848574272,"year":"2018","lastUpdated":"2018-02-09T15:21:14.358247","changesets":156,"mappers":6,"roads":0.459783989828362,"buildings":1942,"edits":1948,"latest":"2018-02-07T11:29:30.000Z"},"geometry":{"type":"Point","coordinates":[30.01864971055042,-6.469512478105855]}},{"type":"Feature","properties":{"title":"Kasuku Building Import Workflow Test (South))","id":4868,"area":1.6123125790816706,"year":"2018","lastUpdated":"2018-07-17T20:03:00.170837","changesets":8,"mappers":2,"roads":0,"buildings":104,"edits":104,"latest":"2018-07-17T20:02:45.000Z"},"geometry":{"type":"Point","coordinates":[29.742028550271055,-4.904178434960531]}},{"type":"Feature","properties":{"title":"kagera_2","id":4071,"area":3.850874321865156,"year":"2018","lastUpdated":"2018-01-27T16:40:53.676551","changesets":0,"mappers":0,"roads":0,"buildings":0,"edits":0,"latest":null},"geometry":{"type":"Point","coordinates":[32.119615051499174,-1.4696475246974754]}},{"type":"Feature","properties":{"title":"Kalobe-Data Zetu","id":4242,"area":5.581452341462152,"year":"2018","lastUpdated":"2018-03-07T09:09:27.180898","changesets":531,"mappers":5,"roads":0.0106237188235286,"buildings":6096,"edits":6109,"latest":"2018-03-07T09:02:49.000Z"},"geometry":{"type":"Point","coordinates":[33.4084716088529,-8.914847386034923]}},{"type":"Feature","properties":{"title":"Njombe Region, Tanzania Mini Grids Project 03","id":4724,"area":2136.028082871833,"year":"2018","lastUpdated":"2018-07-20T14:07:21.388133","changesets":1147,"mappers":62,"roads":0.108975939233081,"buildings":37781,"edits":37805,"latest":"2018-07-20T14:13:03.000Z"},"geometry":{"type":"Point","coordinates":[34.076388843157154,-9.100503775177796]}},{"type":"Feature","properties":{"title":"Ramani Huria 2.0 Session 01","id":3329,"area":31.68859428995046,"year":"2017","lastUpdated":"2017-08-10T21:07:17.738097","changesets":257,"mappers":67,"roads":32.0605720986966,"buildings":1717,"edits":2201,"latest":"2017-08-10T21:06:16.000Z"},"geometry":{"type":"Point","coordinates":[36.046382904052734,-7.679825943888342]}},{"type":"Feature","properties":{"title":"S. Monduli, Simanjiro, Tanzania Mini Grids - MapSwipe Project 04 - 01","id":4480,"area":133.48441769177396,"year":"2018","lastUpdated":"2018-06-29T10:36:33.994267","changesets":554,"mappers":60,"roads":0,"buildings":4661,"edits":4661,"latest":"2018-06-29T09:11:00.000Z"},"geometry":{"type":"Point","coordinates":[36.51598942107269,-5.009138210253439]}},{"type":"Feature","properties":{"title":"Kigoma_15","id":4102,"area":1.4561334248441051,"year":"2018","lastUpdated":"2018-02-07T07:32:02.125048","changesets":36,"mappers":5,"roads":0.613262345810854,"buildings":921,"edits":929,"latest":"2018-02-06T11:58:55.000Z"},"geometry":{"type":"Point","coordinates":[29.751054238259393,-5.416786723007887]}},{"type":"Feature","properties":{"title":"Kasulu, Kasulu, Tanzania Mini Grids Project 03","id":4570,"area":1652.0254948432712,"year":"2018","lastUpdated":"2018-07-12T13:57:48.201517","changesets":774,"mappers":62,"roads":0.25450019539659,"buildings":10336,"edits":10388,"latest":"2018-07-18T11:48:21.000Z"},"geometry":{"type":"Point","coordinates":[30.549761183673645,-4.348750979042502]}},{"type":"Feature","properties":{"title":"Tunduru, Ruvuma, Tanzania Mini Grids Project 05","id":4411,"area":1479.9129003136538,"year":"2018","lastUpdated":"2018-05-17T04:42:53.781681","changesets":1947,"mappers":62,"roads":3.59696148842831,"buildings":30085,"edits":30123,"latest":"2018-05-17T04:42:41.000Z"},"geometry":{"type":"Point","coordinates":[37.235568507342286,-10.889137167904732]}},{"type":"Feature","properties":{"title":"Mwanza","id":4074,"area":121.88924319716057,"year":"2018","lastUpdated":"2018-03-27T15:42:41.221237","changesets":6,"mappers":3,"roads":0.470326699343026,"buildings":24,"edits":42,"latest":"2018-03-27T15:44:50.000Z"},"geometry":{"type":"Point","coordinates":[33.126132567191135,-1.9238324242353735]}},{"type":"Feature","properties":{"title":"TZ IFC Mini-grids house count test-1","id":4035,"area":481.70619678590833,"year":"2018","lastUpdated":"2018-02-09T12:39:18.669550","changesets":3,"mappers":3,"roads":0,"buildings":180,"edits":180,"latest":"2018-02-09T12:27:18.000Z"},"geometry":{"type":"Point","coordinates":[34.581446410258884,-7.300716320272623]}},{"type":"Feature","properties":{"title":"Mwanza_sengerema","id":4069,"area":126.12964780900826,"year":"2018","lastUpdated":"2018-01-27T16:59:18.497099","changesets":1,"mappers":1,"roads":0,"buildings":0,"edits":0,"latest":"2018-01-27T16:55:51.000Z"},"geometry":{"type":"Point","coordinates":[32.01839321825404,-2.2808662314499273]}},{"type":"Feature","properties":{"title":"Missing Maps: Dar es Salaam - Ramani Huria 2.0 - 25","id":3411,"area":260.81879568766976,"year":"2018","lastUpdated":"2018-03-05T15:34:52.492149","changesets":1755,"mappers":99,"roads":3.25862217409201,"buildings":58641,"edits":59730,"latest":"2017-08-21T09:01:52.000Z"},"geometry":{"type":"Point","coordinates":[39.37092792533908,-6.938791309484072]}},{"type":"Feature","properties":{"title":"Villages in Pangani District, Tanzania Mini Grids Project","id":4642,"area":3.2853624864693787,"year":"2018","lastUpdated":"2018-06-03T23:09:23.858187","changesets":85,"mappers":27,"roads":0.0728887891265449,"buildings":3068,"edits":3101,"latest":"2018-06-08T10:05:47.000Z"},"geometry":{"type":"Point","coordinates":[38.9586214536687,-5.426816270673696]}},{"type":"Feature","properties":{"title":"Rufiji, Pwani, Tanzania Mini Grids Project 04","id":4624,"area":1796.0668599205555,"year":"2018","lastUpdated":"2018-06-26T06:14:51.811334","changesets":465,"mappers":41,"roads":0.0542000845535752,"buildings":8375,"edits":8384,"latest":"2018-06-25T13:58:27.000Z"},"geometry":{"type":"Point","coordinates":[38.53147573879938,-7.800372604775588]}},{"type":"Feature","properties":{"title":"Missing Maps: Dar es Salaam - Ramani Huria 2.0 - 29","id":3426,"area":297.76980439882516,"year":"2018","lastUpdated":"2018-03-05T15:32:07.612903","changesets":627,"mappers":46,"roads":1351.44697865554,"buildings":91,"edits":10344,"latest":"2017-09-06T11:56:12.000Z"},"geometry":{"type":"Point","coordinates":[39.45915654892912,-6.919374059784676]}},{"type":"Feature","properties":{"title":"Mpwapwa, Dodoma, Tanzania Mini Grids Project 08","id":4418,"area":69.68255741962724,"year":"2018","lastUpdated":"2018-05-19T20:42:24.261907","changesets":1926,"mappers":103,"roads":18.7990415103299,"buildings":25541,"edits":25683,"latest":"2018-05-19T20:41:29.000Z"},"geometry":{"type":"Point","coordinates":[36.46391177601475,-5.9448724542277525]}},{"type":"Feature","properties":{"title":"Missing Maps: Dar es Salaam - Ramani Huria 2.0 - 34","id":3456,"area":196.89167630800463,"year":"2018","lastUpdated":"2018-03-05T15:30:13.278824","changesets":3676,"mappers":139,"roads":587.388974612296,"buildings":20987,"edits":38292,"latest":"2017-11-13T11:24:48.000Z"},"geometry":{"type":"Point","coordinates":[39.100288211273984,-6.877221494935376]}},{"type":"Feature","properties":{"title":"Lindi, Lindi, Tanzania Mini Grids Project 01","id":4487,"area":2262.000623549842,"year":"2018","lastUpdated":"2018-05-10T05:11:52.452673","changesets":1674,"mappers":68,"roads":0.902342152134417,"buildings":56663,"edits":56749,"latest":"2018-05-14T14:03:37.000Z"},"geometry":{"type":"Point","coordinates":[38.91537784774695,-10.060492523381807]}},{"type":"Feature","properties":{"title":"Missing Maps: Dar es Salaam - Ramani Huria 2.0 - 39","id":3505,"area":96.83711970341507,"year":"2018","lastUpdated":"2018-03-04T23:01:32.143525","changesets":3897,"mappers":79,"roads":269.298159883004,"buildings":48923,"edits":63495,"latest":"2017-09-18T11:50:06.000Z"},"geometry":{"type":"Point","coordinates":[39.305843254526984,-6.840568905719535]}},{"type":"Feature","properties":{"title":"Urambo, Tabora, Tanzania Mini Grids Project 01-02","id":4376,"area":2032.586550505636,"year":"2018","lastUpdated":"2018-06-19T08:37:57.167229","changesets":2264,"mappers":60,"roads":0.977625727876198,"buildings":26878,"edits":26920,"latest":"2018-06-19T08:37:22.000Z"},"geometry":{"type":"Point","coordinates":[31.762362863705164,-5.438836111127685]}},{"type":"Feature","properties":{"title":"S. Monduli, Simanjiro, Tanzania Mini Grids - MapSwipe Project 01","id":4422,"area":918.2087603729018,"year":"2018","lastUpdated":"2018-05-08T13:55:46.077666","changesets":4703,"mappers":86,"roads":7.83174281046291,"buildings":50610,"edits":50723,"latest":"2018-05-11T06:32:20.000Z"},"geometry":{"type":"Point","coordinates":[36.6096116860842,-3.632909796231658]}},{"type":"Feature","properties":{"title":"KIgoma_4","id":4085,"area":2.399888577348453,"year":"2018","lastUpdated":"2018-02-01T08:56:49.652957","changesets":108,"mappers":6,"roads":1.32334526648593,"buildings":3032,"edits":3050,"latest":"2018-02-01T08:56:12.000Z"},"geometry":{"type":"Point","coordinates":[30.042473064769514,-6.458449644665783]}},{"type":"Feature","properties":{"title":"Missing Maps: Dar es Salaam - Ramani Huria 2.0 - 27","id":3424,"area":230.31173426208932,"year":"2018","lastUpdated":"2018-03-05T15:33:58.772352","changesets":2533,"mappers":79,"roads":1585.23523604963,"buildings":328,"edits":20922,"latest":"2017-08-31T08:30:39.000Z"},"geometry":{"type":"Point","coordinates":[39.10027660536416,-7.025038398924583]}},{"type":"Feature","properties":{"title":"Missing Maps: Dar es Salaam - Ramani Huria 2.0 - 24","id":3410,"area":178.71077034656207,"year":"2018","lastUpdated":"2018-03-05T15:35:12.366029","changesets":1325,"mappers":49,"roads":0.0922744730575409,"buildings":7624,"edits":7650,"latest":"2017-08-16T00:47:29.000Z"},"geometry":{"type":"Point","coordinates":[39.49870437090148,-6.9536467580624555]}},{"type":"Feature","properties":{"title":"Manyoni, Singida, Tanzania Mini Grids Project 02","id":4532,"area":1743.3360624738941,"year":"2018","lastUpdated":"2018-05-21T06:12:05.383529","changesets":885,"mappers":62,"roads":0.198161772673363,"buildings":17096,"edits":17116,"latest":"2018-05-21T06:05:53.000Z"},"geometry":{"type":"Point","coordinates":[34.272985485616104,-5.75358385726637]}},{"type":"Feature","properties":{"title":"S. Monduli, Simanjiro, Tanzania Mini Grids - MapSwipe Project 04 - 04","id":4477,"area":139.74141127398454,"year":"2018","lastUpdated":"2018-05-04T08:01:04.870840","changesets":352,"mappers":54,"roads":0,"buildings":4700,"edits":4700,"latest":"2018-05-04T08:40:26.000Z"},"geometry":{"type":"Point","coordinates":[37.97815318589818,-5.0748312565103175]}},{"type":"Feature","properties":{"title":"Tanzania Development Trust and Institute for Rural Development Planning: Mvomero district student mapping project ","id":3319,"area":1439.4586268120136,"year":"2018","lastUpdated":"2018-03-30T09:46:27.084556","changesets":0,"mappers":0,"roads":0,"buildings":0,"edits":0,"latest":null},"geometry":{"type":"Point","coordinates":[37.51997811453685,-6.44864147483987]}},{"type":"Feature","properties":{"title":"Chemba District Villages, Tanzania Mini Grids Project","id":4646,"area":4.696678039184461,"year":"2018","lastUpdated":"2018-06-03T23:08:33.498188","changesets":75,"mappers":22,"roads":0.00801516130593583,"buildings":2731,"edits":2732,"latest":"2018-06-03T12:03:34.000Z"},"geometry":{"type":"Point","coordinates":[35.84642170190889,-5.1555243929266625]}},{"type":"Feature","properties":{"title":"Missing Maps: Dar es Salaam - Ramani Huria 2.0 - 36","id":3488,"area":375.46340276958506,"year":"2018","lastUpdated":"2018-03-05T15:28:01.583533","changesets":3567,"mappers":92,"roads":484.778915813185,"buildings":27629,"edits":38950,"latest":"2017-09-08T11:51:25.000Z"},"geometry":{"type":"Point","coordinates":[39.342418323976254,-6.900416957671596]}},{"type":"Feature","properties":{"title":"Ardhi University: Housing Development - Arusha City","id":3937,"area":28.84666648523269,"year":"2018","lastUpdated":"2018-03-15T09:06:53.133923","changesets":1278,"mappers":35,"roads":22.2386466845665,"buildings":3644,"edits":3818,"latest":"2018-05-11T01:10:09.000Z"},"geometry":{"type":"Point","coordinates":[36.790300973849895,-3.3836324243588614]}},{"type":"Feature","properties":{"title":"Tanzania Development Trust: Tabora district mapping project","id":2361,"area":11331.719987775972,"year":"2018","lastUpdated":"2018-06-29T13:15:53.251740","changesets":11660,"mappers":420,"roads":28505.5191124794,"buildings":316325,"edits":517703,"latest":"2018-07-12T04:06:11.000Z"},"geometry":{"type":"Point","coordinates":[32.92552601207387,-4.978413388219568]}},{"type":"Feature","properties":{"title":"Manyoni, Singida, Tanzania Mini Grids Project 01","id":4531,"area":1326.5528682624965,"year":"2018","lastUpdated":"2018-05-19T20:47:16.371655","changesets":589,"mappers":58,"roads":0.134107026616461,"buildings":7569,"edits":7586,"latest":"2018-05-18T10:04:10.000Z"},"geometry":{"type":"Point","coordinates":[34.5086017651493,-5.53508090379479]}},{"type":"Feature","properties":{"title":"Manyoni, Singida, Tanzania Mini Grids Project 06","id":4556,"area":3110.180831968628,"year":"2018","lastUpdated":"2018-07-11T13:35:23.793716","changesets":1901,"mappers":69,"roads":0.0988541090635963,"buildings":35125,"edits":35164,"latest":"2018-07-11T13:29:54.000Z"},"geometry":{"type":"Point","coordinates":[34.04246656080447,-6.8440179852491845]}},{"type":"Feature","properties":{"title":"Tabora, Tabora, Tanzania Mini Grids Project 04","id":4611,"area":1431.5287309262178,"year":"2018","lastUpdated":"2018-06-21T06:43:17.878145","changesets":1290,"mappers":60,"roads":17.4569544106012,"buildings":23456,"edits":24034,"latest":"2018-06-21T06:42:56.000Z"},"geometry":{"type":"Point","coordinates":[32.9989006523097,-5.09063064812292]}},{"type":"Feature","properties":{"title":"Lindi, Lindi, Tanzania Mini Grids Project 03","id":4489,"area":1972.6554027241687,"year":"2018","lastUpdated":"2018-07-04T09:39:41.831448","changesets":1117,"mappers":68,"roads":0.712816430807669,"buildings":37574,"edits":37626,"latest":"2018-07-04T09:33:22.000Z"},"geometry":{"type":"Point","coordinates":[39.183662563828705,-10.12342916029111]}},{"type":"Feature","properties":{"title":"Missing Maps: Temeke - Data Zetu","id":3699,"area":14.051390146474496,"year":"2018","lastUpdated":"2018-03-04T22:52:17.712834","changesets":931,"mappers":30,"roads":58.5254100191776,"buildings":29137,"edits":33372,"latest":"2018-03-09T20:29:21.000Z"},"geometry":{"type":"Point","coordinates":[39.26423919262868,-6.891846441400092]}},{"type":"Feature","properties":{"title":"Central Singida, Singida, Tanzania Mini Grids Project 01 East","id":4509,"area":1475.3604875927692,"year":"2018","lastUpdated":"2018-06-28T10:09:05.303438","changesets":937,"mappers":67,"roads":0.0165898988823745,"buildings":11972,"edits":11978,"latest":"2018-06-28T10:08:59.000Z"},"geometry":{"type":"Point","coordinates":[34.041140687827536,-5.126694160175507]}},{"type":"Feature","properties":{"title":"Rungwe, Mbeya, Tanzania Mini Grids Project 01","id":4392,"area":1330.3320402972577,"year":"2018","lastUpdated":"2018-05-30T05:59:04.640865","changesets":2885,"mappers":74,"roads":21.3821929149524,"buildings":119621,"edits":120470,"latest":"2018-05-30T06:51:18.000Z"},"geometry":{"type":"Point","coordinates":[33.5756407980469,-9.244759979750832]}},{"type":"Feature","properties":{"title":"Kigoma_10","id":4091,"area":4.460415768336148,"year":"2018","lastUpdated":"2018-02-08T09:50:21.431365","changesets":220,"mappers":5,"roads":0.0191951062871919,"buildings":3014,"edits":3016,"latest":"2018-02-08T09:50:17.000Z"},"geometry":{"type":"Point","coordinates":[29.852708915118153,-5.977798075388094]}},{"type":"Feature","properties":{"title":"TZ IFC Mini-grids house count test","id":3876,"area":481.70619678590833,"year":"2018","lastUpdated":"2018-01-17T09:18:38.631606","changesets":3458,"mappers":35,"roads":5.06366089326074,"buildings":275823,"edits":276862,"latest":"2018-02-20T15:26:25.000Z"},"geometry":{"type":"Point","coordinates":[34.581446410258884,-7.300716320272623]}},{"type":"Feature","properties":{"title":"Chemba and Bahi Districts, Tanzania Mini Grids Project 04","id":4655,"area":1954.7614953958484,"year":"2018","lastUpdated":"2018-06-06T12:45:47.017143","changesets":1237,"mappers":61,"roads":0.0887218633667997,"buildings":40885,"edits":40916,"latest":"2018-06-07T11:54:39.000Z"},"geometry":{"type":"Point","coordinates":[35.46191965125588,-6.090344630316677]}},{"type":"Feature","properties":{"title":"Rufiji, Pwani, Tanzania Mini Grids Project 01","id":4621,"area":1421.848754938379,"year":"2018","lastUpdated":"2018-06-28T09:05:33.700927","changesets":1507,"mappers":57,"roads":0.314447651645533,"buildings":35066,"edits":35135,"latest":"2018-06-28T09:05:26.000Z"},"geometry":{"type":"Point","coordinates":[38.756067518885445,-7.717796153884717]}},{"type":"Feature","properties":{"title":"Kigoma_1","id":4082,"area":3.220895758602432,"year":"2018","lastUpdated":"2018-01-30T09:22:24.958026","changesets":128,"mappers":5,"roads":0,"buildings":3113,"edits":3113,"latest":"2018-02-19T11:05:31.000Z"},"geometry":{"type":"Point","coordinates":[30.44210254746399,-6.82158989076395]}},{"type":"Feature","properties":{"title":"Karema Ward, Katavi, Tanzania Mini Grids Project 01","id":4402,"area":49.87575499116186,"year":"2018","lastUpdated":"2018-04-12T09:55:34.291247","changesets":83,"mappers":11,"roads":0,"buildings":1985,"edits":1985,"latest":"2018-04-12T09:55:03.000Z"},"geometry":{"type":"Point","coordinates":[30.45028626808132,-6.824839702555798]}},{"type":"Feature","properties":{"title":"Tabora, Tabora, Tanzania Mini Grids Project 01","id":4583,"area":1907.1663208860407,"year":"2018","lastUpdated":"2018-06-21T06:39:06.778869","changesets":1628,"mappers":58,"roads":1.72537869257951,"buildings":34604,"edits":34909,"latest":"2018-06-21T06:45:40.000Z"},"geometry":{"type":"Point","coordinates":[32.59170617851557,-4.606714194976095]}},{"type":"Feature","properties":{"title":"Kigoma_7","id":4088,"area":2.1750746662810996,"year":"2018","lastUpdated":"2018-02-14T06:34:17.900163","changesets":64,"mappers":6,"roads":0,"buildings":770,"edits":770,"latest":"2018-02-14T06:35:46.000Z"},"geometry":{"type":"Point","coordinates":[29.747221030052973,-6.0249577041517295]}},{"type":"Feature","properties":{"title":"Missing Maps: Dar es Salaam - Ramani Huria 2.0 - 33","id":3455,"area":156.72153831900792,"year":"2018","lastUpdated":"2018-03-05T15:30:37.208960","changesets":2954,"mappers":102,"roads":579.977370621098,"buildings":21094,"edits":39085,"latest":"2017-10-29T15:21:56.000Z"},"geometry":{"type":"Point","coordinates":[39.06687201276458,-6.7708713265034515]}},{"type":"Feature","properties":{"title":"Mbozi, Mbeya, Tanzania Mini Grids Project 06","id":4349,"area":1339.4689946738515,"year":"2018","lastUpdated":"2018-06-29T09:45:45.880967","changesets":1043,"mappers":62,"roads":742.110448134303,"buildings":21213,"edits":22569,"latest":"2018-07-20T11:18:36.000Z"},"geometry":{"type":"Point","coordinates":[32.47751628437078,-8.583821597525402]}},{"type":"Feature","properties":{"title":"Urambo, Tabora, Tanzania Mini Grids Project 03","id":4365,"area":1398.7624508238905,"year":"2018","lastUpdated":"2018-07-04T09:14:48.213836","changesets":1473,"mappers":69,"roads":0.043434080974496,"buildings":34954,"edits":34964,"latest":"2018-07-04T09:28:23.000Z"},"geometry":{"type":"Point","coordinates":[31.89778350716778,-5.22060588533778]}},{"type":"Feature","properties":{"title":"Tanzania Development Trust: Msisi ward community mapping project ","id":3160,"area":81.67279767012198,"year":"2018","lastUpdated":"2018-04-26T00:17:28.085993","changesets":0,"mappers":0,"roads":0,"buildings":0,"edits":0,"latest":null},"geometry":{"type":"Point","coordinates":[34.66563340576518,-4.623019740570436]}},{"type":"Feature","properties":{"title":"Missing Maps: Dar es Salaam - Ramani Huria 2.0 - 26","id":3412,"area":264.77964572508387,"year":"2018","lastUpdated":"2018-03-05T15:34:27.981696","changesets":362,"mappers":52,"roads":2.21303831070795,"buildings":4558,"edits":4620,"latest":"2017-08-16T10:11:16.000Z"},"geometry":{"type":"Point","coordinates":[39.452851686025426,-7.123357238474153]}},{"type":"Feature","properties":{"title":"Kigoma_14","id":4100,"area":0.8979043606940176,"year":"2018","lastUpdated":"2018-02-16T06:09:02.081829","changesets":179,"mappers":9,"roads":0,"buildings":906,"edits":906,"latest":"2018-02-16T06:08:51.000Z"},"geometry":{"type":"Point","coordinates":[29.64091800036702,-4.624237761570404]}},{"type":"Feature","properties":{"title":"Kigoma_8","id":4089,"area":3.170194931843662,"year":"2018","lastUpdated":"2018-02-14T08:58:00.280285","changesets":175,"mappers":7,"roads":0.00164720947993757,"buildings":5558,"edits":5558,"latest":"2018-02-15T13:52:57.000Z"},"geometry":{"type":"Point","coordinates":[29.77626862798747,-6.004675849692375]}},{"type":"Feature","properties":{"title":"Missing Maps: Iringa - OpenStreetMap Tanzania","id":3431,"area":13.946474979484007,"year":"2018","lastUpdated":"2018-07-24T11:16:56.519925","changesets":637,"mappers":56,"roads":16.1208529789333,"buildings":4109,"edits":4949,"latest":"2018-07-25T20:06:36.000Z"},"geometry":{"type":"Point","coordinates":[35.70870872020667,-7.758966359486665]}},{"type":"Feature","properties":{"title":"Kigoma_2","id":4083,"area":1.965158778543636,"year":"2018","lastUpdated":"2018-01-30T14:05:17.983249","changesets":127,"mappers":2,"roads":0,"buildings":458,"edits":458,"latest":"2018-01-30T14:04:27.000Z"},"geometry":{"type":"Point","coordinates":[30.490210022071953,-6.813742245754607]}},{"type":"Feature","properties":{"title":"Missing Maps: Dar es Salaam - Ramani Huria 2.0 - 40","id":3523,"area":44.58915788409798,"year":"2018","lastUpdated":"2018-03-04T23:01:06.175520","changesets":5364,"mappers":98,"roads":142.280090782385,"buildings":76616,"edits":90202,"latest":"2018-01-03T08:26:39.000Z"},"geometry":{"type":"Point","coordinates":[39.202911789704345,-6.764988440714859]}},{"type":"Feature","properties":{"title":"Mbeya minigrids","id":4208,"area":381.3150730146897,"year":"2018","lastUpdated":"2018-04-11T07:15:52.458810","changesets":8229,"mappers":81,"roads":545.472150450804,"buildings":454625,"edits":458780,"latest":"2018-03-29T12:55:24.000Z"},"geometry":{"type":"Point","coordinates":[33.273085375143864,-8.927145320940063]}},{"type":"Feature","properties":{"title":"Rungwe, Mbeya, Tanzania Mini Grids Project 02","id":4393,"area":1149.0351365244592,"year":"2018","lastUpdated":"2018-04-30T01:32:30.188814","changesets":2056,"mappers":60,"roads":12.5724590121885,"buildings":72408,"edits":72612,"latest":"2018-04-27T14:03:47.000Z"},"geometry":{"type":"Point","coordinates":[33.85995773044913,-9.28097728849757]}},{"type":"Feature","properties":{"title":"Mara","id":4073,"area":3.087873440053216,"year":"2018","lastUpdated":"2018-01-29T14:51:44.742950","changesets":0,"mappers":0,"roads":0,"buildings":0,"edits":0,"latest":null},"geometry":{"type":"Point","coordinates":[33.70828711361714,-1.4058350861409175]}},{"type":"Feature","properties":{"title":"Tanzania Development Trust: Kagera Road Mapping","id":4369,"area":15505.318016681384,"year":"2018","lastUpdated":"2018-06-17T15:44:26.132464","changesets":33,"mappers":3,"roads":170.54959615572,"buildings":21,"edits":167,"latest":"2018-07-26T17:50:50.000Z"},"geometry":{"type":"Point","coordinates":[31.083802641369388,-1.6037426685457075]}},{"type":"Feature","properties":{"title":"Missing Maps: Dar es Salaam - Ramani Huria 2.0 - 38","id":3496,"area":41.1920610625183,"year":"2018","lastUpdated":"2018-03-05T15:25:20.531310","changesets":5472,"mappers":73,"roads":78.4353169552313,"buildings":94858,"edits":120253,"latest":"2017-11-10T12:46:09.000Z"},"geometry":{"type":"Point","coordinates":[39.246766265484496,-6.7942247570358445]}},{"type":"Feature","properties":{"title":"Kagera_2","id":4080,"area":4.132236731942467,"year":"2018","lastUpdated":"2018-01-29T09:03:59.256755","changesets":0,"mappers":0,"roads":0,"buildings":0,"edits":0,"latest":null},"geometry":{"type":"Point","coordinates":[32.119223662470695,-1.4703780484724356]}},{"type":"Feature","properties":{"title":"Missing Maps: Kyela - Data Zetu","id":3698,"area":251.55720854707542,"year":"2018","lastUpdated":"2018-04-05T07:21:35.195103","changesets":802,"mappers":12,"roads":5.58626698624379,"buildings":29269,"edits":29469,"latest":"2018-07-19T11:51:17.000Z"},"geometry":{"type":"Point","coordinates":[33.84069567931769,-9.544454940746501]}},{"type":"Feature","properties":{"title":"Ivugula Village, Tanzania Mini Grids Project 01","id":4435,"area":12.603608518468686,"year":"2018","lastUpdated":"2018-04-19T11:25:13.979143","changesets":270,"mappers":44,"roads":23.4950636574225,"buildings":1686,"edits":2161,"latest":"2018-06-13T18:16:09.000Z"},"geometry":{"type":"Point","coordinates":[33.072913842202496,-8.994998857575]}},{"type":"Feature","properties":{"title":"Rufiji, Pwani, Tanzania Mini Grids Project 03","id":4623,"area":1539.3249459809983,"year":"2018","lastUpdated":"2018-06-13T04:54:39.869414","changesets":1141,"mappers":46,"roads":0.239674830143507,"buildings":25465,"edits":25525,"latest":"2018-06-13T07:45:23.000Z"},"geometry":{"type":"Point","coordinates":[39.34482040828832,-7.830360285671785]}},{"type":"Feature","properties":{"title":"Urambo, Tabora, Tanzania Mini Grids Project 05","id":4352,"area":1522.3866868404682,"year":"2018","lastUpdated":"2018-06-29T06:39:44.799826","changesets":1812,"mappers":63,"roads":47.1194316793102,"buildings":61111,"edits":61203,"latest":"2018-07-02T05:53:02.000Z"},"geometry":{"type":"Point","coordinates":[31.750896252665452,-5.017669822392724]}},{"type":"Feature","properties":{"title":"Tunduru, Ruvuma, Tanzania Mini Grids Project 06-07","id":4420,"area":2221.546325309108,"year":"2018","lastUpdated":"2018-06-26T09:46:42.343600","changesets":2472,"mappers":65,"roads":8.35441218309258,"buildings":33151,"edits":33219,"latest":"2018-06-26T09:49:39.000Z"},"geometry":{"type":"Point","coordinates":[37.34039799071685,-10.737231230373672]}},{"type":"Feature","properties":{"title":"Zanzibar Roads - Unguja Island - 01","id":3650,"area":234.75514110431052,"year":"2017","lastUpdated":"2017-10-07T12:29:26.306281","changesets":573,"mappers":18,"roads":1191.68951939582,"buildings":43,"edits":17373,"latest":"2017-10-07T12:28:50.000Z"},"geometry":{"type":"Point","coordinates":[39.248176202742364,-6.1821500381296275]}},{"type":"Feature","properties":{"title":"Missing Maps: Dar es Salaam - Ramani Huria 2.0 - 35","id":3479,"area":278.2939060927899,"year":"2018","lastUpdated":"2018-03-05T15:29:18.639586","changesets":2410,"mappers":124,"roads":330.96957804182,"buildings":13540,"edits":24252,"latest":"2017-09-14T20:28:36.000Z"},"geometry":{"type":"Point","coordinates":[39.12088847308327,-7.024730678705793]}},{"type":"Feature","properties":{"title":"Central Singida, Singida, Tanzania Mini Grids Project 03","id":4519,"area":2105.041518258272,"year":"2018","lastUpdated":"2018-05-16T13:46:42.174753","changesets":1720,"mappers":63,"roads":0.0426727988520717,"buildings":55117,"edits":55135,"latest":"2018-05-16T14:10:04.000Z"},"geometry":{"type":"Point","coordinates":[34.9139572099927,-4.933032473319332]}},{"type":"Feature","properties":{"title":"Missing Maps: Dar es Salaam - Ramani Huria 2.0 - 31","id":3452,"area":122.32342510735991,"year":"2018","lastUpdated":"2018-03-05T15:31:01.812805","changesets":2509,"mappers":42,"roads":423.609994409642,"buildings":6830,"edits":24947,"latest":"2017-11-07T07:20:37.000Z"},"geometry":{"type":"Point","coordinates":[39.138780106334046,-6.615628277176966]}},{"type":"Feature","properties":{"title":"Zanzibar Roads - Unguja Island - 03","id":3670,"area":891.0473088683418,"year":"2017","lastUpdated":"2017-10-05T10:03:33.314686","changesets":411,"mappers":17,"roads":2063.39671273259,"buildings":162,"edits":11431,"latest":"2018-06-18T12:26:16.000Z"},"geometry":{"type":"Point","coordinates":[39.43088050601065,-6.258244508731397]}},{"type":"Feature","properties":{"title":"Missing Maps: Dar es Salaam - Ramani Huria 2.0 - 28","id":3425,"area":238.90307672725964,"year":"2018","lastUpdated":"2018-03-05T15:33:37.319997","changesets":3337,"mappers":175,"roads":1979.67874635539,"buildings":2573,"edits":35065,"latest":"2017-11-03T04:15:17.000Z"},"geometry":{"type":"Point","coordinates":[39.23760432535289,-6.936433155607072]}},{"type":"Feature","properties":{"title":"Missing Maps: Dar es Salaam - Ramani Huria 2.0 - 22","id":3394,"area":193.3069912960159,"year":"2018","lastUpdated":"2018-03-05T15:37:43.885692","changesets":1930,"mappers":58,"roads":1.39294643325465,"buildings":23844,"edits":24048,"latest":"2017-08-13T19:03:52.000Z"},"geometry":{"type":"Point","coordinates":[39.08408207500271,-7.020948492257043]}}],"totalArea":5865526.227231766,"Philippines":[{"type":"Feature","properties":{"title":"CRS-UP NOAH Building Footprints Mapping - Angono, Rizal","id":4476,"area":14.749809999799018,"year":"2018","lastUpdated":"2018-07-18T10:03:55.901875","changesets":369,"mappers":13,"roads":0.56708532054949,"buildings":1334,"edits":1377,"latest":"2018-07-21T00:48:05.000Z"},"geometry":{"type":"Point","coordinates":[121.16528400038572,14.535180941214387]}},{"type":"Feature","properties":{"title":"CRS-UP NOAH Building Footprints Mapping - Malabon City","id":4475,"area":15.859280000650813,"year":"2018","lastUpdated":"2018-07-23T18:13:07.790933","changesets":415,"mappers":6,"roads":0.382137983857054,"buildings":11395,"edits":11501,"latest":"2018-07-23T18:12:59.000Z"},"geometry":{"type":"Point","coordinates":[120.9674154212251,14.667902897859918]}},{"type":"Feature","properties":{"title":"Mayon Volcano USAID & USGS","id":4202,"area":23.191221545963582,"year":"2018","lastUpdated":"2018-07-24T00:42:11.317491","changesets":476,"mappers":98,"roads":30.2305632319562,"buildings":7830,"edits":8159,"latest":"2018-07-26T18:42:52.000Z"},"geometry":{"type":"Point","coordinates":[123.708816541763,13.271475957593504]}},{"type":"Feature","properties":{"title":"Barangay Marasbaras, Tacloban, Leyte - Missing Maps","id":3300,"area":7.807989010258504,"year":"2018","lastUpdated":"2018-06-28T16:24:54.135765","changesets":126,"mappers":9,"roads":5.10115868250806,"buildings":3434,"edits":3775,"latest":"2018-06-28T16:24:02.000Z"},"geometry":{"type":"Point","coordinates":[125.01222282424382,11.203458223071134]}},{"type":"Feature","properties":{"title":"Northern Mindanao, PH - Missing Roads","id":4216,"area":3.6160059552083452,"year":"2018","lastUpdated":"2018-07-14T13:38:20.690150","changesets":17625193,"mappers":805921,"roads":11463700.022595,"buildings":283907947,"edits":364544477,"latest":"2018-07-27T22:51:34.000Z"},"geometry":{"type":"Point","coordinates":[124.49225405560671,8.340059475782704]}},{"type":"Feature","properties":{"title":"DOST-Project NOAH (ISAIAH) Structures Map Up Zambales","id":1966,"area":4983.089272993,"year":"2017","lastUpdated":"2017-06-29T07:11:51.796592","changesets":0,"mappers":0,"roads":0,"buildings":0,"edits":0,"latest":null},"geometry":{"type":"Point","coordinates":[120.14176535981657,15.274302892442977]}},{"type":"Feature","properties":{"title":"DOST-Project NOAH (ISAIAH) Structures Map Up Cavite","id":1636,"area":1236.7930267854183,"year":"2017","lastUpdated":"2017-01-06T03:53:24.366033","changesets":0,"mappers":0,"roads":0,"buildings":0,"edits":0,"latest":null},"geometry":{"type":"Point","coordinates":[120.89029621315147,14.296354336510534]}},{"type":"Feature","properties":{"title":"Northern Cebu Risk Mapping Project - Daanbantayan and Medellin","id":1509,"area":165.4687088247908,"year":"2018","lastUpdated":"2018-05-27T16:30:44.519125","changesets":0,"mappers":0,"roads":0,"buildings":0,"edits":0,"latest":null},"geometry":{"type":"Point","coordinates":[124.00373259912789,11.183437208381003]}},{"type":"Feature","properties":{"title":"Bohol Island, Philippines OpenRoad project, Part I -- MapGive","id":768,"area":457.54507236444925,"year":"2017","lastUpdated":"2017-12-23T20:17:30.223354","changesets":0,"mappers":0,"roads":0,"buildings":0,"edits":0,"latest":null},"geometry":{"type":"Point","coordinates":[124.34127807617182,9.80611072723312]}},{"type":"Feature","properties":{"title":"Cagayan Valley, PH - Missing Roads","id":4219,"area":2.940942559638417,"year":"2018","lastUpdated":"2018-07-06T06:27:32.983505","changesets":17625193,"mappers":805921,"roads":11463700.022595,"buildings":283907947,"edits":364544477,"latest":"2018-07-27T22:51:34.000Z"},"geometry":{"type":"Point","coordinates":[121.68249184541031,17.195568942139595]}},{"type":"Feature","properties":{"title":"UP-NOAH Mapping Campuses (UP Baguio)","id":3795,"area":1.7552341733864982,"year":"2018","lastUpdated":"2018-06-19T18:12:49.458950","changesets":0,"mappers":0,"roads":0,"buildings":0,"edits":0,"latest":null},"geometry":{"type":"Point","coordinates":[120.59778999174375,16.405859913831677]}},{"type":"Feature","properties":{"title":"Central Luzon, PH - Missing Roads","id":4221,"area":7.136402147325932,"year":"2018","lastUpdated":"2018-07-06T06:28:05.268468","changesets":17625193,"mappers":805921,"roads":11463700.022595,"buildings":283907947,"edits":364544477,"latest":"2018-07-27T22:51:34.000Z"},"geometry":{"type":"Point","coordinates":[120.56681226874122,15.170671477112618]}},{"type":"Feature","properties":{"title":"Zamboanga Peninsula, PH - Missing Roads","id":4217,"area":6.634273132943503,"year":"2018","lastUpdated":"2018-07-14T12:02:08.918065","changesets":17625193,"mappers":805921,"roads":11463700.022595,"buildings":283907947,"edits":364544477,"latest":"2018-07-27T22:51:34.000Z"},"geometry":{"type":"Point","coordinates":[122.907009764677,7.903860363457329]}},{"type":"Feature","properties":{"title":"UP-NOAH Mapping Campuses (UP Alabang)","id":3793,"area":2.6954788018399616,"year":"2017","lastUpdated":"2017-11-25T07:02:10.874687","changesets":0,"mappers":0,"roads":0,"buildings":0,"edits":0,"latest":null},"geometry":{"type":"Point","coordinates":[121.012331082343,14.376960362577975]}},{"type":"Feature","properties":{"title":"Eastern Visayas, PH - Missing Roads","id":4225,"area":0.9011879212974336,"year":"2018","lastUpdated":"2018-07-06T06:28:56.119206","changesets":17625193,"mappers":805921,"roads":11463700.022595,"buildings":283907947,"edits":364544477,"latest":"2018-07-27T22:51:34.000Z"},"geometry":{"type":"Point","coordinates":[124.82231154030616,11.386736510106921]}},{"type":"Feature","properties":{"title":"Cavite, PH - Missing Roads","id":4165,"area":8.147770355865646,"year":"2018","lastUpdated":"2018-07-06T06:26:38.435860","changesets":17625193,"mappers":805921,"roads":11463700.022595,"buildings":283907947,"edits":364544477,"latest":"2018-07-27T22:51:34.000Z"},"geometry":{"type":"Point","coordinates":[120.95492038001697,14.294231916684815]}},{"type":"Feature","properties":{"title":"CRS-UP NOAH Building Footprints Mapping - Malabon City (Free for All)","id":4306,"area":0.8869727357098613,"year":"2018","lastUpdated":"2018-03-16T08:07:15.295915","changesets":11,"mappers":2,"roads":0,"buildings":86,"edits":86,"latest":"2018-03-18T13:04:12.000Z"},"geometry":{"type":"Point","coordinates":[120.96156142151258,14.659111625361861]}},{"type":"Feature","properties":{"title":"Barangay Talisay, Mayorga, Leyte - Missing Maps","id":3829,"area":2.270534722569991,"year":"2018","lastUpdated":"2018-01-25T15:59:08.065074","changesets":61,"mappers":13,"roads":3.70690145632449,"buildings":738,"edits":928,"latest":"2017-12-24T15:19:57.000Z"},"geometry":{"type":"Point","coordinates":[124.9775838851929,10.91758102492891]}},{"type":"Feature","properties":{"title":"Western Visayas, PH - Missing Roads","id":4224,"area":7.047203961449363,"year":"2018","lastUpdated":"2018-07-16T06:36:09.972055","changesets":17625193,"mappers":805921,"roads":11463700.022595,"buildings":283907947,"edits":364544477,"latest":"2018-07-27T22:51:34.000Z"},"geometry":{"type":"Point","coordinates":[122.6953061950292,10.934054961778411]}},{"type":"Feature","properties":{"title":"Missing Maps: Antique, Panay Island, Philippines","id":2464,"area":14.104153175400437,"year":"2018","lastUpdated":"2018-05-03T01:33:25.883023","changesets":1274,"mappers":41,"roads":27.014408546842,"buildings":3586,"edits":4237,"latest":"2018-05-28T02:51:00.000Z"},"geometry":{"type":"Point","coordinates":[121.97024703025825,10.831840611569888]}},{"type":"Feature","properties":{"title":"UP-NOAH Mapping Campuses (UP Open University - Headquarters)","id":3790,"area":1.4776756115042378,"year":"2017","lastUpdated":"2017-11-25T03:27:04.114043","changesets":0,"mappers":0,"roads":0,"buildings":0,"edits":0,"latest":null},"geometry":{"type":"Point","coordinates":[121.26342652548276,14.17487559438485]}},{"type":"Feature","properties":{"title":"DOST-Project NOAH (ISAIAH) Structures Map Up La Union","id":1885,"area":2912.909394539788,"year":"2018","lastUpdated":"2018-04-16T21:25:19.930509","changesets":0,"mappers":0,"roads":0,"buildings":0,"edits":0,"latest":null},"geometry":{"type":"Point","coordinates":[120.45269986810342,16.621796748275862]}},{"type":"Feature","properties":{"title":"UP-NOAH Mapping Campuses (UP Bonifacio Global City)","id":3437,"area":0.5192619410537112,"year":"2017","lastUpdated":"2017-11-25T07:36:04.585128","changesets":0,"mappers":0,"roads":0,"buildings":0,"edits":0,"latest":null},"geometry":{"type":"Point","coordinates":[121.06018819307005,14.55389432235206]}},{"type":"Feature","properties":{"title":"UP-NOAH Mapping Campuses (UP Manila)","id":3438,"area":1.6100307695151406,"year":"2017","lastUpdated":"2017-11-25T06:16:14.442768","changesets":0,"mappers":0,"roads":0,"buildings":0,"edits":0,"latest":null},"geometry":{"type":"Point","coordinates":[120.98574694465175,14.581946535582672]}},{"type":"Feature","properties":{"title":"CRS-UP NOAH Building Footprints Mapping - Marilao, Bulacan","id":4474,"area":28.509141928904054,"year":"2018","lastUpdated":"2018-06-18T18:48:42.184656","changesets":634,"mappers":14,"roads":16.086328379399,"buildings":22087,"edits":22879,"latest":"2018-06-19T02:49:51.000Z"},"geometry":{"type":"Point","coordinates":[120.98346576955595,14.773807306456357]}},{"type":"Feature","properties":{"title":"CRS-UP NOAH Building Footprints Mapping - Taytay, Rizal","id":4614,"area":28.563349406234973,"year":"2018","lastUpdated":"2018-07-13T13:03:43.434727","changesets":1476,"mappers":16,"roads":4.80807505973405,"buildings":12696,"edits":13417,"latest":"2018-07-18T09:43:01.000Z"},"geometry":{"type":"Point","coordinates":[121.12940906356323,14.548432535816845]}},{"type":"Feature","properties":{"title":"UP-NOAH Mapping Campuses (UP Diliman Extension Programs in Pampanga)","id":3434,"area":43.54156672373075,"year":"2018","lastUpdated":"2018-03-08T03:26:29.800555","changesets":0,"mappers":0,"roads":0,"buildings":0,"edits":0,"latest":null},"geometry":{"type":"Point","coordinates":[120.55005827104301,15.186427180404344]}},{"type":"Feature","properties":{"title":"UP-NOAH Mapping Campuses (UP Diliman Extension Programs in Olongapo)","id":3435,"area":4.840046682537817,"year":"2017","lastUpdated":"2017-12-12T09:04:26.153739","changesets":0,"mappers":0,"roads":0,"buildings":0,"edits":0,"latest":null},"geometry":{"type":"Point","coordinates":[120.28256200974987,14.827260483926251]}},{"type":"Feature","properties":{"title":"UP-NOAH Mapping Campuses (UP Visayas Miag-ao) ","id":3470,"area":12.578176573343839,"year":"2017","lastUpdated":"2017-11-25T07:02:40.744442","changesets":0,"mappers":0,"roads":0,"buildings":0,"edits":0,"latest":null},"geometry":{"type":"Point","coordinates":[122.21696706918563,10.652970828749863]}},{"type":"Feature","properties":{"title":"Pampanga, PH - Missing Roads","id":4018,"area":7.393817777829668,"year":"2018","lastUpdated":"2018-07-06T06:22:22.732956","changesets":17625193,"mappers":805921,"roads":11463700.022595,"buildings":283907947,"edits":364544477,"latest":"2018-07-27T22:51:34.000Z"},"geometry":{"type":"Point","coordinates":[120.60901479206947,15.12644299857575]}},{"type":"Feature","properties":{"title":"NOAH-UNICEF: Mapping Mapanas, Northern Samar","id":2724,"area":132.45656122565023,"year":"2017","lastUpdated":"2017-04-11T05:01:07.136767","changesets":36,"mappers":2,"roads":0.547703860688767,"buildings":1607,"edits":1629,"latest":"2017-04-11T03:23:10.000Z"},"geometry":{"type":"Point","coordinates":[125.26437313867976,12.485027118499048]}},{"type":"Feature","properties":{"title":"Laguna, PH - Missing Roads","id":4015,"area":5.171315826889603,"year":"2018","lastUpdated":"2018-07-06T06:21:50.575882","changesets":17625193,"mappers":805921,"roads":11463700.022595,"buildings":283907947,"edits":364544477,"latest":"2018-07-27T22:51:34.000Z"},"geometry":{"type":"Point","coordinates":[121.15472656621479,14.236294460036506]}},{"type":"Feature","properties":{"title":"Missing Maps: San Jose, Panay Island, Philippines","id":2449,"area":92.17194200794256,"year":"2018","lastUpdated":"2018-03-08T02:22:03.657473","changesets":7079,"mappers":210,"roads":144.04700009821,"buildings":23700,"edits":26904,"latest":"2018-03-08T02:15:30.000Z"},"geometry":{"type":"Point","coordinates":[121.95624289313717,10.761148689531957]}},{"type":"Feature","properties":{"title":"UP-NOAH Mapping Campuses (UP Cebu City)","id":3461,"area":3.674962024941641,"year":"2017","lastUpdated":"2017-11-25T07:56:15.435752","changesets":0,"mappers":0,"roads":0,"buildings":0,"edits":0,"latest":null},"geometry":{"type":"Point","coordinates":[123.89678955078128,10.319099143827456]}},{"type":"Feature","properties":{"title":"ADB Padre Burgos Base Mapping Workshop","id":2144,"area":209.76542400018755,"year":"2016","lastUpdated":"2016-10-15T16:40:48.147100","changesets":0,"mappers":0,"roads":0,"buildings":0,"edits":0,"latest":null},"geometry":{"type":"Point","coordinates":[121.84800397684072,13.962676352778573]}},{"type":"Feature","properties":{"title":"NOAH-UNICEF: Mapping Itogon, Benguet","id":2723,"area":438.98478316533635,"year":"2017","lastUpdated":"2017-04-10T08:54:49.667811","changesets":103,"mappers":2,"roads":63.3932891394836,"buildings":11494,"edits":11971,"latest":"2017-04-10T08:40:08.000Z"},"geometry":{"type":"Point","coordinates":[120.67333595353101,16.399841203673162]}},{"type":"Feature","properties":{"title":"DOST-Project NOAH (ISAIAH) Structures Map Up Taguig City","id":2059,"area":36.87283084272823,"year":"2017","lastUpdated":"2017-03-01T04:23:28.693100","changesets":0,"mappers":0,"roads":0,"buildings":0,"edits":0,"latest":null},"geometry":{"type":"Point","coordinates":[121.05808782303362,14.525811344943833]}},{"type":"Feature","properties":{"title":"Quezon, PH - Missing Roads","id":4013,"area":1.3650857673810763,"year":"2018","lastUpdated":"2018-07-06T06:19:16.080886","changesets":17625193,"mappers":805921,"roads":11463700.022595,"buildings":283907947,"edits":364544477,"latest":"2018-07-27T22:51:34.000Z"},"geometry":{"type":"Point","coordinates":[121.73070282142338,14.026298771339512]}},{"type":"Feature","properties":{"title":"DOST-Project NOAH (ISAIAH) Structures Map Up Batangas","id":1886,"area":6798.780760709117,"year":"2017","lastUpdated":"2017-02-28T03:13:35.622830","changesets":0,"mappers":0,"roads":0,"buildings":0,"edits":0,"latest":null},"geometry":{"type":"Point","coordinates":[121.12339725679243,13.989166806792454]}},{"type":"Feature","properties":{"title":"UP-NOAH Mapping Campuses (UP Mindanao)","id":3791,"area":3.6910639697608496,"year":"2017","lastUpdated":"2017-11-29T16:06:57.989146","changesets":0,"mappers":0,"roads":0,"buildings":0,"edits":0,"latest":null},"geometry":{"type":"Point","coordinates":[125.48628379471575,7.085765528020958]}},{"type":"Feature","properties":{"title":"DOST-Project NOAH (ISAIAH) Structures Map Up Leyte Island","id":2109,"area":15287.575096873534,"year":"2017","lastUpdated":"2017-08-12T09:43:19.067230","changesets":0,"mappers":0,"roads":0,"buildings":0,"edits":0,"latest":null},"geometry":{"type":"Point","coordinates":[124.86789655658747,10.717513224838013]}},{"type":"Feature","properties":{"title":"CRS-UP NOAH Building Footprints Mapping - Malabon City","id":3907,"area":15.859280000650813,"year":"2018","lastUpdated":"2018-06-06T07:45:46.150299","changesets":18,"mappers":2,"roads":0.908475572641972,"buildings":67,"edits":74,"latest":"2018-06-06T08:03:26.000Z"},"geometry":{"type":"Point","coordinates":[120.9674154212251,14.667902897859918]}},{"type":"Feature","properties":{"title":"DOST-Project NOAH (ISAIAH) Structures Map Up Samar Island","id":2033,"area":28583.05346594204,"year":"2017","lastUpdated":"2017-08-30T11:21:52.786696","changesets":0,"mappers":0,"roads":0,"buildings":0,"edits":0,"latest":null},"geometry":{"type":"Point","coordinates":[125.07863703216962,11.8290817532419]}},{"type":"Feature","properties":{"title":"CRS-UP NOAH Building Footprints Mapping - Navotas City","id":4044,"area":10.600105663830165,"year":"2018","lastUpdated":"2018-03-08T02:29:27.821773","changesets":1,"mappers":1,"roads":0,"buildings":0,"edits":2,"latest":"2018-03-22T20:25:17.000Z"},"geometry":{"type":"Point","coordinates":[120.93501364287877,14.667356142422948]}},{"type":"Feature","properties":{"title":"Pangasinan, PH - Missing Roads","id":4026,"area":1.1581224982077116,"year":"2018","lastUpdated":"2018-07-06T06:26:14.164470","changesets":17625193,"mappers":805921,"roads":11463700.022595,"buildings":283907947,"edits":364544477,"latest":"2018-07-27T22:51:34.000Z"},"geometry":{"type":"Point","coordinates":[120.38341801763256,16.007853906949467]}},{"type":"Feature","properties":{"title":"DOST-Project NOAH (ISAIAH) Structures Map Up Marikina City","id":2206,"area":22.821861973817175,"year":"2017","lastUpdated":"2017-02-28T09:40:08.651582","changesets":0,"mappers":0,"roads":0,"buildings":0,"edits":0,"latest":null},"geometry":{"type":"Point","coordinates":[121.10758893181819,14.64671691233766]}},{"type":"Feature","properties":{"title":"UP-NOAH Mapping Campuses (UP Manila School of Health Sciences, Aurora)","id":3794,"area":4.535501398412163,"year":"2018","lastUpdated":"2018-03-11T09:53:01.249203","changesets":0,"mappers":0,"roads":0,"buildings":0,"edits":0,"latest":null},"geometry":{"type":"Point","coordinates":[121.5407588418,15.805618790607875]}},{"type":"Feature","properties":{"title":"UP-NOAH Mapping Campuses (UP Diliman)","id":3436,"area":4.428477183303132,"year":"2017","lastUpdated":"2017-11-25T02:29:08.008725","changesets":0,"mappers":0,"roads":0,"buildings":0,"edits":0,"latest":null},"geometry":{"type":"Point","coordinates":[121.06184657303031,14.651228369067912]}},{"type":"Feature","properties":{"title":"Bohol Island, Philippines OpenRoad project, Part III -- MapGive","id":1055,"area":167.18586226424708,"year":"2017","lastUpdated":"2017-09-25T18:13:41.155784","changesets":0,"mappers":0,"roads":0,"buildings":0,"edits":0,"latest":null},"geometry":{"type":"Point","coordinates":[124.06711940467797,9.665902699165224]}},{"type":"Feature","properties":{"title":"DOST-Project NOAH (ISAIAH) Structures Map Up Ilocos Sur","id":2008,"area":4406.481445663697,"year":"2017","lastUpdated":"2017-02-17T02:28:23.354580","changesets":0,"mappers":0,"roads":0,"buildings":0,"edits":0,"latest":null},"geometry":{"type":"Point","coordinates":[120.58246795429858,17.199380731674214]}},{"type":"Feature","properties":{"title":"DOST-Project NOAH (ISAIAH) Structures Map Up Abra","id":1884,"area":3947.985752759589,"year":"2017","lastUpdated":"2017-03-11T04:23:01.141132","changesets":0,"mappers":0,"roads":0,"buildings":0,"edits":0,"latest":null},"geometry":{"type":"Point","coordinates":[120.76902355100542,17.533678149542986]}},{"type":"Feature","properties":{"title":"DOST-Project NOAH (ISAIAH) Structures Map Up Ilocos Norte","id":1996,"area":5561.793445652042,"year":"2017","lastUpdated":"2017-01-09T04:19:56.530728","changesets":0,"mappers":0,"roads":0,"buildings":0,"edits":0,"latest":null},"geometry":{"type":"Point","coordinates":[120.7548661820388,18.106512497087376]}},{"type":"Feature","properties":{"title":"UP-NOAH Mapping Campuses (UP Los Baos)","id":3457,"area":12.20182994686138,"year":"2017","lastUpdated":"2017-11-25T08:00:53.306934","changesets":0,"mappers":0,"roads":0,"buildings":0,"edits":0,"latest":null},"geometry":{"type":"Point","coordinates":[121.23180969901695,14.164937408864516]}},{"type":"Feature","properties":{"title":"UP-NOAH Mapping Campuses (UP Cebu South Road Properties)","id":3469,"area":11.024467091991225,"year":"2017","lastUpdated":"2017-11-06T01:57:47.533670","changesets":0,"mappers":0,"roads":0,"buildings":0,"edits":0,"latest":null},"geometry":{"type":"Point","coordinates":[123.86829185485836,10.27304070045319]}},{"type":"Feature","properties":{"title":"DOST-Project NOAH (ISAIAH) Structures Map Up Misamis Oriental","id":2006,"area":3651.9980002426037,"year":"2017","lastUpdated":"2017-02-27T09:03:13.187468","changesets":0,"mappers":0,"roads":0,"buildings":0,"edits":0,"latest":null},"geometry":{"type":"Point","coordinates":[124.72481164382773,8.558389462115018]}},{"type":"Feature","properties":{"title":"UP-NOAH Mapping Campuses (UP Manila School of Health Sciences in Leyte) ","id":3472,"area":1.400988753814339,"year":"2018","lastUpdated":"2018-06-27T04:56:51.430180","changesets":0,"mappers":0,"roads":0,"buildings":0,"edits":0,"latest":null},"geometry":{"type":"Point","coordinates":[124.99088051332731,11.157825800825774]}},{"type":"Feature","properties":{"title":"Philippines: Silvinos Lobos","id":1157,"area":6.207303897148626,"year":"2017","lastUpdated":"2017-07-21T03:12:42.356484","changesets":292,"mappers":16,"roads":26.35312779277,"buildings":544,"edits":804,"latest":"2015-12-16T07:22:58.000Z"},"geometry":{"type":"Point","coordinates":[124.8381827034895,12.32730317863355]}},{"type":"Feature","properties":{"title":"Danao, Bohol Island, Philippines OpenRoad project, Part IIII -- MapGive","id":1056,"area":187.61116003075477,"year":"2017","lastUpdated":"2017-10-29T00:50:25.079341","changesets":0,"mappers":0,"roads":0,"buildings":0,"edits":0,"latest":null},"geometry":{"type":"Point","coordinates":[124.20165233660025,9.943714169953921]}},{"type":"Feature","properties":{"title":"DOST-Project NOAH (ISAIAH) Structures Map Up Bataan","id":1888,"area":2696.6107231235264,"year":"2017","lastUpdated":"2017-02-23T06:42:12.922735","changesets":0,"mappers":0,"roads":0,"buildings":0,"edits":0,"latest":null},"geometry":{"type":"Point","coordinates":[120.48423503270136,14.765015538388617]}}],"Central African Republic":[{"type":"Feature","properties":{"title":"Concern Worldwide Disaster Risk Reduction (pilot) Gaga / Datoli, Central African Republic","id":4448,"area":3.1098974543285984,"year":"2018","lastUpdated":"2018-07-26T13:44:55.191117","changesets":114,"mappers":15,"roads":12.629216277212,"buildings":1812,"edits":1942,"latest":"2018-07-17T08:23:29.000Z"},"geometry":{"type":"Point","coordinates":[16.97869646415265,5.48774680125175]}},{"type":"Feature","properties":{"title":"Concern Worldwide Disaster Risk Reduction (pilot) Lambi, Central African Republic","id":4449,"area":2.3906673840512376,"year":"2018","lastUpdated":"2018-07-20T11:35:20.772136","changesets":3,"mappers":1,"roads":23.6210550309198,"buildings":32,"edits":59,"latest":"2018-07-20T12:02:10.000Z"},"geometry":{"type":"Point","coordinates":[17.504208535905274,4.868156660467157]}},{"type":"Feature","properties":{"title":"Concern Worldwide Disaster Risk Reduction (pilot) Mbanko, Central African Republic","id":4450,"area":1.8526255318439828,"year":"2018","lastUpdated":"2018-04-24T15:27:49.285526","changesets":2,"mappers":1,"roads":5.62731420224133,"buildings":0,"edits":9,"latest":"2018-04-24T16:08:29.000Z"},"geometry":{"type":"Point","coordinates":[17.011505081182875,4.830940356346273]}},{"type":"Feature","properties":{"title":"Central African Republic. Refugees in Cameroon, Gbiti","id":779,"area":1.0940632741990721,"year":"2015","lastUpdated":"2015-11-23T06:27:35.131096","changesets":0,"mappers":0,"roads":0,"buildings":0,"edits":0,"latest":null},"geometry":{"type":"Point","coordinates":[14.71109411715117,4.700695839244187]}},{"type":"Feature","properties":{"title":"Central African Republic. Refugees in Cameroon, Yamba","id":829,"area":0.4470362205424618,"year":"2018","lastUpdated":"2018-02-11T04:16:47.762421","changesets":0,"mappers":0,"roads":0,"buildings":0,"edits":0,"latest":null},"geometry":{"type":"Point","coordinates":[15.206647852671741,7.106673558778624]}},{"type":"Feature","properties":{"title":"Central African Republic, Mambr-Kad, Berbrati","id":424,"area":46.107357132163806,"year":"2014","lastUpdated":"2014-03-04T17:06:53.420520","changesets":928,"mappers":37,"roads":417.933705905424,"buildings":23373,"edits":30852,"latest":"2017-11-10T10:47:59.000Z"},"geometry":{"type":"Point","coordinates":[15.765342710208873,4.2335552593342705]}},{"type":"Feature","properties":{"title":"Central African Republic, Ouham, Kabo","id":139,"area":63.69172931618589,"year":"2017","lastUpdated":"2017-05-07T16:03:27.530827","changesets":52,"mappers":4,"roads":134.79695524865,"buildings":697,"edits":1771,"latest":"2017-05-07T16:03:17.000Z"},"geometry":{"type":"Point","coordinates":[18.62684726455845,7.695042309295085]}},{"type":"Feature","properties":{"title":"Central African Republic, Ouaka, Bambari","id":141,"area":76.62982945650114,"year":"2015","lastUpdated":"2015-10-28T13:13:29.229697","changesets":0,"mappers":0,"roads":0,"buildings":0,"edits":0,"latest":null},"geometry":{"type":"Point","coordinates":[20.6609916658249,5.768180044221211]}},{"type":"Feature","properties":{"title":"Concern Worldwide Disaster Risk Reduction (pilot) Boyali, Central African Republic","id":4451,"area":1.9390617941603194,"year":"2018","lastUpdated":"2018-04-24T14:50:22.146428","changesets":0,"mappers":0,"roads":0,"buildings":0,"edits":0,"latest":null},"geometry":{"type":"Point","coordinates":[17.881910763609717,5.051965727912866]}},{"type":"Feature","properties":{"title":"Frontire Sud du Tchad : routes et zones rsidentielles/Chad Southern Border: roads and residential landuse","id":518,"area":308767.2532987346,"year":"2018","lastUpdated":"2018-06-12T12:36:02.768358","changesets":541,"mappers":36,"roads":1774.22244532686,"buildings":2214,"edits":6152,"latest":"2018-05-26T00:42:27.000Z"},"geometry":{"type":"Point","coordinates":[19.518585202362214,8.694653005390437]}},{"type":"Feature","properties":{"title":"Central African Republic, Basse-Kotto, Dimbi","id":158,"area":46.529885584314925,"year":"2018","lastUpdated":"2018-05-03T15:01:32.095371","changesets":46,"mappers":7,"roads":31.2477525144564,"buildings":1066,"edits":1331,"latest":"2018-05-03T15:01:19.000Z"},"geometry":{"type":"Point","coordinates":[21.72117232974045,4.614239742158414]}},{"type":"Feature","properties":{"title":"Central African Republic crisis, road network vs WFP open data references","id":783,"area":88642.60285447176,"year":"2015","lastUpdated":"2015-11-27T15:50:02.357678","changesets":0,"mappers":0,"roads":0,"buildings":0,"edits":0,"latest":null},"geometry":{"type":"Point","coordinates":[20.026659221006373,6.118931719726986]}}],"Malawi":[{"type":"Feature","properties":{"title":"Katumba Songwe, Mbeya, Tanzania Mini Grids Project 01","id":4400,"area":38.180931167498045,"year":"2018","lastUpdated":"2018-04-12T09:09:59.185092","changesets":477,"mappers":58,"roads":1.86573763751187,"buildings":9477,"edits":9737,"latest":"2018-04-12T09:09:50.000Z"},"geometry":{"type":"Point","coordinates":[33.87519405982135,-9.66733130427923]}},{"type":"Feature","properties":{"title":"Kapelulu","id":4379,"area":338.62418037046297,"year":"2018","lastUpdated":"2018-07-17T08:50:13.043340","changesets":1151,"mappers":83,"roads":1213.94477048783,"buildings":20345,"edits":27778,"latest":"2018-07-17T08:49:29.000Z"},"geometry":{"type":"Point","coordinates":[33.87933429655841,-12.928213987958761]}},{"type":"Feature","properties":{"title":"Missing Maps - Malawi - Mbabvi","id":4136,"area":494.03595616006686,"year":"2018","lastUpdated":"2018-07-09T10:28:58.149455","changesets":562,"mappers":47,"roads":481.562949378303,"buildings":2861,"edits":5564,"latest":"2018-07-20T10:50:22.000Z"},"geometry":{"type":"Point","coordinates":[35.00100389511327,-16.709331318309083]}},{"type":"Feature","properties":{"title":"Missing Maps - Malawi - Chitipa","id":4139,"area":10483.53823408829,"year":"2018","lastUpdated":"2018-07-27T10:27:57.752519","changesets":7264,"mappers":696,"roads":10324.8139769652,"buildings":116481,"edits":165641,"latest":"2018-07-27T11:46:09.000Z"},"geometry":{"type":"Point","coordinates":[33.414076255588895,-9.822840295480221]}},{"type":"Feature","properties":{"title":"Missing Maps - Malawi - Bangula east","id":3956,"area":123.59059385253316,"year":"2018","lastUpdated":"2018-05-07T08:36:59.511711","changesets":414,"mappers":96,"roads":179.379168903383,"buildings":3121,"edits":4903,"latest":"2018-07-15T14:57:13.000Z"},"geometry":{"type":"Point","coordinates":[34.917830921643144,-16.619995019375573]}},{"type":"Feature","properties":{"title":"Missing Maps - Malawi - Nsanje north-east","id":3952,"area":117.38792525999837,"year":"2018","lastUpdated":"2018-06-29T22:46:14.119636","changesets":1083,"mappers":166,"roads":588.500364020166,"buildings":17215,"edits":25494,"latest":"2018-06-29T22:46:10.000Z"},"geometry":{"type":"Point","coordinates":[35.27086703721364,-16.795308230120305]}},{"type":"Feature","properties":{"title":"Missing Maps - Malawi - Mwambo West (Buildings)","id":3100,"area":278.2275896931429,"year":"2017","lastUpdated":"2017-11-13T10:19:23.984291","changesets":1775,"mappers":93,"roads":17.0233371608272,"buildings":25502,"edits":25872,"latest":"2017-07-24T19:28:31.000Z"},"geometry":{"type":"Point","coordinates":[35.446619575884924,-15.453184046719608]}},{"type":"Feature","properties":{"title":"Missing Maps - Malawi - Thyolo - Blantyre (roads)","id":2471,"area":260.21162645851905,"year":"2017","lastUpdated":"2017-12-10T00:18:10.218421","changesets":1511,"mappers":193,"roads":3117.55276893705,"buildings":32887,"edits":78192,"latest":"2018-03-21T16:03:26.000Z"},"geometry":{"type":"Point","coordinates":[35.180671276779776,-15.966715971022984]}},{"type":"Feature","properties":{"title":"Missing Maps - Malawi - Thyolo - Blantyre (buildings) ","id":2472,"area":390.599967535883,"year":"2017","lastUpdated":"2017-11-17T10:26:43.447355","changesets":2857,"mappers":146,"roads":236.803655849551,"buildings":38767,"edits":42991,"latest":"2017-06-29T13:26:16.000Z"},"geometry":{"type":"Point","coordinates":[35.164578638804194,-15.971932043722934]}},{"type":"Feature","properties":{"title":"Peace Corps Malawi -- Embangweni, Mzimba","id":2476,"area":269.5370587306771,"year":"2017","lastUpdated":"2017-09-20T12:23:35.488287","changesets":464,"mappers":128,"roads":518.557430006958,"buildings":3077,"edits":7777,"latest":"2018-03-14T12:42:31.000Z"},"geometry":{"type":"Point","coordinates":[33.4562284725,-12.130773614999999]}},{"type":"Feature","properties":{"title":"Missing Maps - Malawi - Southern areas (2)","id":2382,"area":57.44689181397446,"year":"2017","lastUpdated":"2017-09-10T00:11:33.210972","changesets":232,"mappers":21,"roads":149.366922718635,"buildings":1881,"edits":4027,"latest":"2017-04-27T08:43:32.000Z"},"geometry":{"type":"Point","coordinates":[35.29521699831209,-16.21238850436092]}},{"type":"Feature","properties":{"title":"Missing Maps - Malawi - Southern areas","id":2381,"area":359.7540340123145,"year":"2017","lastUpdated":"2017-11-02T09:48:44.385076","changesets":1655,"mappers":89,"roads":599.857943931075,"buildings":13370,"edits":27615,"latest":"2017-06-23T03:49:45.000Z"},"geometry":{"type":"Point","coordinates":[35.06495829383556,-16.238190326730273]}},{"type":"Feature","properties":{"title":"Missing Maps - Malawi - TA Somba (Buildings)","id":2341,"area":244.67801257800394,"year":"2017","lastUpdated":"2017-06-09T10:02:29.205978","changesets":926,"mappers":53,"roads":206.161695748684,"buildings":12774,"edits":14922,"latest":"2017-06-09T10:02:58.000Z"},"geometry":{"type":"Point","coordinates":[34.89981902821421,-15.928768043305036]}},{"type":"Feature","properties":{"title":"Missing Maps - Malawi - TA Maseya (roads)","id":2310,"area":146.15076576006686,"year":"2017","lastUpdated":"2017-02-22T18:52:41.431116","changesets":399,"mappers":39,"roads":700.705465896641,"buildings":278,"edits":5528,"latest":"2017-02-17T16:05:03.000Z"},"geometry":{"type":"Point","coordinates":[34.86430721130162,-16.102664526024622]}},{"type":"Feature","properties":{"title":"Missing Maps - Malawi - TA Lundu (Buildings)","id":2311,"area":228.51892886625433,"year":"2017","lastUpdated":"2017-06-28T11:56:54.503004","changesets":836,"mappers":60,"roads":41.8100804549834,"buildings":11063,"edits":11364,"latest":"2017-02-21T17:45:05.000Z"},"geometry":{"type":"Point","coordinates":[34.861993300643434,-16.21781898586094]}},{"type":"Feature","properties":{"title":"Missing Maps - Malawi - TA Maseya (Buildings)","id":2309,"area":197.67633071782188,"year":"2016","lastUpdated":"2016-11-28T18:14:38.568203","changesets":1871,"mappers":77,"roads":137.092213223059,"buildings":9997,"edits":10424,"latest":"2017-01-26T07:04:12.000Z"},"geometry":{"type":"Point","coordinates":[34.866286169252206,-16.094315051572565]}},{"type":"Feature","properties":{"title":"Missing Maps - Malawi - TA Chikumba (buildings)","id":2297,"area":222.63039250784496,"year":"2017","lastUpdated":"2017-04-17T12:40:41.270988","changesets":2641,"mappers":161,"roads":379.326416566519,"buildings":29044,"edits":36017,"latest":"2017-05-12T12:09:07.000Z"},"geometry":{"type":"Point","coordinates":[35.4070637827874,-16.03716635758071]}},{"type":"Feature","properties":{"title":"Missing Maps - Malawi - TA Thomas (roads)","id":2280,"area":111.61732175540202,"year":"2017","lastUpdated":"2017-10-10T12:35:26.526771","changesets":433,"mappers":70,"roads":1099.09278869546,"buildings":1644,"edits":12442,"latest":"2017-10-10T13:08:19.000Z"},"geometry":{"type":"Point","coordinates":[34.959800443181905,-16.016128489130818]}},{"type":"Feature","properties":{"title":"Missing Maps: Lilongwe (north), Lilongwe District, Central Region, Malawi","id":2190,"area":215.24362358914928,"year":"2018","lastUpdated":"2018-06-25T04:39:35.531839","changesets":5489,"mappers":339,"roads":1569.76820208458,"buildings":49646,"edits":72461,"latest":"2018-07-05T05:47:22.000Z"},"geometry":{"type":"Point","coordinates":[33.79564905166625,-13.872780672455855]}},{"type":"Feature","properties":{"title":"Missing Maps: Dedza, Dedza District, Central Region, Malawi","id":2185,"area":23.897236709253992,"year":"2018","lastUpdated":"2018-06-22T04:35:14.710644","changesets":1103,"mappers":103,"roads":206.253926674209,"buildings":10752,"edits":15886,"latest":"2018-07-23T22:40:19.000Z"},"geometry":{"type":"Point","coordinates":[34.32334899902346,-14.382520985940015]}},{"type":"Feature","properties":{"title":"Missing Maps - Malawi - TA Chikumba (roads)","id":2298,"area":150.15157283923318,"year":"2017","lastUpdated":"2017-08-28T14:12:54.283306","changesets":1529,"mappers":119,"roads":1182.77977174999,"buildings":6958,"edits":22253,"latest":"2017-08-28T14:12:21.000Z"},"geometry":{"type":"Point","coordinates":[35.404504733227455,-16.041780590431358]}},{"type":"Feature","properties":{"title":"Peace Corps Malawi -- Liwonde","id":2060,"area":223.5878549297584,"year":"2017","lastUpdated":"2017-10-16T14:55:21.323478","changesets":5412,"mappers":254,"roads":3040.8746674548,"buildings":29539,"edits":67223,"latest":"2018-02-18T00:17:20.000Z"},"geometry":{"type":"Point","coordinates":[35.2229118347168,-15.046146972913348]}},{"type":"Feature","properties":{"title":"Missing Maps: Mzuzu, Malawi","id":1981,"area":43.59269845235998,"year":"2017","lastUpdated":"2017-02-14T15:44:34.992366","changesets":3354,"mappers":191,"roads":548.032225871739,"buildings":56545,"edits":72759,"latest":"2017-02-21T13:56:54.000Z"},"geometry":{"type":"Point","coordinates":[34.00998115539552,-11.44982566732664]}},{"type":"Feature","properties":{"title":"Peace Corps Malawi -- Chikwina","id":1847,"area":15.30237627828821,"year":"2017","lastUpdated":"2017-01-05T02:48:44.896301","changesets":262,"mappers":30,"roads":106.043879397822,"buildings":1138,"edits":2155,"latest":"2016-11-25T19:55:33.000Z"},"geometry":{"type":"Point","coordinates":[34.17408943176268,-11.395309126629073]}},{"type":"Feature","properties":{"title":"Missing Maps - Malawi - Nsanje Southwest","id":3780,"area":30.89035919138131,"year":"2018","lastUpdated":"2018-03-18T14:18:56.171880","changesets":255,"mappers":35,"roads":107.045308155215,"buildings":1434,"edits":3575,"latest":"2018-03-18T14:25:09.000Z"},"geometry":{"type":"Point","coordinates":[35.191412624870914,-16.955228841779235]}},{"type":"Feature","properties":{"title":"Missing Maps: Kapichi, Thyolo District, Southern Region, Malawi","id":3208,"area":187.56481268312072,"year":"2018","lastUpdated":"2018-03-16T21:22:09.005949","changesets":0,"mappers":0,"roads":0,"buildings":0,"edits":0,"latest":null},"geometry":{"type":"Point","coordinates":[35.27041672626454,-16.116625721818085]}},{"type":"Feature","properties":{"title":"Missing Maps: Nsabwe, Nsanje District, Southern Region, Malawi","id":3213,"area":189.60038586501133,"year":"2018","lastUpdated":"2018-06-06T07:58:31.824207","changesets":0,"mappers":0,"roads":0,"buildings":0,"edits":0,"latest":null},"geometry":{"type":"Point","coordinates":[35.21611364194077,-16.30691651779737]}},{"type":"Feature","properties":{"title":"Missing Maps: Kwethemule, Thyolo District, Southern Region, Malawi","id":3210,"area":204.96310439022818,"year":"2018","lastUpdated":"2018-03-16T21:25:59.513797","changesets":0,"mappers":0,"roads":0,"buildings":0,"edits":0,"latest":null},"geometry":{"type":"Point","coordinates":[35.09033229767738,-16.178898523752686]}},{"type":"Feature","properties":{"title":"Missing Maps: Nchilamwela, Thyolo District, Southern Region, Malawi","id":3207,"area":106.94178132544275,"year":"2018","lastUpdated":"2018-05-03T01:34:37.256222","changesets":0,"mappers":0,"roads":0,"buildings":0,"edits":0,"latest":null},"geometry":{"type":"Point","coordinates":[35.19182030917194,-16.115280477276958]}},{"type":"Feature","properties":{"title":"Missing Maps: Chingata, Thyolo District, Southern Region, Malawi","id":3211,"area":187.45109037807495,"year":"2018","lastUpdated":"2018-03-16T21:27:59.956227","changesets":0,"mappers":0,"roads":0,"buildings":0,"edits":0,"latest":null},"geometry":{"type":"Point","coordinates":[35.1488041053662,-16.22530598878495]}},{"type":"Feature","properties":{"title":"Missing Maps: Lilongwe (north-west), Lilongwe District, Central Region, Malawi","id":2241,"area":65.99529602426333,"year":"2018","lastUpdated":"2018-06-25T01:33:33.655182","changesets":971,"mappers":116,"roads":29.7254917450795,"buildings":13693,"edits":14352,"latest":"2018-07-05T06:34:33.000Z"},"geometry":{"type":"Point","coordinates":[33.73397078945313,-13.945932525733669]}},{"type":"Feature","properties":{"title":"Missing Maps: Thyolo, Thyolo District, Southern Region, Malawi","id":2842,"area":268.7397040337529,"year":"2018","lastUpdated":"2018-03-16T21:38:35.057604","changesets":2837,"mappers":180,"roads":238.198805002426,"buildings":26397,"edits":31765,"latest":"2018-03-27T06:02:05.000Z"},"geometry":{"type":"Point","coordinates":[35.129171236939584,-16.04752403509141]}},{"type":"Feature","properties":{"title":"Missing Maps - Malawi - TA Ndamena","id":2965,"area":189.65797622132658,"year":"2018","lastUpdated":"2018-03-05T15:51:01.041248","changesets":271,"mappers":46,"roads":168.635932273369,"buildings":7615,"edits":9988,"latest":"2018-01-27T18:07:32.000Z"},"geometry":{"type":"Point","coordinates":[35.14833757683088,-17.061735743568352]}},{"type":"Feature","properties":{"title":"Missing Maps: Blantyre (central north), Blantyre District, Southern Region, Malawi 2","id":2291,"area":10.816748955479211,"year":"2018","lastUpdated":"2018-03-17T00:22:23.832977","changesets":3611,"mappers":242,"roads":44.8237577559563,"buildings":41095,"edits":43270,"latest":"2017-06-09T20:18:13.000Z"},"geometry":{"type":"Point","coordinates":[35.00837944345541,-15.747610555891058]}},{"type":"Feature","properties":{"title":"Missing Maps: Blantyre (north), Blantyre District, Central Region, Malawi 8","id":2304,"area":33.39548159572158,"year":"2018","lastUpdated":"2018-07-13T21:06:45.321586","changesets":3285,"mappers":208,"roads":133.104472252129,"buildings":20973,"edits":23618,"latest":"2018-03-14T09:07:48.000Z"},"geometry":{"type":"Point","coordinates":[35.002622752963234,-15.690121083700983]}},{"type":"Feature","properties":{"title":"Missing Maps: Nsanje District, Malawi (roads part 3)","id":2240,"area":344.952546801565,"year":"2017","lastUpdated":"2017-10-30T10:53:20.601648","changesets":0,"mappers":0,"roads":0,"buildings":0,"edits":0,"latest":null},"geometry":{"type":"Point","coordinates":[35.13400145912607,-16.4037877179655]}},{"type":"Feature","properties":{"title":"Missing Maps: Mangochi, Mangochi District, Southern Region, Malawi","id":2466,"area":115.28957364477883,"year":"2018","lastUpdated":"2018-05-03T01:33:45.434229","changesets":2150,"mappers":217,"roads":208.252746205028,"buildings":17192,"edits":20786,"latest":"2017-06-02T20:11:17.000Z"},"geometry":{"type":"Point","coordinates":[35.25506122116547,-14.438048960564611]}},{"type":"Feature","properties":{"title":"Missing Maps: Lilongwe (central west), Lilongwe District, Central Region, Malawi","id":2154,"area":24.33752882768842,"year":"2017","lastUpdated":"2017-10-24T01:04:48.074526","changesets":1261,"mappers":83,"roads":13.4031339772427,"buildings":7922,"edits":8208,"latest":"2017-10-24T01:04:35.000Z"},"geometry":{"type":"Point","coordinates":[33.7562482180348,-13.972521579713488]}},