{"totalEdits":42775120,"totalBuildings":35438648,"totalRoads":906692.087209312,"mappersOnline":223,"totalTasksMapped":1703733,"totalMappers":145983,"totalProjects":4165,"Tanzania":[{"type":"Feature","properties":{"id":4208,"title":"Mbeya minigrids","status":"PUBLISHED","created":"2018","lastUpdated":"2018","lastActive":"no","area":381.3150730146897,"changesets":8229,"mappers":81,"roads":545.472150450804,"buildings":454625,"edits":458780,"latest":"2018-03-29T12:55:24.000Z"},"geometry":{"type":"Point","coordinates":[33.2834313083823,-8.86666978309615]}},{"type":"Feature","properties":{"id":4118,"title":"Tanzania Development Trust: Sawida District","status":"PUBLISHED","created":"2018","lastUpdated":"2018","lastActive":"yes","area":924.6478975466252,"changesets":13687,"mappers":942,"roads":9912.01824153889,"buildings":151321,"edits":222746,"latest":"2018-11-14T21:06:40.000Z"},"geometry":{"type":"Point","coordinates":[33.6565874086871,-2.84887404346591]}},{"type":"Feature","properties":{"id":5444,"title":"Kawe","status":"PUBLISHED","created":"2018","lastUpdated":"2018","lastActive":"yes","area":14.787548318407664,"changesets":273,"mappers":19,"roads":0.443529945999423,"buildings":2287,"edits":2362,"latest":"2018-11-14T18:15:29.000Z"},"geometry":{"type":"Point","coordinates":[39.225268225533,-6.72642707641227]}},{"type":"Feature","properties":{"id":5442,"title":"Ukonga","status":"PUBLISHED","created":"2018","lastUpdated":"2018","lastActive":"no","area":9.973212227035186,"changesets":1,"mappers":1,"roads":0.0957173698489048,"buildings":0,"edits":1,"latest":"2018-11-08T18:22:56.000Z"},"geometry":{"type":"Point","coordinates":[39.1716103075864,-6.87643354356797]}},{"type":"Feature","properties":{"id":5396,"title":"Sinza_METEOR","status":"PUBLISHED","created":"2018","lastUpdated":"2018","lastActive":"no","area":0.11495287086645402,"changesets":65,"mappers":15,"roads":0.115200681951529,"buildings":130,"edits":194,"latest":"2018-11-01T13:14:45.000Z"},"geometry":{"type":"Point","coordinates":[39.2245824861265,-6.7834148800241]}},{"type":"Feature","properties":{"id":4036,"title":"TZ IFC Mini-grids house count test-2","status":"PUBLISHED","created":"2018","lastUpdated":"2018","lastActive":"no","area":481.70619678590833,"changesets":2181,"mappers":13,"roads":36.3868917119351,"buildings":181981,"edits":182647,"latest":"2018-02-23T15:15:42.000Z"},"geometry":{"type":"Point","coordinates":[33.965651545629,-6.53613031653059]}},{"type":"Feature","properties":{"id":5194,"title":"Hananasifu","status":"PUBLISHED","created":"2018","lastUpdated":"2018","lastActive":"no","area":1.8382439011755702,"changesets":775,"mappers":19,"roads":3.34109193738527,"buildings":6357,"edits":7943,"latest":"2018-10-03T07:37:03.000Z"},"geometry":{"type":"Point","coordinates":[39.2696283358805,-6.79609178054355]}},{"type":"Feature","properties":{"id":5131,"title":"Mwanga","status":"PUBLISHED","created":"2018","lastUpdated":"2018","lastActive":"no","area":3782.6420454970325,"changesets":569,"mappers":80,"roads":7.81830506173643,"buildings":21219,"edits":21349,"latest":"2018-09-05T19:32:28.000Z"},"geometry":{"type":"Point","coordinates":[37.5770749373082,-3.7639028140101]}},{"type":"Feature","properties":{"id":5321,"title":"Sinza","status":"PUBLISHED","created":"2018","lastUpdated":"2018","lastActive":"no","area":3.361250557091652,"changesets":797,"mappers":22,"roads":1.58255838155942,"buildings":10827,"edits":12143,"latest":"2018-10-12T08:09:26.000Z"},"geometry":{"type":"Point","coordinates":[39.2227970545496,-6.78373809051709]}},{"type":"Feature","properties":{"id":5218,"title":"Vingunguti","status":"PUBLISHED","created":"2018","lastUpdated":"2018","lastActive":"no","area":4.5147969243730985,"changesets":1476,"mappers":25,"roads":5.76973550436218,"buildings":14462,"edits":17891,"latest":"2018-11-09T13:30:13.000Z"},"geometry":{"type":"Point","coordinates":[39.2283271509236,-6.845412414447]}},{"type":"Feature","properties":{"id":3204,"title":"PEPFAR Tanzania: Kyela (Coast)","status":"PUBLISHED","created":"2017","lastUpdated":"2018","lastActive":"no","area":267.9000890686287,"changesets":2158,"mappers":234,"roads":904.355172300808,"buildings":19956,"edits":29743,"latest":"2018-11-08T21:17:22.000Z"},"geometry":{"type":"Point","coordinates":[33.8624923854606,-9.60932245038593]}},{"type":"Feature","properties":{"id":2095,"title":"MSD & JSI/USAID Tanzania Road Import - Mara region","status":"PUBLISHED","created":"2016","lastUpdated":"2016","lastActive":"no","area":18583.120612545095,"changesets":412,"mappers":12,"roads":2664.66783599299,"buildings":2995,"edits":11152,"latest":"2016-12-02T22:57:06.000Z"},"geometry":{"type":"Point","coordinates":[34.2964225881828,-1.80037216405206]}},{"type":"Feature","properties":{"id":3903,"title":"PEPFAR TANZANIA: GEITA DC","status":"PUBLISHED","created":"2017","lastUpdated":"2018","lastActive":"no","area":4738.968040349855,"changesets":5698,"mappers":275,"roads":3185.90199833963,"buildings":60979,"edits":85181,"latest":"2018-11-14T19:06:21.000Z"},"geometry":{"type":"Point","coordinates":[32.1742010245843,-2.86754820690531]}},{"type":"Feature","properties":{"id":4234,"title":"Tanzania Development Trust: Sigunga Kigoma Community Mapping Project","status":"ARCHIVED","created":"2018","lastUpdated":"2018","lastActive":"no","area":818.7157786819456,"changesets":1881,"mappers":148,"roads":845.753785159551,"buildings":5279,"edits":10353,"latest":"2018-04-11T09:53:47.000Z"},"geometry":{"type":"Point","coordinates":[30.0041057178603,-5.67930749441936]}},{"type":"Feature","properties":{"id":3078,"title":"Tanzania Development Trust: Ishunju, Ishozi and Gera districts community mapping project ","status":"ARCHIVED","created":"2017","lastUpdated":"2018","lastActive":"no","area":117.52166194056245,"changesets":514,"mappers":48,"roads":167.554220708217,"buildings":5211,"edits":9222,"latest":"2018-07-03T14:55:27.000Z"},"geometry":{"type":"Point","coordinates":[31.7577065704359,-1.19192302980064]}},{"type":"Feature","properties":{"id":1462,"title":"MSD & JSI/USAID Tanzania Road Import - Rukwa and Katavi regions","status":"PUBLISHED","created":"2016","lastUpdated":"2016","lastActive":"no","area":23601.174016426638,"changesets":46,"mappers":13,"roads":2965.50978720348,"buildings":26,"edits":3295,"latest":"2016-11-09T18:57:31.000Z"},"geometry":{"type":"Point","coordinates":[31.386548500474,-7.66185013891424]}},{"type":"Feature","properties":{"id":955,"title":"Missing Maps: Ushirombo, Tanzania","status":"ARCHIVED","created":"2015","lastUpdated":"2017","lastActive":"no","area":734.2330870305057,"changesets":5658,"mappers":205,"roads":2686.98537358062,"buildings":25007,"edits":61755,"latest":"2015-10-29T23:37:03.000Z"},"geometry":{"type":"Point","coordinates":[31.8893884959412,-3.44082642084493]}},{"type":"Feature","properties":{"id":5427,"title":"Tanzania missing buildings Mwanga District","status":"PUBLISHED","created":"2018","lastUpdated":"2018","lastActive":"yes","area":531.5288207222752,"changesets":3681,"mappers":372,"roads":272.263300425385,"buildings":32048,"edits":33574,"latest":"2018-11-14T04:46:24.000Z"},"geometry":{"type":"Point","coordinates":[37.6385252591535,-3.69810262753919]}},{"type":"Feature","properties":{"id":3351,"title":"Missing Maps: Dar es Salaam - Ramani Huria 2.0 - 06","status":"PUBLISHED","created":"2017","lastUpdated":"2017","lastActive":"no","area":42.09056201926153,"changesets":1060,"mappers":98,"roads":583.340797762564,"buildings":2543,"edits":21480,"latest":"2017-09-18T13:34:28.000Z"},"geometry":{"type":"Point","coordinates":[39.0979103142561,-6.69636185713101]}},{"type":"Feature","properties":{"id":4283,"title":"Tanzania Development Trust: Kashenge Community Mapping Project","status":"ARCHIVED","created":"2018","lastUpdated":"2018","lastActive":"no","area":16.271801267146635,"changesets":316,"mappers":27,"roads":117.504567662701,"buildings":856,"edits":1867,"latest":"2018-05-01T11:36:25.000Z"},"geometry":{"type":"Point","coordinates":[31.65773305698,-1.69517523871843]}},{"type":"Feature","properties":{"id":4358,"title":"Tanzania Development Trust: Mwanza West Community Mapping Project","status":"PUBLISHED","created":"2018","lastUpdated":"2018","lastActive":"yes","area":1290.9455273129195,"changesets":20184,"mappers":1232,"roads":9841.30340174628,"buildings":173066,"edits":239675,"latest":"2018-11-14T14:38:40.000Z"},"geometry":{"type":"Point","coordinates":[32.539528576888,-2.61529690008607]}},{"type":"Feature","properties":{"id":1389,"title":" Missing Maps: Dar es Salaam - Ramani Huria2","status":"ARCHIVED","created":"2015","lastUpdated":"2016","lastActive":"no","area":17.055250175253022,"changesets":1779,"mappers":105,"roads":2952.23609891391,"buildings":25963,"edits":29457,"latest":"2016-08-23T11:52:57.000Z"},"geometry":{"type":"Point","coordinates":[39.193973920295,-6.81759743655606]}},{"type":"Feature","properties":{"id":4254,"title":"Manyara_minigrids","status":"ARCHIVED","created":"2018","lastUpdated":"2018","lastActive":"no","area":63.093260840318564,"changesets":0,"mappers":0,"roads":0,"buildings":0,"edits":0,"latest":null},"geometry":{"type":"Point","coordinates":[35.3368133697752,-4.30430004427207]}},{"type":"Feature","properties":{"id":3354,"title":"Missing Maps: Dar es Salaam - Ramani Huria 2.0 - 09","status":"ARCHIVED","created":"2017","lastUpdated":"2017","lastActive":"no","area":112.46724352437755,"changesets":2325,"mappers":211,"roads":25.5634024460367,"buildings":30372,"edits":32687,"latest":"2017-08-17T09:00:46.000Z"},"geometry":{"type":"Point","coordinates":[39.1752970474759,-6.6763751558294]}},{"type":"Feature","properties":{"id":3368,"title":"Missing Maps: Dar es Salaam - Ramani Huria 2.0 - 13","status":"ARCHIVED","created":"2017","lastUpdated":"2017","lastActive":"no","area":48.99161431195106,"changesets":4070,"mappers":170,"roads":18.9213194873194,"buildings":32771,"edits":34946,"latest":"2018-03-05T14:07:36.000Z"},"geometry":{"type":"Point","coordinates":[39.1382076039561,-6.75845322372412]}},{"type":"Feature","properties":{"id":4250,"title":"Manyara","status":"ARCHIVED","created":"2018","lastUpdated":"2018","lastActive":"no","area":63.093260840318564,"changesets":0,"mappers":0,"roads":0,"buildings":0,"edits":0,"latest":null},"geometry":{"type":"Point","coordinates":[35.3368133697752,-4.30430004427207]}},{"type":"Feature","properties":{"id":3177,"title":"Tanzania Development Trust: Simiyu district mapping project part 1 - Updated Imagery","status":"PUBLISHED","created":"2017","lastUpdated":"2018","lastActive":"no","area":1361.7036746910928,"changesets":3403,"mappers":231,"roads":2532.63772099731,"buildings":54092,"edits":74404,"latest":"2018-08-03T08:31:49.000Z"},"geometry":{"type":"Point","coordinates":[34.2552244698097,-2.5523894645034]}},{"type":"Feature","properties":{"id":4710,"title":"Tanzania Development Trust: Rubale Community Mapping Project","status":"ARCHIVED","created":"2018","lastUpdated":"2018","lastActive":"no","area":2.8694421907196968,"changesets":223,"mappers":15,"roads":47.6921069447722,"buildings":1026,"edits":1672,"latest":"2018-06-10T20:40:39.000Z"},"geometry":{"type":"Point","coordinates":[31.5198154824657,-1.60317363606181]}},{"type":"Feature","properties":{"id":4357,"title":"Tanzania Development Trust: Rungwe Kasulu Community Mapping Project","status":"ARCHIVED","created":"2018","lastUpdated":"2018","lastActive":"no","area":1013.1767777919853,"changesets":5552,"mappers":409,"roads":4999.48387166668,"buildings":20822,"edits":49162,"latest":"2018-06-17T14:10:03.000Z"},"geometry":{"type":"Point","coordinates":[30.2493018751241,-4.77015701562809]}},{"type":"Feature","properties":{"id":4404,"title":"Tanzania Development Trust: Kiyebe Community Mapping Project","status":"ARCHIVED","created":"2018","lastUpdated":"2018","lastActive":"no","area":14.54425632534702,"changesets":165,"mappers":25,"roads":179.882131248454,"buildings":904,"edits":2112,"latest":"2018-04-12T18:26:16.000Z"},"geometry":{"type":"Point","coordinates":[31.5213611368364,-2.01443774986169]}},{"type":"Feature","properties":{"id":4325,"title":"Tanzania Development Trust: Kakuraijo Karagwe Community Mapping Project","status":"ARCHIVED","created":"2018","lastUpdated":"2018","lastActive":"no","area":26.03432942227103,"changesets":294,"mappers":21,"roads":200.728606871569,"buildings":2268,"edits":3280,"latest":"2018-03-19T17:29:04.000Z"},"geometry":{"type":"Point","coordinates":[30.9998529759753,-1.76362344469638]}},{"type":"Feature","properties":{"id":3134,"title":"Tanzania Development Trust: Rusesa, Kwaga and Kigembe districts community mapping project ","status":"PUBLISHED","created":"2017","lastUpdated":"2017","lastActive":"no","area":554.3164257263877,"changesets":1163,"mappers":53,"roads":1911.05305710096,"buildings":17520,"edits":30108,"latest":"2017-07-08T06:59:25.000Z"},"geometry":{"type":"Point","coordinates":[30.055031705149,-4.86715366951607]}},{"type":"Feature","properties":{"id":4406,"title":"Tanzania Development Trust: Kyaibumba Community Mapping Project","status":"ARCHIVED","created":"2018","lastUpdated":"2018","lastActive":"no","area":14.678296379059542,"changesets":158,"mappers":30,"roads":133.357573789262,"buildings":795,"edits":1536,"latest":"2018-04-09T12:26:56.000Z"},"geometry":{"type":"Point","coordinates":[31.4548536327291,-1.9073101465972]}},{"type":"Feature","properties":{"id":4316,"title":"Tanzania Development Trust: Ngara Community Mapping Project","status":"ARCHIVED","created":"2018","lastUpdated":"2018","lastActive":"no","area":5.680090353476652,"changesets":293,"mappers":44,"roads":80.4486420340574,"buildings":3478,"edits":4114,"latest":"2018-03-30T14:34:54.000Z"},"geometry":{"type":"Point","coordinates":[30.6563660461257,-2.51312893241178]}},{"type":"Feature","properties":{"id":4335,"title":"Tanzania Development Trust: Urambo Community Mapping Project","status":"ARCHIVED","created":"2018","lastUpdated":"2018","lastActive":"no","area":22.72434812488303,"changesets":539,"mappers":76,"roads":209.42903890829,"buildings":7236,"edits":9333,"latest":"2018-03-25T09:46:55.000Z"},"geometry":{"type":"Point","coordinates":[32.0763834649408,-5.08236418614099]}},{"type":"Feature","properties":{"id":4894,"title":"Tanzania Development Trust: Manyara FGM 2","status":"PUBLISHED","created":"2018","lastUpdated":"2018","lastActive":"no","area":2355.6428351187137,"changesets":3864,"mappers":326,"roads":1035.67397496494,"buildings":32606,"edits":35318,"latest":"2018-11-06T12:44:19.000Z"},"geometry":{"type":"Point","coordinates":[36.5477142150534,-5.33552036818312]}},{"type":"Feature","properties":{"id":4293,"title":"Tanzania Development Trust: Kibirizi Community Mapping Project","status":"ARCHIVED","created":"2018","lastUpdated":"2018","lastActive":"no","area":75.76463029779623,"changesets":932,"mappers":112,"roads":628.528332051034,"buildings":2461,"edits":8182,"latest":"2018-03-25T15:01:12.000Z"},"geometry":{"type":"Point","coordinates":[31.4031606875565,-1.63216015619948]}},{"type":"Feature","properties":{"id":4329,"title":"Tanzania Development Trust: Chabuhora Karagwe Community Mapping Project","status":"ARCHIVED","created":"2018","lastUpdated":"2018","lastActive":"no","area":29.098942849205926,"changesets":337,"mappers":36,"roads":136.59546293545,"buildings":2260,"edits":3376,"latest":"2018-03-20T08:56:00.000Z"},"geometry":{"type":"Point","coordinates":[30.9793967385239,-1.78282439868476]}},{"type":"Feature","properties":{"id":4307,"title":"Tanzania Development Trust: Burungura Community Mapping Project","status":"ARCHIVED","created":"2018","lastUpdated":"2018","lastActive":"no","area":12.132811235880215,"changesets":422,"mappers":60,"roads":224.496584040424,"buildings":934,"edits":2752,"latest":"2018-03-15T22:38:18.000Z"},"geometry":{"type":"Point","coordinates":[31.4863826867625,-1.89364869788793]}},{"type":"Feature","properties":{"id":4281,"title":"Tanzania Development Trust: Muleba Community Mapping Project","status":"ARCHIVED","created":"2018","lastUpdated":"2018","lastActive":"no","area":7.595025994574089,"changesets":807,"mappers":46,"roads":152.380940730158,"buildings":3685,"edits":5608,"latest":"2018-03-14T04:07:41.000Z"},"geometry":{"type":"Point","coordinates":[31.6560461932452,-1.84575729647524]}},{"type":"Feature","properties":{"id":4284,"title":"Tanzania Development Trust: Nyakigando Ikimba Community Mapping Project","status":"ARCHIVED","created":"2018","lastUpdated":"2018","lastActive":"no","area":9.041298427344486,"changesets":320,"mappers":21,"roads":159.247797886851,"buildings":1179,"edits":3057,"latest":"2018-03-12T21:12:54.000Z"},"geometry":{"type":"Point","coordinates":[31.5705837031557,-1.51810455931155]}},{"type":"Feature","properties":{"id":4334,"title":"Tanzania Development Trust: Ihemi Iringa Community Mapping Project","status":"ARCHIVED","created":"2018","lastUpdated":"2018","lastActive":"no","area":17.979652120471023,"changesets":138,"mappers":17,"roads":162.956597880068,"buildings":1531,"edits":2481,"latest":"2018-03-20T18:15:43.000Z"},"geometry":{"type":"Point","coordinates":[35.5059379677161,-8.01149565167227]}},{"type":"Feature","properties":{"id":4292,"title":"Tanzania Development Trust: Nyaishozi Karagwe Community Mapping Project","status":"ARCHIVED","created":"2018","lastUpdated":"2018","lastActive":"no","area":34.276689435879305,"changesets":399,"mappers":36,"roads":474.815969390101,"buildings":2973,"edits":4948,"latest":"2018-03-18T21:40:04.000Z"},"geometry":{"type":"Point","coordinates":[31.1192616184384,-1.74718623175017]}},{"type":"Feature","properties":{"id":4324,"title":"Tanzania Development Trust: Nyakaiga Karagwe Community Mapping Project","status":"ARCHIVED","created":"2018","lastUpdated":"2018","lastActive":"no","area":12.111231176337705,"changesets":103,"mappers":12,"roads":99.5600341898669,"buildings":1190,"edits":1678,"latest":"2018-03-18T16:20:36.000Z"},"geometry":{"type":"Point","coordinates":[30.9630721040928,-1.72913994836662]}},{"type":"Feature","properties":{"id":5317,"title":"Kijitonyama","status":"PUBLISHED","created":"2018","lastUpdated":"2018","lastActive":"no","area":3.944334462943499,"changesets":984,"mappers":24,"roads":1.36938792486868,"buildings":12348,"edits":13618,"latest":"2018-11-02T12:54:37.000Z"},"geometry":{"type":"Point","coordinates":[39.2362348265782,-6.77781749264387]}},{"type":"Feature","properties":{"id":4440,"title":"Tanzania Development Trust: Kihurio Community Mapping Project","status":"ARCHIVED","created":"2018","lastUpdated":"2018","lastActive":"no","area":25.149218397883203,"changesets":424,"mappers":67,"roads":255.735874916018,"buildings":3520,"edits":4623,"latest":"2018-04-21T23:10:25.000Z"},"geometry":{"type":"Point","coordinates":[38.0710346364441,-4.47694510234758]}},{"type":"Feature","properties":{"id":5441,"title":"Kinondoni","status":"PUBLISHED","created":"2018","lastUpdated":"2018","lastActive":"no","area":1.9111633153129555,"changesets":723,"mappers":19,"roads":0.51286613158573,"buildings":5979,"edits":6448,"latest":"2018-11-09T12:51:55.000Z"},"geometry":{"type":"Point","coordinates":[39.270133890838,-6.78485592342873]}},{"type":"Feature","properties":{"id":5397,"title":"TPDC_METEOR","status":"PUBLISHED","created":"2018","lastUpdated":"2018","lastActive":"no","area":0.11797338733636886,"changesets":94,"mappers":18,"roads":0.266615772031029,"buildings":517,"edits":536,"latest":"2018-11-01T12:33:09.000Z"},"geometry":{"type":"Point","coordinates":[39.2441458818339,-6.76148596392833]}},{"type":"Feature","properties":{"id":5422,"title":"Tanzania Mbinga Test","status":"ARCHIVED","created":"2018","lastUpdated":"2018","lastActive":"no","area":0.09678392301278596,"changesets":0,"mappers":0,"roads":0,"buildings":0,"edits":0,"latest":null},"geometry":{"type":"Point","coordinates":[35.0530360761986,-10.9293321539577]}},{"type":"Feature","properties":{"id":4572,"title":"Kasulu, Kasulu, Tanzania Mini Grids Project 05","status":"PUBLISHED","created":"2018","lastUpdated":"2018","lastActive":"no","area":2206.993164418614,"changesets":659,"mappers":53,"roads":0.332538602551101,"buildings":7553,"edits":7645,"latest":"2018-06-21T06:47:28.000Z"},"geometry":{"type":"Point","coordinates":[30.6215386726987,-4.76597813768529]}},{"type":"Feature","properties":{"id":5405,"title":"keko magurumbasi_METEOR","status":"PUBLISHED","created":"2018","lastUpdated":"2018","lastActive":"no","area":0.03630974064275755,"changesets":62,"mappers":8,"roads":0.307114787463726,"buildings":204,"edits":378,"latest":"2018-10-29T07:08:01.000Z"},"geometry":{"type":"Point","coordinates":[39.2738899567246,-6.83651914744131]}},{"type":"Feature","properties":{"id":3329,"title":"Ramani Huria 2.0 Session 01","status":"PUBLISHED","created":"2017","lastUpdated":"2017","lastActive":"no","area":31.68859428995046,"changesets":257,"mappers":67,"roads":32.0605720986966,"buildings":1717,"edits":2201,"latest":"2017-08-10T21:06:16.000Z"},"geometry":{"type":"Point","coordinates":[36.0471962350792,-7.67799543151297]}},{"type":"Feature","properties":{"id":3319,"title":"Tanzania Development Trust and Institute for Rural Development Planning: Mvomero district student mapping project ","status":"PUBLISHED","created":"2017","lastUpdated":"2018","lastActive":"no","area":1439.4586268120136,"changesets":1012,"mappers":17,"roads":283.826662966217,"buildings":908,"edits":2232,"latest":"2018-09-27T19:29:14.000Z"},"geometry":{"type":"Point","coordinates":[37.5490091358043,-6.45241297893469]}},{"type":"Feature","properties":{"id":3332,"title":"Missing Maps: Dar es Salaam - Ramani Huria 2.0 - 02","status":"ARCHIVED","created":"2017","lastUpdated":"2017","lastActive":"no","area":22.918002471745922,"changesets":2022,"mappers":67,"roads":2.30023874900871,"buildings":16203,"edits":16555,"latest":"2017-08-14T13:58:26.000Z"},"geometry":{"type":"Point","coordinates":[39.1749360182797,-6.6577888275312]}},{"type":"Feature","properties":{"id":3366,"title":"Missing Maps: Dar es Salaam - Ramani Huria 2.0 - 11","status":"ARCHIVED","created":"2017","lastUpdated":"2017","lastActive":"no","area":46.40941299737609,"changesets":744,"mappers":52,"roads":1.45858369529433,"buildings":4756,"edits":5152,"latest":"2017-08-01T12:47:45.000Z"},"geometry":{"type":"Point","coordinates":[39.0957516639887,-6.69596825590191]}},{"type":"Feature","properties":{"id":3370,"title":"Missing Maps: Dar es Salaam - Ramani Huria 2.0 - 15","status":"ARCHIVED","created":"2017","lastUpdated":"2017","lastActive":"no","area":63.29172462574548,"changesets":1134,"mappers":57,"roads":8.02147770662194,"buildings":19173,"edits":19696,"latest":"2017-08-10T07:17:24.000Z"},"geometry":{"type":"Point","coordinates":[39.11766640955,-6.60449427493299]}},{"type":"Feature","properties":{"id":3375,"title":"Missing Maps: Dar es Salaam - Ramani Huria 2.0 - 18","status":"ARCHIVED","created":"2017","lastUpdated":"2017","lastActive":"no","area":59.53047699316665,"changesets":1623,"mappers":52,"roads":478.223132686342,"buildings":690,"edits":12675,"latest":"2017-08-16T08:11:07.000Z"},"geometry":{"type":"Point","coordinates":[39.0524394635221,-6.77490751585555]}},{"type":"Feature","properties":{"id":3372,"title":"Missing Maps: Dar es Salaam - Ramani Huria 2.0 - 17","status":"ARCHIVED","created":"2017","lastUpdated":"2017","lastActive":"no","area":69.65587897048133,"changesets":620,"mappers":59,"roads":326.07234769034,"buildings":735,"edits":5445,"latest":"2017-08-22T12:02:56.000Z"},"geometry":{"type":"Point","coordinates":[39.1283057323213,-6.89210398958084]}},{"type":"Feature","properties":{"id":5320,"title":"Mburahati","status":"PUBLISHED","created":"2018","lastUpdated":"2018","lastActive":"no","area":1.1212118323428015,"changesets":15,"mappers":2,"roads":0.0911120604846218,"buildings":12,"edits":16,"latest":"2018-10-10T03:09:39.000Z"},"geometry":{"type":"Point","coordinates":[39.242086920805,-6.81266527325492]}},{"type":"Feature","properties":{"id":3334,"title":"Missing Maps: Dar es Salaam - Ramani Huria 2.0 - 04","status":"ARCHIVED","created":"2017","lastUpdated":"2017","lastActive":"no","area":23.992288124749287,"changesets":1440,"mappers":66,"roads":2.67422736285062,"buildings":11427,"edits":11769,"latest":"2017-08-11T19:30:56.000Z"},"geometry":{"type":"Point","coordinates":[39.1797498188247,-6.72221487133731]}},{"type":"Feature","properties":{"id":4422,"title":"S. Monduli, Simanjiro, Tanzania Mini Grids - MapSwipe Project 01","status":"PUBLISHED","created":"2018","lastUpdated":"2018","lastActive":"no","area":918.2087603729018,"changesets":4703,"mappers":86,"roads":7.83174281046291,"buildings":50610,"edits":50723,"latest":"2018-05-11T06:32:20.000Z"},"geometry":{"type":"Point","coordinates":[36.6076107426083,-3.61838637677281]}},{"type":"Feature","properties":{"id":5392,"title":"Miembeni_METEOR","status":"PUBLISHED","created":"2018","lastUpdated":"2018","lastActive":"no","area":0.6398735476823335,"changesets":38,"mappers":6,"roads":0.812261387339561,"buildings":332,"edits":416,"latest":"2018-10-26T09:57:26.000Z"},"geometry":{"type":"Point","coordinates":[39.2311523544842,-6.84980246580113]}},{"type":"Feature","properties":{"id":5370,"title":"Pwani_METEOR","status":"PUBLISHED","created":"2018","lastUpdated":"2018","lastActive":"no","area":1.857301592423365,"changesets":150,"mappers":19,"roads":26.9283625898123,"buildings":740,"edits":1247,"latest":"2018-10-31T08:49:13.000Z"},"geometry":{"type":"Point","coordinates":[39.3251033855678,-6.98577812479199]}},{"type":"Feature","properties":{"id":4570,"title":"Kasulu, Kasulu, Tanzania Mini Grids Project 03","status":"PUBLISHED","created":"2018","lastUpdated":"2018","lastActive":"no","area":1652.0254948432712,"changesets":774,"mappers":62,"roads":0.25450019539659,"buildings":10336,"edits":10388,"latest":"2018-07-18T11:48:21.000Z"},"geometry":{"type":"Point","coordinates":[30.5130429954929,-4.22710402465406]}},{"type":"Feature","properties":{"id":4242,"title":"Kalobe-Data Zetu","status":"PUBLISHED","created":"2018","lastUpdated":"2018","lastActive":"no","area":5.581452341462152,"changesets":531,"mappers":5,"roads":0.0106237188235286,"buildings":6096,"edits":6109,"latest":"2018-03-07T09:02:49.000Z"},"geometry":{"type":"Point","coordinates":[33.4118519974232,-8.91506853593005]}},{"type":"Feature","properties":{"id":3251,"title":"Tanzania Development Trust: Masasi district, Mtwara Region","status":"PUBLISHED","created":"2017","lastUpdated":"2018","lastActive":"no","area":1622.139093292662,"changesets":2462,"mappers":183,"roads":4785.67042099275,"buildings":85484,"edits":125427,"latest":"2018-10-21T13:23:11.000Z"},"geometry":{"type":"Point","coordinates":[38.7777142279862,-10.7640181242256]}},{"type":"Feature","properties":{"id":4556,"title":"Manyoni, Singida, Tanzania Mini Grids Project 06","status":"PUBLISHED","created":"2018","lastUpdated":"2018","lastActive":"no","area":3110.180831968628,"changesets":1901,"mappers":69,"roads":0.0988541090635963,"buildings":35125,"edits":35164,"latest":"2018-07-11T13:29:54.000Z"},"geometry":{"type":"Point","coordinates":[33.9208946952443,-6.69112747679568]}},{"type":"Feature","properties":{"id":2261,"title":"Tanzania Development Trust: Serengeti district mapping project part 2","status":"PUBLISHED","created":"2016","lastUpdated":"2018","lastActive":"no","area":11207.631576365555,"changesets":34023,"mappers":1630,"roads":29645.1220241715,"buildings":604840,"edits":921128,"latest":"2018-10-31T21:58:06.000Z"},"geometry":{"type":"Point","coordinates":[33.6631417496372,-1.71314326443619]}},{"type":"Feature","properties":{"id":4212,"title":"Tanzania Development Trust: Tunduma, Songwe Community Mapping Project","status":"ARCHIVED","created":"2018","lastUpdated":"2018","lastActive":"no","area":8.348830576332833,"changesets":1309,"mappers":102,"roads":131.172852446918,"buildings":16144,"edits":18573,"latest":"2018-04-16T10:35:52.000Z"},"geometry":{"type":"Point","coordinates":[32.7742526020665,-9.30855990968659]}},{"type":"Feature","properties":{"id":1973,"title":"MSD & JSI/USAID Tanzania Road Import - Manyara region","status":"PUBLISHED","created":"2016","lastUpdated":"2016","lastActive":"no","area":40580.74888215921,"changesets":70,"mappers":8,"roads":5229.19108914286,"buildings":8,"edits":4911,"latest":"2016-07-03T21:50:05.000Z"},"geometry":{"type":"Point","coordinates":[36.5449764408768,-4.57830216661689]}},{"type":"Feature","properties":{"id":4868,"title":"Kasuku Building Import Workflow Test (South))","status":"ARCHIVED","created":"2018","lastUpdated":"2018","lastActive":"no","area":1.6123125790816706,"changesets":18,"mappers":6,"roads":0.534707746129971,"buildings":276,"edits":281,"latest":"2018-10-09T23:04:15.000Z"},"geometry":{"type":"Point","coordinates":[29.741340447652,-4.90496095600047]}},{"type":"Feature","properties":{"id":4286,"title":"Mbozi, Mbeya, Tanzania Mini Grids Project 01","status":"PUBLISHED","created":"2018","lastUpdated":"2018","lastActive":"no","area":1427.754247465411,"changesets":3571,"mappers":68,"roads":3017.76610954661,"buildings":84064,"edits":91962,"latest":"2018-06-14T11:11:25.000Z"},"geometry":{"type":"Point","coordinates":[32.9022184031242,-9.22410127231269]}},{"type":"Feature","properties":{"id":4290,"title":"Mbozi, Mbeya, Tanzania Mini Grids Project 04","status":"PUBLISHED","created":"2018","lastUpdated":"2018","lastActive":"no","area":1211.7161084477548,"changesets":1961,"mappers":76,"roads":1447.81448250183,"buildings":48428,"edits":51301,"latest":"2018-07-03T09:24:27.000Z"},"geometry":{"type":"Point","coordinates":[32.6205051070244,-8.88427358395356]}},{"type":"Feature","properties":{"id":4365,"title":"Urambo, Tabora, Tanzania Mini Grids Project 03","status":"PUBLISHED","created":"2018","lastUpdated":"2018","lastActive":"no","area":1398.7624508238905,"changesets":1473,"mappers":69,"roads":0.043434080974496,"buildings":34954,"edits":34964,"latest":"2018-07-04T09:28:23.000Z"},"geometry":{"type":"Point","coordinates":[31.8238581030413,-5.21876565720349]}},{"type":"Feature","properties":{"id":4925,"title":"Kibamba, Dar es Salaam - Ramani Huria 2.0","status":"PUBLISHED","created":"2018","lastUpdated":"2018","lastActive":"no","area":19.884124388620787,"changesets":347,"mappers":59,"roads":25.6782323040697,"buildings":2830,"edits":4202,"latest":"2018-09-05T08:16:04.000Z"},"geometry":{"type":"Point","coordinates":[39.0391190561899,-6.7724521522622]}},{"type":"Feature","properties":{"id":2501,"title":"Tanzania Development Trust: Simiyu district mapping project part 1","status":"PUBLISHED","created":"2017","lastUpdated":"2018","lastActive":"no","area":6430.819090940454,"changesets":14453,"mappers":503,"roads":15059.9826728648,"buildings":303739,"edits":413729,"latest":"2018-10-21T19:37:35.000Z"},"geometry":{"type":"Point","coordinates":[34.0147323801402,-2.56082515091357]}},{"type":"Feature","properties":{"id":5291,"title":"Bububu Zanzibar Mapping","status":"PUBLISHED","created":"2018","lastUpdated":"2018","lastActive":"no","area":9.349523279823226,"changesets":185,"mappers":72,"roads":24.7842441338549,"buildings":2762,"edits":3176,"latest":"2018-11-05T21:11:38.000Z"},"geometry":{"type":"Point","coordinates":[39.2207064718988,-6.09133977311896]}},{"type":"Feature","properties":{"id":5326,"title":"Gerezani 2","status":"PUBLISHED","created":"2018","lastUpdated":"2018","lastActive":"no","area":0.1378230000413372,"changesets":53,"mappers":16,"roads":0.00932165201596649,"buildings":205,"edits":254,"latest":"2018-10-05T10:46:52.000Z"},"geometry":{"type":"Point","coordinates":[39.2777012004308,-6.82897780332198]}},{"type":"Feature","properties":{"id":4991,"title":"Data Zetu Hotsports_Mbeya","status":"PUBLISHED","created":"2018","lastUpdated":"2018","lastActive":"no","area":16.90944585735463,"changesets":1032,"mappers":30,"roads":0.570750636793558,"buildings":19667,"edits":19935,"latest":"2018-08-14T07:22:14.000Z"},"geometry":{"type":"Point","coordinates":[33.4961424334101,-8.92572377814541]}},{"type":"Feature","properties":{"id":3313,"title":"Tanzania Development Trust: Muzye, Muhunga and Bugaga wards community mapping project ","status":"PUBLISHED","created":"2017","lastUpdated":"2018","lastActive":"no","area":467.01646755665894,"changesets":1340,"mappers":89,"roads":2020.46900906235,"buildings":22145,"edits":37322,"latest":"2018-06-25T20:56:57.000Z"},"geometry":{"type":"Point","coordinates":[30.0142412007814,-4.64239965954966]}},{"type":"Feature","properties":{"id":5467,"title":"Makuburi","status":"PUBLISHED","created":"2018","lastUpdated":"2018","lastActive":"yes","area":7.6743988229254745,"changesets":8,"mappers":6,"roads":7.63816287996377e-10,"buildings":179,"edits":181,"latest":"2018-11-14T20:17:17.000Z"},"geometry":{"type":"Point","coordinates":[39.2000761299092,-6.80869248275905]}},{"type":"Feature","properties":{"id":4956,"title":"Kinyerezi, Dar es Salaam - Ramani Huria 2.0","status":"PUBLISHED","created":"2018","lastUpdated":"2018","lastActive":"no","area":21.432560772199803,"changesets":5,"mappers":2,"roads":1.16885300309378,"buildings":28,"edits":44,"latest":"2018-09-04T03:50:33.000Z"},"geometry":{"type":"Point","coordinates":[39.1504736353186,-6.84213294797882]}},{"type":"Feature","properties":{"id":3159,"title":"Tanzania Development Trust: Singida district community mapping project ","status":"PUBLISHED","created":"2017","lastUpdated":"2018","lastActive":"no","area":746.5381861519145,"changesets":8150,"mappers":372,"roads":10510.3568767361,"buildings":97686,"edits":203262,"latest":"2018-08-01T11:02:23.000Z"},"geometry":{"type":"Point","coordinates":[34.973843496759,-4.67540763811596]}},{"type":"Feature","properties":{"id":4256,"title":"Manyara","status":"ARCHIVED","created":"2018","lastUpdated":"2018","lastActive":"no","area":63.093260840318564,"changesets":0,"mappers":0,"roads":0,"buildings":0,"edits":0,"latest":null},"geometry":{"type":"Point","coordinates":[35.3368133697752,-4.30430004427207]}},{"type":"Feature","properties":{"id":2578,"title":"Tanzania Development Trust: Maswa district mapping project part 1","status":"PUBLISHED","created":"2017","lastUpdated":"2017","lastActive":"no","area":159.57894576974346,"changesets":798,"mappers":47,"roads":907.460387698829,"buildings":10840,"edits":16860,"latest":"2018-06-24T09:29:40.000Z"},"geometry":{"type":"Point","coordinates":[33.8183321244147,-3.27981056061139]}},{"type":"Feature","properties":{"id":1446,"title":"Missing Maps: Dar es Salaam - Ramani Huria3","status":"ARCHIVED","created":"2016","lastUpdated":"2016","lastActive":"no","area":3.927576109372564,"changesets":1055,"mappers":99,"roads":43.1420034197716,"buildings":19364,"edits":20646,"latest":"2016-11-05T09:26:49.000Z"},"geometry":{"type":"Point","coordinates":[39.2460626363032,-6.87768103664077]}},{"type":"Feature","properties":{"id":5374,"title":"Tanzania Road Tagging","status":"ARCHIVED","created":"2018","lastUpdated":"2018","lastActive":"no","area":1889.8991523484578,"changesets":121,"mappers":4,"roads":354.382916393981,"buildings":195,"edits":1625,"latest":"2018-10-28T21:36:35.000Z"},"geometry":{"type":"Point","coordinates":[34.9857072597691,-7.28466264372828]}},{"type":"Feature","properties":{"id":4896,"title":"Tanzania Development Trust:  Manyara FGM 3","status":"PUBLISHED","created":"2018","lastUpdated":"2018","lastActive":"no","area":2283.4732623040454,"changesets":1771,"mappers":168,"roads":225.333231420998,"buildings":15423,"edits":15979,"latest":"2018-10-24T12:40:31.000Z"},"geometry":{"type":"Point","coordinates":[37.0771755450608,-5.56656722298389]}},{"type":"Feature","properties":{"id":4751,"title":"Njombe Region, Tanzania Mini Grids Project 05","status":"PUBLISHED","created":"2018","lastUpdated":"2018","lastActive":"no","area":1958.8180766909427,"changesets":1262,"mappers":33,"roads":5.76234886943838,"buildings":59931,"edits":60292,"latest":"2018-06-22T07:51:23.000Z"},"geometry":{"type":"Point","coordinates":[34.73166445996,-9.30709784418002]}},{"type":"Feature","properties":{"id":4723,"title":"Njombe Region, Tanzania Mini Grids Project 02","status":"PUBLISHED","created":"2018","lastUpdated":"2018","lastActive":"no","area":1983.7355070009462,"changesets":1103,"mappers":56,"roads":0.208227637578225,"buildings":50720,"edits":50749,"latest":"2018-06-13T07:14:52.000Z"},"geometry":{"type":"Point","coordinates":[34.5029185619066,-8.98827863427251]}},{"type":"Feature","properties":{"id":4509,"title":"Central Singida, Singida, Tanzania Mini Grids Project 01 East","status":"PUBLISHED","created":"2018","lastUpdated":"2018","lastActive":"no","area":1475.3604875927692,"changesets":937,"mappers":67,"roads":0.0165898988823745,"buildings":11972,"edits":11978,"latest":"2018-06-28T10:08:59.000Z"},"geometry":{"type":"Point","coordinates":[34.1286284936251,-5.08363727457584]}},{"type":"Feature","properties":{"id":4528,"title":"Central Singida, Singida, Tanzania Mini Grids Project 04 South","status":"PUBLISHED","created":"2018","lastUpdated":"2018","lastActive":"no","area":2679.1732629690173,"changesets":1170,"mappers":63,"roads":0.0259764287875841,"buildings":20358,"edits":20362,"latest":"2018-05-17T13:46:29.000Z"},"geometry":{"type":"Point","coordinates":[34.7279889209458,-5.4378630362986]}},{"type":"Feature","properties":{"id":4499,"title":"Lindi, Lindi, Tanzania Mini Grids Project 05","status":"PUBLISHED","created":"2018","lastUpdated":"2018","lastActive":"no","area":1350.3603655694978,"changesets":1100,"mappers":66,"roads":1.12477553899274,"buildings":28479,"edits":28638,"latest":"2018-06-29T06:31:34.000Z"},"geometry":{"type":"Point","coordinates":[39.5947553137122,-9.74965390209154]}},{"type":"Feature","properties":{"id":4531,"title":"Manyoni, Singida, Tanzania Mini Grids Project 01","status":"PUBLISHED","created":"2018","lastUpdated":"2018","lastActive":"no","area":1326.5528682624965,"changesets":589,"mappers":58,"roads":0.134107026616461,"buildings":7569,"edits":7586,"latest":"2018-05-18T10:04:10.000Z"},"geometry":{"type":"Point","coordinates":[34.6075539482003,-5.56288622408193]}},{"type":"Feature","properties":{"id":4533,"title":"Manyoni, Singida, Tanzania Mini Grids Project 03","status":"PUBLISHED","created":"2018","lastUpdated":"2018","lastActive":"no","area":2145.5742223790444,"changesets":1111,"mappers":60,"roads":11.822358790697,"buildings":20618,"edits":21074,"latest":"2018-05-18T13:10:25.000Z"},"geometry":{"type":"Point","coordinates":[34.9997702528283,-5.75710614386221]}},{"type":"Feature","properties":{"id":4518,"title":"Central Singida, Singida, Tanzania Mini Grids Project 02","status":"PUBLISHED","created":"2018","lastUpdated":"2018","lastActive":"no","area":1414.1192851427202,"changesets":882,"mappers":58,"roads":0.0239845493890909,"buildings":17063,"edits":17069,"latest":"2018-05-17T08:50:47.000Z"},"geometry":{"type":"Point","coordinates":[34.4158854962968,-5.10944094991503]}},{"type":"Feature","properties":{"id":5135,"title":"Tanzania Development Trust:  Manyara FGM 5","status":"PUBLISHED","created":"2018","lastUpdated":"2018","lastActive":"no","area":991.6562638564619,"changesets":2940,"mappers":150,"roads":1815.95503012453,"buildings":42456,"edits":47415,"latest":"2018-10-18T10:53:25.000Z"},"geometry":{"type":"Point","coordinates":[36.7289186751711,-6.10532709565547]}},{"type":"Feature","properties":{"id":1068,"title":"Missing Maps: Nyarugusu Refugee Camp","status":"ARCHIVED","created":"2015","lastUpdated":"2016","lastActive":"no","area":30.6380293127976,"changesets":1829,"mappers":28,"roads":137.084034918248,"buildings":9461,"edits":10370,"latest":"2016-02-01T22:20:10.000Z"},"geometry":{"type":"Point","coordinates":[30.3869401669017,-4.21942756911438]}},{"type":"Feature","properties":{"id":4235,"title":"Tanzania Development Trust: Biharamulo Community Mapping Project","status":"ARCHIVED","created":"2018","lastUpdated":"2018","lastActive":"no","area":6.039818387380115,"changesets":765,"mappers":51,"roads":284.739876449328,"buildings":4189,"edits":5785,"latest":"2018-06-24T19:09:43.000Z"},"geometry":{"type":"Point","coordinates":[31.311664443878,-2.63422509905993]}},{"type":"Feature","properties":{"id":5466,"title":"Makongo","status":"PUBLISHED","created":"2018","lastUpdated":"2018","lastActive":"yes","area":18.298105774811496,"changesets":7,"mappers":3,"roads":0.686712931545164,"buildings":2,"edits":23,"latest":"2018-11-14T20:16:33.000Z"},"geometry":{"type":"Point","coordinates":[39.195804874665,-6.75981768277186]}},{"type":"Feature","properties":{"id":3387,"title":"Missing Maps: Dar es Salaam - Ramani Huria 2.0 - 20","status":"PUBLISHED","created":"2017","lastUpdated":"2018","lastActive":"no","area":92.06647987703117,"changesets":1407,"mappers":57,"roads":12.7576761938866,"buildings":34483,"edits":36868,"latest":"2017-08-15T08:33:29.000Z"},"geometry":{"type":"Point","coordinates":[39.107002934666,-6.82229799377065]}},{"type":"Feature","properties":{"id":4258,"title":"Lindi_minigrids","status":"ARCHIVED","created":"2018","lastUpdated":"2018","lastActive":"no","area":399.008958691099,"changesets":0,"mappers":0,"roads":0,"buildings":0,"edits":0,"latest":null},"geometry":{"type":"Point","coordinates":[39.206344562057,-10.7886215078052]}},{"type":"Feature","properties":{"id":2361,"title":"Tanzania Development Trust: Tabora district mapping project","status":"PUBLISHED","created":"2016","lastUpdated":"2018","lastActive":"no","area":11331.719987775972,"changesets":11664,"mappers":420,"roads":28508.3138575684,"buildings":316326,"edits":517728,"latest":"2018-09-05T04:26:28.000Z"},"geometry":{"type":"Point","coordinates":[32.9311624412335,-5.02219301254299]}},{"type":"Feature","properties":{"id":5322,"title":"Gerezani","status":"PUBLISHED","created":"2018","lastUpdated":"2018","lastActive":"no","area":0.6617969975738225,"changesets":244,"mappers":19,"roads":0.0429388379459798,"buildings":959,"edits":1687,"latest":"2018-10-05T09:50:57.000Z"},"geometry":{"type":"Point","coordinates":[39.2751643416466,-6.82552891846113]}},{"type":"Feature","properties":{"id":5204,"title":"Makumbusho","status":"PUBLISHED","created":"2018","lastUpdated":"2018","lastActive":"no","area":1.7495807696096894,"changesets":1019,"mappers":20,"roads":5.8505806882872,"buildings":7506,"edits":9235,"latest":"2018-11-07T13:50:16.000Z"},"geometry":{"type":"Point","coordinates":[39.2508110711774,-6.78966677791311]}},{"type":"Feature","properties":{"id":4245,"title":"Tanzania Development Trust: Kome Island Community Mapping Project","status":"ARCHIVED","created":"2018","lastUpdated":"2018","lastActive":"no","area":385.79192833306934,"changesets":1556,"mappers":136,"roads":903.993377006293,"buildings":11792,"edits":17458,"latest":"2018-03-23T13:14:21.000Z"},"geometry":{"type":"Point","coordinates":[32.4921971949472,-2.32937991152019]}},{"type":"Feature","properties":{"id":3352,"title":"Missing Maps: Dar es Salaam - Ramani Huria 2.0 - 07","status":"ARCHIVED","created":"2017","lastUpdated":"2017","lastActive":"no","area":43.602163515930684,"changesets":1015,"mappers":62,"roads":384.282174733634,"buildings":221,"edits":8861,"latest":"2017-08-04T07:19:27.000Z"},"geometry":{"type":"Point","coordinates":[39.1225445864321,-6.72392047199685]}},{"type":"Feature","properties":{"id":2343,"title":"Tanzania Development Trust - Shinyanga District","status":"ARCHIVED","created":"2016","lastUpdated":"2017","lastActive":"no","area":3427.959635629754,"changesets":242,"mappers":17,"roads":361.927248485148,"buildings":10209,"edits":12652,"latest":"2017-03-03T22:08:46.000Z"},"geometry":{"type":"Point","coordinates":[33.4638429794363,-3.57935372837378]}},{"type":"Feature","properties":{"id":5155,"title":"Temeke","status":"PUBLISHED","created":"2018","lastUpdated":"2018","lastActive":"no","area":2.940691262220834,"changesets":949,"mappers":23,"roads":0.984664545466694,"buildings":7916,"edits":9508,"latest":"2018-10-08T14:01:02.000Z"},"geometry":{"type":"Point","coordinates":[39.2555695686437,-6.85004422213022]}},{"type":"Feature","properties":{"id":5148,"title":"Magomeni","status":"PUBLISHED","created":"2018","lastUpdated":"2018","lastActive":"no","area":1.0950286991089058,"changesets":537,"mappers":24,"roads":1.68967398993952,"buildings":4473,"edits":5416,"latest":"2018-11-02T07:59:40.000Z"},"geometry":{"type":"Point","coordinates":[39.2615816536214,-6.80400422217293]}},{"type":"Feature","properties":{"id":2125,"title":"Missing Maps: Dar es Salaam - Ramani Huria 7","status":"PUBLISHED","created":"2016","lastUpdated":"2017","lastActive":"no","area":15.59172030179052,"changesets":681,"mappers":54,"roads":23.3546858581493,"buildings":15759,"edits":16703,"latest":"2017-12-11T17:19:19.000Z"},"geometry":{"type":"Point","coordinates":[39.2272702302774,-6.72482139604585]}},{"type":"Feature","properties":{"id":2111,"title":"MSD & JSI/USAID Tanzania Road Import - Mbeya region","status":"PUBLISHED","created":"2016","lastUpdated":"2016","lastActive":"no","area":19769.484038509396,"changesets":79,"mappers":5,"roads":2211.37645137462,"buildings":3314,"edits":7568,"latest":"2016-10-05T18:18:41.000Z"},"geometry":{"type":"Point","coordinates":[33.156706012806,-8.77001626949037]}},{"type":"Feature","properties":{"id":2050,"title":"MSD & JSI/USAID Tanzania Road Import - Morogoro region","status":"PUBLISHED","created":"2016","lastUpdated":"2016","lastActive":"no","area":28136.915277094853,"changesets":232,"mappers":9,"roads":5403.72286464984,"buildings":8,"edits":6562,"latest":"2016-08-17T09:47:25.000Z"},"geometry":{"type":"Point","coordinates":[37.1326578119178,-7.21230071196328]}},{"type":"Feature","properties":{"id":2000,"title":"MSD & JSI/USAID Tanzania Road Import - Kagera region","status":"PUBLISHED","created":"2016","lastUpdated":"2017","lastActive":"no","area":20054.048144070715,"changesets":358,"mappers":13,"roads":5109.7295790206,"buildings":602,"edits":5030,"latest":"2016-09-01T07:25:22.000Z"},"geometry":{"type":"Point","coordinates":[31.2939426199718,-2.04845084133451]}},{"type":"Feature","properties":{"id":4824,"title":"Zanzibar-Digitization","status":"PUBLISHED","created":"2018","lastUpdated":"2018","lastActive":"no","area":448.3142744445994,"changesets":603,"mappers":31,"roads":4.54690549735974,"buildings":12573,"edits":12893,"latest":"2018-08-17T09:34:31.000Z"},"geometry":{"type":"Point","coordinates":[39.2874808727826,-5.91212678450974]}},{"type":"Feature","properties":{"id":4323,"title":"Tanzania Development Trust: Simiyu South","status":"PUBLISHED","created":"2018","lastUpdated":"2018","lastActive":"yes","area":3977.4740524717954,"changesets":7455,"mappers":555,"roads":5257.51559494289,"buildings":87805,"edits":104916,"latest":"2018-11-14T21:33:20.000Z"},"geometry":{"type":"Point","coordinates":[34.3684346241635,-3.14466084541383]}},{"type":"Feature","properties":{"id":5011,"title":"Jangwani","status":"PUBLISHED","created":"2018","lastUpdated":"2018","lastActive":"no","area":0.6459967593125133,"changesets":490,"mappers":40,"roads":0.568461679535797,"buildings":3198,"edits":3929,"latest":"2018-09-21T12:34:17.000Z"},"geometry":{"type":"Point","coordinates":[39.2733984600485,-6.81599868171233]}},{"type":"Feature","properties":{"id":5386,"title":"Gerezani_METEOR","status":"PUBLISHED","created":"2018","lastUpdated":"2018","lastActive":"no","area":0.31545538866072964,"changesets":208,"mappers":20,"roads":5.17559823813131,"buildings":366,"edits":844,"latest":"2018-10-25T08:50:20.000Z"},"geometry":{"type":"Point","coordinates":[39.2753213377704,-6.82192478353065]}},{"type":"Feature","properties":{"id":3427,"title":"Missing Maps: Dar es Salaam - Ramani Huria 2.0 - 30","status":"PUBLISHED","created":"2017","lastUpdated":"2018","lastActive":"no","area":324.58461584384474,"changesets":736,"mappers":55,"roads":997.252274559555,"buildings":82,"edits":5864,"latest":"2017-08-24T07:24:28.000Z"},"geometry":{"type":"Point","coordinates":[39.4586452875521,-7.09171770901867]}},{"type":"Feature","properties":{"id":3425,"title":"Missing Maps: Dar es Salaam - Ramani Huria 2.0 - 28","status":"PUBLISHED","created":"2017","lastUpdated":"2018","lastActive":"no","area":238.90307672725964,"changesets":3337,"mappers":175,"roads":1979.67874635539,"buildings":2573,"edits":35065,"latest":"2017-11-03T04:15:17.000Z"},"geometry":{"type":"Point","coordinates":[39.2720471954653,-6.94362511164942]}},{"type":"Feature","properties":{"id":5394,"title":"Mtakuja_METEOR","status":"PUBLISHED","created":"2018","lastUpdated":"2018","lastActive":"no","area":0.12654256421525886,"changesets":111,"mappers":10,"roads":0.154747279215324,"buildings":1165,"edits":1365,"latest":"2018-10-26T12:56:08.000Z"},"geometry":{"type":"Point","coordinates":[39.2311664932879,-6.84526241829827]}},{"type":"Feature","properties":{"id":4236,"title":"Tanzania Development Trust: Mitwero, Lindi Community Mapping Project","status":"ARCHIVED","created":"2018","lastUpdated":"2018","lastActive":"no","area":80.77775171781835,"changesets":528,"mappers":67,"roads":468.376805254013,"buildings":2230,"edits":4918,"latest":"2018-06-22T20:06:01.000Z"},"geometry":{"type":"Point","coordinates":[39.7342788001324,-9.91500147746219]}},{"type":"Feature","properties":{"id":4211,"title":"Tanzania Development Trust: Kayanga Karagwe Community Mapping Project","status":"ARCHIVED","created":"2018","lastUpdated":"2018","lastActive":"no","area":9.817134429272661,"changesets":2030,"mappers":111,"roads":257.875156407586,"buildings":6739,"edits":9339,"latest":"2018-06-25T20:44:51.000Z"},"geometry":{"type":"Point","coordinates":[31.1517912801376,-1.53378723172487]}},{"type":"Feature","properties":{"id":3826,"title":"Tanzania Development Trust: Ihanda Community Mapping Project","status":"ARCHIVED","created":"2017","lastUpdated":"2018","lastActive":"no","area":84.22986494226826,"changesets":308,"mappers":18,"roads":373.737137847268,"buildings":3803,"edits":6185,"latest":"2018-06-21T20:32:04.000Z"},"geometry":{"type":"Point","coordinates":[31.088492540636,-1.549140845654]}},{"type":"Feature","properties":{"id":5029,"title":"Kigogo","status":"PUBLISHED","created":"2018","lastUpdated":"2018","lastActive":"no","area":1.919044857626449,"changesets":1335,"mappers":37,"roads":2.99758976000865,"buildings":13712,"edits":15491,"latest":"2018-08-31T08:16:38.000Z"},"geometry":{"type":"Point","coordinates":[39.245687327176,-6.81863004202305]}},{"type":"Feature","properties":{"id":1903,"title":"Peace Corps Tanzania -- Lushoto","status":"PUBLISHED","created":"2016","lastUpdated":"2017","lastActive":"no","area":69.21165370312055,"changesets":640,"mappers":88,"roads":126.39665147357,"buildings":9101,"edits":10836,"latest":"2017-07-28T23:41:56.000Z"},"geometry":{"type":"Point","coordinates":[38.3007954725319,-4.81163810650237]}},{"type":"Feature","properties":{"id":5151,"title":"Sandali","status":"PUBLISHED","created":"2018","lastUpdated":"2018","lastActive":"no","area":2.754693570123113,"changesets":1143,"mappers":35,"roads":0.699111235055833,"buildings":7843,"edits":8260,"latest":"2018-09-18T13:58:19.000Z"},"geometry":{"type":"Point","coordinates":[39.2468576140869,-6.85541663438858]}},{"type":"Feature","properties":{"id":974,"title":"Missing Maps: Masasa, Tanzania","status":"ARCHIVED","created":"2015","lastUpdated":"2017","lastActive":"no","area":30.35388422411191,"changesets":362,"mappers":37,"roads":573.257983913129,"buildings":5562,"edits":11439,"latest":"2015-06-17T16:21:53.000Z"},"geometry":{"type":"Point","coordinates":[31.5237257525497,-3.33292161211319]}},{"type":"Feature","properties":{"id":5136,"title":"Tanzania Development Trust:  Manyara FGM 6","status":"PUBLISHED","created":"2018","lastUpdated":"2018","lastActive":"yes","area":1127.3539356225028,"changesets":3409,"mappers":247,"roads":1502.80079094083,"buildings":43231,"edits":46485,"latest":"2018-11-14T20:48:06.000Z"},"geometry":{"type":"Point","coordinates":[37.0715783941217,-6.08590867686194]}},{"type":"Feature","properties":{"id":4294,"title":"Tanzania Development Trust: Mubunda Muleba Community Mapping Project","status":"ARCHIVED","created":"2018","lastUpdated":"2018","lastActive":"no","area":7.587230914571072,"changesets":306,"mappers":43,"roads":177.651635751973,"buildings":1516,"edits":2786,"latest":"2018-03-16T04:45:19.000Z"},"geometry":{"type":"Point","coordinates":[31.5148740880789,-1.94608709963417]}},{"type":"Feature","properties":{"id":2609,"title":"Tanzania Development Trust: Maswa district mapping project part 2","status":"ARCHIVED","created":"2017","lastUpdated":"2017","lastActive":"no","area":562.8015857815028,"changesets":3334,"mappers":121,"roads":2584.15851997412,"buildings":32479,"edits":61974,"latest":"2017-07-23T02:02:02.000Z"},"geometry":{"type":"Point","coordinates":[33.8216815175903,-3.13671054186429]}},{"type":"Feature","properties":{"id":2364,"title":"PEPFAR Tanzania: Mbeya CC West","status":"ARCHIVED","created":"2016","lastUpdated":"2017","lastActive":"no","area":313.7964362335892,"changesets":723,"mappers":60,"roads":144.308325077847,"buildings":11368,"edits":14015,"latest":"2017-02-16T17:25:26.000Z"},"geometry":{"type":"Point","coordinates":[33.4157752990723,-8.91982473995592]}},{"type":"Feature","properties":{"id":2143,"title":"Earthquake in Uganda and Tanzania, 10/09/2016 - Epicenter Buildings Mapping","status":"ARCHIVED","created":"2016","lastUpdated":"2016","lastActive":"no","area":206.58898646813577,"changesets":2152,"mappers":115,"roads":180.842068422114,"buildings":20024,"edits":23343,"latest":"2017-06-19T12:21:25.000Z"},"geometry":{"type":"Point","coordinates":[31.5531060476886,-1.03087731821331]}},{"type":"Feature","properties":{"id":2162,"title":"Earthquake in Uganda and Tanzania, 10/09/2016 - SE of Epicenter Buildings Mapping","status":"ARCHIVED","created":"2016","lastUpdated":"2016","lastActive":"no","area":44.69211015182962,"changesets":827,"mappers":36,"roads":48.6700209908821,"buildings":8145,"edits":8981,"latest":"2016-09-21T11:21:26.000Z"},"geometry":{"type":"Point","coordinates":[31.6571644592505,-1.21165352764446]}},{"type":"Feature","properties":{"id":1971,"title":"MSD & JSI/USAID Tanzania Road Import - Arusha region","status":"PUBLISHED","created":"2016","lastUpdated":"2017","lastActive":"no","area":31245.987566415035,"changesets":35,"mappers":2,"roads":4684.0273299004,"buildings":2,"edits":2696,"latest":"2016-06-26T10:45:01.000Z"},"geometry":{"type":"Point","coordinates":[36.012472285039,-2.97438359363947]}},{"type":"Feature","properties":{"id":1544,"title":"Missing Maps: Dar es Salaam - Ramani Huria5","status":"ARCHIVED","created":"2016","lastUpdated":"2016","lastActive":"no","area":5.586401873878637,"changesets":1381,"mappers":124,"roads":368.316305127799,"buildings":20873,"edits":24593,"latest":"2016-09-07T11:12:52.000Z"},"geometry":{"type":"Point","coordinates":[39.2262531835573,-6.87782624257323]}},{"type":"Feature","properties":{"id":1788,"title":"Tanzania Development Trust: Serengeti district mapping project","status":"ARCHIVED","created":"2016","lastUpdated":"2018","lastActive":"no","area":13584.124479203561,"changesets":22885,"mappers":911,"roads":32070.8722414286,"buildings":416061,"edits":635374,"latest":"2018-10-07T14:50:39.000Z"},"geometry":{"type":"Point","coordinates":[34.6535890667968,-1.94252940124096]}},{"type":"Feature","properties":{"id":4806,"title":"Tanzania Development Trust: Salesforce Manyara FGM 1","status":"ARCHIVED","created":"2018","lastUpdated":"2018","lastActive":"no","area":4622.432534591587,"changesets":0,"mappers":0,"roads":0,"buildings":0,"edits":0,"latest":null},"geometry":{"type":"Point","coordinates":[36.6099230731213,-5.44490485431505]}},{"type":"Feature","properties":{"id":3395,"title":"Missing Maps: Dar es Salaam - Ramani Huria 2.0 - 23","status":"PUBLISHED","created":"2017","lastUpdated":"2018","lastActive":"no","area":200.39044222285065,"changesets":11931,"mappers":207,"roads":6.40062292346281,"buildings":130739,"edits":132569,"latest":"2017-12-05T17:05:23.000Z"},"geometry":{"type":"Point","coordinates":[39.1952993835025,-6.91753429051324]}},{"type":"Feature","properties":{"id":4166,"title":"Tanzania Development Trust: Shinyanga East community mapping project","status":"PUBLISHED","created":"2018","lastUpdated":"2018","lastActive":"no","area":1007.0589397559861,"changesets":4053,"mappers":501,"roads":2576.52795395353,"buildings":33997,"edits":46405,"latest":"2018-11-13T10:40:08.000Z"},"geometry":{"type":"Point","coordinates":[33.6837535541805,-3.51751040221294]}},{"type":"Feature","properties":{"id":4951,"title":"Ramani Huria and GreenWastePro Collaboration","status":"PUBLISHED","created":"2018","lastUpdated":"2018","lastActive":"no","area":0.4359428542272518,"changesets":377,"mappers":13,"roads":0.120804790239145,"buildings":1401,"edits":1748,"latest":"2018-08-03T11:45:09.000Z"},"geometry":{"type":"Point","coordinates":[39.2851515232949,-6.81585154800023]}},{"type":"Feature","properties":{"id":4802,"title":"Priority Villages, Lindi Region, Tanzania Mini Grids Project","status":"PUBLISHED","created":"2018","lastUpdated":"2018","lastActive":"no","area":616.0229189680824,"changesets":447,"mappers":18,"roads":0.198453497004405,"buildings":12715,"edits":12741,"latest":"2018-07-03T09:25:50.000Z"},"geometry":{"type":"Point","coordinates":[38.5089337611704,-10.1840429590014]}},{"type":"Feature","properties":{"id":1119,"title":"Missing Maps: Dar es Salaam (phase 2 & 3)","status":"ARCHIVED","created":"2015","lastUpdated":"2017","lastActive":"no","area":18.40993909198471,"changesets":922,"mappers":50,"roads":8.97784506878528,"buildings":3303,"edits":3812,"latest":"2015-11-18T19:10:47.000Z"},"geometry":{"type":"Point","coordinates":[39.245717821605,-6.81747513993096]}},{"type":"Feature","properties":{"id":2139,"title":"Earthquake in Uganda and Tanzania, 10/09/2016","status":"ARCHIVED","created":"2016","lastUpdated":"2016","lastActive":"no","area":3483.453141526834,"changesets":79,"mappers":14,"roads":355.759035018036,"buildings":1251,"edits":2901,"latest":"2016-09-11T17:38:24.000Z"},"geometry":{"type":"Point","coordinates":[31.5941108672666,-1.06899770270717]}},{"type":"Feature","properties":{"id":2124,"title":"Untitled project","status":"ARCHIVED","created":"2016","lastUpdated":"2016","lastActive":"no","area":15.59172030179052,"changesets":0,"mappers":0,"roads":0,"buildings":0,"edits":0,"latest":null},"geometry":{"type":"Point","coordinates":[39.2272702302774,-6.72482139604585]}},{"type":"Feature","properties":{"id":5325,"title":"Mwananyamala","status":"PUBLISHED","created":"2018","lastUpdated":"2018","lastActive":"no","area":2.49542175237576,"changesets":336,"mappers":20,"roads":0.154280978731387,"buildings":1714,"edits":2074,"latest":"2018-10-09T13:18:30.000Z"},"geometry":{"type":"Point","coordinates":[39.2586298839167,-6.78686342634381]}},{"type":"Feature","properties":{"id":4721,"title":"Songea Rural, Ruvuma, Tanzania Mini Grids Project 07","status":"PUBLISHED","created":"2018","lastUpdated":"2018","lastActive":"no","area":2150.916415219976,"changesets":529,"mappers":56,"roads":0.110758162123934,"buildings":9687,"edits":9700,"latest":"2018-08-16T06:38:13.000Z"},"geometry":{"type":"Point","coordinates":[35.5937322600906,-11.359078653805]}},{"type":"Feature","properties":{"id":4719,"title":"Songea Rural, Ruvuma, Tanzania Mini Grids Project 05","status":"PUBLISHED","created":"2018","lastUpdated":"2018","lastActive":"no","area":2073.141928637436,"changesets":1420,"mappers":54,"roads":0.925980022800687,"buildings":30459,"edits":30541,"latest":"2018-06-12T10:58:13.000Z"},"geometry":{"type":"Point","coordinates":[35.4782949633589,-10.7224020173536]}},{"type":"Feature","properties":{"id":4704,"title":"Songea Rural, Ruvuma, Tanzania Mini Grids Project 03","status":"PUBLISHED","created":"2018","lastUpdated":"2018","lastActive":"no","area":2223.7007441409824,"changesets":559,"mappers":53,"roads":1.3997523367762,"buildings":4565,"edits":4600,"latest":"2018-07-26T11:48:10.000Z"},"geometry":{"type":"Point","coordinates":[35.4845429905191,-10.0895331115736]}},{"type":"Feature","properties":{"id":4716,"title":"Buigiri, Tanzania Mini Grids Project","status":"PUBLISHED","created":"2018","lastUpdated":"2018","lastActive":"no","area":70.76658506869626,"changesets":35,"mappers":19,"roads":0,"buildings":1370,"edits":1370,"latest":"2018-06-11T06:47:36.000Z"},"geometry":{"type":"Point","coordinates":[36.0912871642792,-6.16102193778322]}},{"type":"Feature","properties":{"id":4350,"title":"Mbozi, Mbeya, Tanzania Mini Grids Project 07","status":"PUBLISHED","created":"2018","lastUpdated":"2018","lastActive":"no","area":908.5380955685306,"changesets":1211,"mappers":61,"roads":663.566242525814,"buildings":34908,"edits":35996,"latest":"2018-06-29T06:38:08.000Z"},"geometry":{"type":"Point","coordinates":[32.4493880644302,-8.42765633103931]}},{"type":"Feature","properties":{"id":4353,"title":"Urambo, Tabora, Tanzania Mini Grids Project 06","status":"PUBLISHED","created":"2018","lastUpdated":"2018","lastActive":"no","area":1555.7313427834936,"changesets":2204,"mappers":67,"roads":0.0376777707116761,"buildings":58216,"edits":58229,"latest":"2018-06-29T06:36:08.000Z"},"geometry":{"type":"Point","coordinates":[31.8599232080963,-4.91518059883278]}},{"type":"Feature","properties":{"id":4369,"title":"Tanzania Development Trust: Kagera Road Mapping","status":"PUBLISHED","created":"2018","lastUpdated":"2018","lastActive":"no","area":15505.318016681384,"changesets":75,"mappers":7,"roads":775.676299576141,"buildings":409,"edits":1084,"latest":"2018-10-04T02:54:16.000Z"},"geometry":{"type":"Point","coordinates":[31.2684925052969,-1.52351392671619]}},{"type":"Feature","properties":{"id":4376,"title":"Urambo, Tabora, Tanzania Mini Grids Project 01-02","status":"PUBLISHED","created":"2018","lastUpdated":"2018","lastActive":"no","area":2032.586550505636,"changesets":2264,"mappers":60,"roads":0.977625727876198,"buildings":26878,"edits":26920,"latest":"2018-06-19T08:37:22.000Z"},"geometry":{"type":"Point","coordinates":[31.7287992798091,-5.3745816051939]}},{"type":"Feature","properties":{"id":4355,"title":"Urambo, Tabora, Tanzania Mini Grids Project 08","status":"PUBLISHED","created":"2018","lastUpdated":"2018","lastActive":"no","area":1512.9535222617567,"changesets":1803,"mappers":62,"roads":0.0539411172980745,"buildings":55003,"edits":55009,"latest":"2018-06-29T06:38:59.000Z"},"geometry":{"type":"Point","coordinates":[32.0314904614418,-4.67837737836096]}},{"type":"Feature","properties":{"id":4315,"title":"Tanzania Development Trust: Nshamba Community Mapping Project","status":"ARCHIVED","created":"2018","lastUpdated":"2018","lastActive":"no","area":20.728217465742752,"changesets":502,"mappers":54,"roads":258.414508170386,"buildings":5488,"edits":8174,"latest":"2018-03-18T15:53:19.000Z"},"geometry":{"type":"Point","coordinates":[31.5495323621043,-1.80167815244229]}},{"type":"Feature","properties":{"id":4368,"title":"Tanzania Development Trust: Morogoro Community Mapping Project","status":"ARCHIVED","created":"2018","lastUpdated":"2018","lastActive":"no","area":6.725652855463129,"changesets":1281,"mappers":89,"roads":81.8895955188457,"buildings":19328,"edits":20942,"latest":"2018-07-08T14:32:19.000Z"},"geometry":{"type":"Point","coordinates":[37.6521283051778,-6.82130428335325]}},{"type":"Feature","properties":{"id":4282,"title":"Tanzania Development Trust: Kamishango Community Mapping Project","status":"ARCHIVED","created":"2018","lastUpdated":"2018","lastActive":"no","area":9.427409216356606,"changesets":237,"mappers":26,"roads":63.4951655647916,"buildings":946,"edits":1796,"latest":"2018-03-27T14:29:57.000Z"},"geometry":{"type":"Point","coordinates":[31.6140883568513,-1.8374625035104]}},{"type":"Feature","properties":{"id":4957,"title":"Gongo la Mboto, Dar es Salaam - Ramani Huria 2.0","status":"PUBLISHED","created":"2018","lastUpdated":"2018","lastActive":"no","area":12.42114909208458,"changesets":24,"mappers":9,"roads":2.09455045359767,"buildings":129,"edits":164,"latest":"2018-08-09T13:01:49.000Z"},"geometry":{"type":"Point","coordinates":[39.1497392908264,-6.87859919492805]}},{"type":"Feature","properties":{"id":5338,"title":"Tabata_Msimbazi","status":"PUBLISHED","created":"2018","lastUpdated":"2018","lastActive":"no","area":2.7361327645312596,"changesets":598,"mappers":22,"roads":1.52976158880248,"buildings":5381,"edits":5750,"latest":"2018-10-29T18:04:45.000Z"},"geometry":{"type":"Point","coordinates":[39.2210232072559,-6.83783297253043]}},{"type":"Feature","properties":{"id":4326,"title":"Tanzania Development Trust: Chamchuzi Karagwe Community Mapping Project","status":"ARCHIVED","created":"2018","lastUpdated":"2018","lastActive":"no","area":14.620352225319428,"changesets":96,"mappers":13,"roads":118.753544967723,"buildings":625,"edits":1031,"latest":"2018-03-18T21:53:31.000Z"},"geometry":{"type":"Point","coordinates":[30.8657918691606,-1.79784583007795]}},{"type":"Feature","properties":{"id":3411,"title":"Missing Maps: Dar es Salaam - Ramani Huria 2.0 - 25","status":"PUBLISHED","created":"2017","lastUpdated":"2018","lastActive":"no","area":260.81879568766976,"changesets":1755,"mappers":99,"roads":3.25862217409201,"buildings":58641,"edits":59730,"latest":"2017-08-21T09:01:52.000Z"},"geometry":{"type":"Point","coordinates":[39.3808440193565,-6.94279344737865]}},{"type":"Feature","properties":{"id":1233,"title":"MSD & JSI/USAID Tanzania Road Import - Kigoma and Tabora regions","status":"PUBLISHED","created":"2015","lastUpdated":"2017","lastActive":"no","area":55716.44775664574,"changesets":89,"mappers":5,"roads":7164.0075520837,"buildings":137,"edits":14011,"latest":"2015-10-15T16:49:58.000Z"},"geometry":{"type":"Point","coordinates":[31.938951757194,-4.84880832874386]}},{"type":"Feature","properties":{"id":3388,"title":"Missing Maps: Dar es Salaam - Ramani Huria 2.0 - 21","status":"PUBLISHED","created":"2017","lastUpdated":"2017","lastActive":"no","area":69.65587897048133,"changesets":1939,"mappers":75,"roads":6.84000186734417,"buildings":36784,"edits":37868,"latest":"2017-08-11T12:28:34.000Z"},"geometry":{"type":"Point","coordinates":[39.1283057323213,-6.89210398958084]}},{"type":"Feature","properties":{"id":5191,"title":"Arusha Urban","status":"PUBLISHED","created":"2018","lastUpdated":"2018","lastActive":"no","area":21.060253845499485,"changesets":414,"mappers":40,"roads":6.4856107156865,"buildings":9286,"edits":9503,"latest":"2018-11-09T16:01:23.000Z"},"geometry":{"type":"Point","coordinates":[36.6801067826224,-3.35473835249449]}},{"type":"Feature","properties":{"id":3203,"title":"Ikuna Ward Mapping Project","status":"PUBLISHED","created":"2017","lastUpdated":"2018","lastActive":"no","area":224.51296025612464,"changesets":335,"mappers":7,"roads":742.813559438957,"buildings":4401,"edits":9943,"latest":"2017-10-31T12:28:59.000Z"},"geometry":{"type":"Point","coordinates":[34.9321748000936,-9.19082600920363]}},{"type":"Feature","properties":{"id":4076,"title":"Shinyanga_Tabora_Geita","status":"PUBLISHED","created":"2018","lastUpdated":"2018","lastActive":"no","area":3994.8430365253507,"changesets":50,"mappers":14,"roads":0.000161002645333808,"buildings":2248,"edits":2251,"latest":"2018-08-23T03:54:33.000Z"},"geometry":{"type":"Point","coordinates":[31.8409955510823,-4.30414913053918]}},{"type":"Feature","properties":{"id":3968,"title":"Tanzania Development Trust: Mbozi district community mapping project","status":"PUBLISHED","created":"2017","lastUpdated":"2018","lastActive":"no","area":270.15833206747897,"changesets":2273,"mappers":248,"roads":2524.7243428568,"buildings":13869,"edits":37412,"latest":"2018-11-09T12:53:41.000Z"},"geometry":{"type":"Point","coordinates":[32.7810690177479,-9.02055139563406]}},{"type":"Feature","properties":{"id":5428,"title":"Tanzania missing buildings Mbulu District","status":"PUBLISHED","created":"2018","lastUpdated":"2018","lastActive":"yes","area":1102.5651278977764,"changesets":4595,"mappers":393,"roads":147.911219275134,"buildings":28380,"edits":29173,"latest":"2018-11-14T22:56:01.000Z"},"geometry":{"type":"Point","coordinates":[35.4288815332799,-3.84128025510992]}},{"type":"Feature","properties":{"id":4489,"title":"Lindi, Lindi, Tanzania Mini Grids Project 03","status":"PUBLISHED","created":"2018","lastUpdated":"2018","lastActive":"no","area":1972.6554027241687,"changesets":1117,"mappers":68,"roads":0.712816430807669,"buildings":37574,"edits":37626,"latest":"2018-07-04T09:33:22.000Z"},"geometry":{"type":"Point","coordinates":[39.2489990334018,-10.1470862126786]}},{"type":"Feature","properties":{"id":4424,"title":"Tunduru, Ruvuma, Tanzania Mini Grids Project 02","status":"PUBLISHED","created":"2018","lastUpdated":"2018","lastActive":"no","area":1549.6766515243964,"changesets":855,"mappers":63,"roads":0.0711115935309787,"buildings":21117,"edits":21136,"latest":"2018-05-07T07:56:42.000Z"},"geometry":{"type":"Point","coordinates":[37.1622341886943,-11.3445956375813]}},{"type":"Feature","properties":{"id":4487,"title":"Lindi, Lindi, Tanzania Mini Grids Project 01","status":"PUBLISHED","created":"2018","lastUpdated":"2018","lastActive":"no","area":2262.000623549842,"changesets":1674,"mappers":68,"roads":0.902342152134417,"buildings":56663,"edits":56749,"latest":"2018-05-14T14:03:37.000Z"},"geometry":{"type":"Point","coordinates":[38.9173096989872,-10.0781727355739]}},{"type":"Feature","properties":{"id":4435,"title":"Ivugula Village, Tanzania Mini Grids Project 01","status":"PUBLISHED","created":"2018","lastUpdated":"2018","lastActive":"no","area":12.603608518468686,"changesets":270,"mappers":44,"roads":23.4950636574225,"buildings":1686,"edits":2161,"latest":"2018-06-13T18:16:09.000Z"},"geometry":{"type":"Point","coordinates":[33.0729138374781,-8.9949988573835]}},{"type":"Feature","properties":{"id":4419,"title":"Mpwapwa, Dodoma, Tanzania Mini Grids Project 06","status":"PUBLISHED","created":"2018","lastUpdated":"2018","lastActive":"no","area":1290.5067497887903,"changesets":2176,"mappers":91,"roads":10.7518575631284,"buildings":54733,"edits":54794,"latest":"2018-06-30T12:14:33.000Z"},"geometry":{"type":"Point","coordinates":[36.516398356325,-6.30752944180002]}},{"type":"Feature","properties":{"id":4393,"title":"Rungwe, Mbeya, Tanzania Mini Grids Project 02","status":"PUBLISHED","created":"2018","lastUpdated":"2018","lastActive":"no","area":1149.0351365244592,"changesets":2056,"mappers":60,"roads":12.5724590121885,"buildings":72408,"edits":72612,"latest":"2018-04-27T14:03:47.000Z"},"geometry":{"type":"Point","coordinates":[33.8206120731278,-9.26492522635025]}},{"type":"Feature","properties":{"id":4411,"title":"Tunduru, Ruvuma, Tanzania Mini Grids Project 05","status":"PUBLISHED","created":"2018","lastUpdated":"2018","lastActive":"no","area":1479.9129003136538,"changesets":1947,"mappers":62,"roads":3.59696148842831,"buildings":30085,"edits":30123,"latest":"2018-05-17T04:42:41.000Z"},"geometry":{"type":"Point","coordinates":[37.4466069429557,-10.8885669665714]}},{"type":"Feature","properties":{"id":4477,"title":"S. Monduli, Simanjiro, Tanzania Mini Grids - MapSwipe Project 04 - 04","status":"PUBLISHED","created":"2018","lastUpdated":"2018","lastActive":"no","area":139.74141127398454,"changesets":352,"mappers":54,"roads":0,"buildings":4700,"edits":4700,"latest":"2018-05-04T08:40:26.000Z"},"geometry":{"type":"Point","coordinates":[37.9774679014572,-5.07008836053818]}},{"type":"Feature","properties":{"id":4401,"title":"Kipili Ward, Rukwa, Tanzania Mini Grids Project 01","status":"PUBLISHED","created":"2018","lastUpdated":"2018","lastActive":"no","area":180.26824654575853,"changesets":455,"mappers":51,"roads":0.000599220796289046,"buildings":9512,"edits":9513,"latest":"2018-05-08T10:13:16.000Z"},"geometry":{"type":"Point","coordinates":[30.6487933655884,-7.46688534597107]}},{"type":"Feature","properties":{"id":4479,"title":"S. Monduli, Simanjiro, Tanzania Mini Grids - MapSwipe Project 04 - 02","status":"PUBLISHED","created":"2018","lastUpdated":"2018","lastActive":"no","area":131.2262807333246,"changesets":136,"mappers":50,"roads":0.000165500103078919,"buildings":1412,"edits":1414,"latest":"2018-05-04T09:36:27.000Z"},"geometry":{"type":"Point","coordinates":[37.1526786235933,-4.96896345542438]}},{"type":"Feature","properties":{"id":4386,"title":"Igalula Ward, Kigoma, Tanzania Mini Grids Project 01","status":"PUBLISHED","created":"2018","lastUpdated":"2018","lastActive":"no","area":1169.7270185651328,"changesets":912,"mappers":37,"roads":0.00817977234302703,"buildings":9782,"edits":9783,"latest":"2018-04-17T14:00:26.000Z"},"geometry":{"type":"Point","coordinates":[30.1160375593605,-6.04163687332309]}},{"type":"Feature","properties":{"id":4378,"title":"Tunduru, Ruvuma, Tanzania Mini Grids Project 03","status":"PUBLISHED","created":"2018","lastUpdated":"2018","lastActive":"no","area":1369.2568876847938,"changesets":1018,"mappers":60,"roads":0.263537837490913,"buildings":23394,"edits":23430,"latest":"2018-05-03T13:14:28.000Z"},"geometry":{"type":"Point","coordinates":[37.4088345476761,-11.1598554676675]}},{"type":"Feature","properties":{"id":4699,"title":"Mivumoni Village, Pangani District, Tanzania Mini Grids Project","status":"PUBLISHED","created":"2018","lastUpdated":"2018","lastActive":"no","area":0.818188879689272,"changesets":78,"mappers":17,"roads":0.0276900086096642,"buildings":366,"edits":370,"latest":"2018-06-07T14:01:00.000Z"},"geometry":{"type":"Point","coordinates":[38.9036715263947,-5.30813941973504]}},{"type":"Feature","properties":{"id":4695,"title":"Didia, Jomu, Singita in Shinyanga District, Tanzania Mini Grids Project","status":"PUBLISHED","created":"2018","lastUpdated":"2018","lastActive":"no","area":633.425618192545,"changesets":1071,"mappers":69,"roads":1.1515270702661,"buildings":35118,"edits":35234,"latest":"2018-06-14T10:23:19.000Z"},"geometry":{"type":"Point","coordinates":[33.18986858368,-3.852090824045]}},{"type":"Feature","properties":{"id":4656,"title":"Chemba and Bahi Districts, Tanzania Mini Grids Project 05","status":"PUBLISHED","created":"2018","lastUpdated":"2018","lastActive":"no","area":1943.7393401406555,"changesets":2139,"mappers":66,"roads":1.37724754241375,"buildings":26302,"edits":26408,"latest":"2018-06-14T08:37:58.000Z"},"geometry":{"type":"Point","coordinates":[35.693942385692,-5.27392956674015]}},{"type":"Feature","properties":{"id":4648,"title":"Lituhi, Luhagara, Ruanda Villages, Tanzania Mini Grids Project","status":"PUBLISHED","created":"2018","lastUpdated":"2018","lastActive":"no","area":8.186367673131722,"changesets":107,"mappers":30,"roads":0.135942160373434,"buildings":3904,"edits":3924,"latest":"2018-06-02T13:59:59.000Z"},"geometry":{"type":"Point","coordinates":[34.8120555554809,-10.543189622308]}},{"type":"Feature","properties":{"id":4652,"title":"Chemba and Bahi Districts, Tanzania Mini Grids Project 01","status":"PUBLISHED","created":"2018","lastUpdated":"2018","lastActive":"no","area":2950.555321557993,"changesets":1731,"mappers":66,"roads":29.3981576364086,"buildings":66133,"edits":66262,"latest":"2018-06-05T14:50:27.000Z"},"geometry":{"type":"Point","coordinates":[35.736869703494,-5.08436705235821]}},{"type":"Feature","properties":{"id":4642,"title":"Villages in Pangani District, Tanzania Mini Grids Project","status":"PUBLISHED","created":"2018","lastUpdated":"2018","lastActive":"no","area":3.2853624864693787,"changesets":85,"mappers":27,"roads":0.0728887891265449,"buildings":3068,"edits":3101,"latest":"2018-06-08T10:05:47.000Z"},"geometry":{"type":"Point","coordinates":[38.9510503654064,-5.45416108609809]}},{"type":"Feature","properties":{"id":4654,"title":"Chemba and Bahi Districts, Tanzania Mini Grids Project 03","status":"PUBLISHED","created":"2018","lastUpdated":"2018","lastActive":"no","area":1954.525377556312,"changesets":1245,"mappers":41,"roads":0.106920348528221,"buildings":20636,"edits":20657,"latest":"2018-06-05T14:25:23.000Z"},"geometry":{"type":"Point","coordinates":[35.5847311116868,-5.42682995375007]}},{"type":"Feature","properties":{"id":4637,"title":"Mkakatih Village, Tanzania Mini Grids Project","status":"PUBLISHED","created":"2018","lastUpdated":"2018","lastActive":"no","area":33.36735469325082,"changesets":73,"mappers":32,"roads":0.0531955537922062,"buildings":1062,"edits":1067,"latest":"2018-06-03T11:19:19.000Z"},"geometry":{"type":"Point","coordinates":[35.361299461125,-5.90004952122001]}},{"type":"Feature","properties":{"id":4623,"title":"Rufiji, Pwani, Tanzania Mini Grids Project 03","status":"PUBLISHED","created":"2018","lastUpdated":"2018","lastActive":"no","area":1539.3249459809983,"changesets":1141,"mappers":46,"roads":0.239674830143507,"buildings":25465,"edits":25525,"latest":"2018-06-13T07:45:23.000Z"},"geometry":{"type":"Point","coordinates":[39.2743309681675,-7.88542189986384]}},{"type":"Feature","properties":{"id":4646,"title":"Chemba District Villages, Tanzania Mini Grids Project","status":"PUBLISHED","created":"2018","lastUpdated":"2018","lastActive":"no","area":4.696678039184461,"changesets":75,"mappers":22,"roads":0.00801516130593583,"buildings":2731,"edits":2732,"latest":"2018-06-03T12:03:34.000Z"},"geometry":{"type":"Point","coordinates":[35.8524726241387,-5.16212165410825]}},{"type":"Feature","properties":{"id":4620,"title":"Misungwi, Mwanza, Tanzania Mini Grids Project 01","status":"PUBLISHED","created":"2018","lastUpdated":"2018","lastActive":"no","area":1505.6277470567059,"changesets":2108,"mappers":68,"roads":13.4694336037439,"buildings":52916,"edits":53379,"latest":"2018-07-27T10:35:50.000Z"},"geometry":{"type":"Point","coordinates":[32.9858926670162,-3.06285488354204]}},{"type":"Feature","properties":{"id":4612,"title":"Tabora, Tabora, Tanzania Mini Grids Project 05","status":"PUBLISHED","created":"2018","lastUpdated":"2018","lastActive":"no","area":1989.4559724518444,"changesets":1027,"mappers":62,"roads":1.12987965804484,"buildings":17432,"edits":17662,"latest":"2018-06-01T13:36:34.000Z"},"geometry":{"type":"Point","coordinates":[33.4026607737608,-5.09063064812292]}},{"type":"Feature","properties":{"id":5223,"title":"Upanga magharibi 2","status":"PUBLISHED","created":"2018","lastUpdated":"2018","lastActive":"no","area":1.9683936895380227,"changesets":244,"mappers":21,"roads":0.182942871925768,"buildings":1988,"edits":2138,"latest":"2018-10-30T14:15:45.000Z"},"geometry":{"type":"Point","coordinates":[39.2743824403815,-6.80448984469261]}},{"type":"Feature","properties":{"id":5215,"title":"Ndugumbi","status":"PUBLISHED","created":"2018","lastUpdated":"2018","lastActive":"no","area":1.3231030262596133,"changesets":840,"mappers":18,"roads":9.43928187389174,"buildings":5114,"edits":6358,"latest":"2018-11-08T09:45:15.000Z"},"geometry":{"type":"Point","coordinates":[39.2482813559023,-6.80125797617356]}},{"type":"Feature","properties":{"id":5156,"title":"Sombetini","status":"PUBLISHED","created":"2018","lastUpdated":"2018","lastActive":"no","area":2.158067893428719,"changesets":293,"mappers":79,"roads":0.414735952058103,"buildings":8073,"edits":8138,"latest":"2018-09-07T20:15:20.000Z"},"geometry":{"type":"Point","coordinates":[36.6679931001053,-3.38106582367836]}},{"type":"Feature","properties":{"id":5030,"title":"Mzimuni","status":"PUBLISHED","created":"2018","lastUpdated":"2018","lastActive":"no","area":1.2272442307232991,"changesets":716,"mappers":28,"roads":1.03965932616205,"buildings":6152,"edits":7023,"latest":"2018-08-31T11:15:01.000Z"},"geometry":{"type":"Point","coordinates":[39.2573050529511,-6.81085336649721]}},{"type":"Feature","properties":{"id":5174,"title":"Mbeya_Mbalizi","status":"PUBLISHED","created":"2018","lastUpdated":"2018","lastActive":"no","area":0.31206553705644136,"changesets":208,"mappers":40,"roads":1.60956563124592,"buildings":951,"edits":970,"latest":"2018-09-07T11:27:13.000Z"},"geometry":{"type":"Point","coordinates":[33.35435503872,-8.94534240301126]}},{"type":"Feature","properties":{"id":5132,"title":"Mbeya","status":"PUBLISHED","created":"2018","lastUpdated":"2018","lastActive":"no","area":32.205542095178586,"changesets":1096,"mappers":149,"roads":10.112548747506,"buildings":22237,"edits":23434,"latest":"2018-09-21T09:26:09.000Z"},"geometry":{"type":"Point","coordinates":[33.4905580602805,-8.88468840419366]}},{"type":"Feature","properties":{"id":5016,"title":"Kariakoo2","status":"PUBLISHED","created":"2018","lastUpdated":"2018","lastActive":"no","area":0.41684912948919983,"changesets":253,"mappers":36,"roads":0.0279580739560328,"buildings":1324,"edits":2341,"latest":"2018-10-03T16:17:27.000Z"},"geometry":{"type":"Point","coordinates":[39.2756281624855,-6.82026480265793]}},{"type":"Feature","properties":{"id":4976,"title":"Ramani Huria and GreenWaste Colaboration","status":"PUBLISHED","created":"2018","lastUpdated":"2018","lastActive":"no","area":0.8606536928715187,"changesets":452,"mappers":12,"roads":0.303793935716114,"buildings":1699,"edits":2153,"latest":"2018-08-09T09:46:52.000Z"},"geometry":{"type":"Point","coordinates":[39.2825405412206,-6.82300659119486]}},{"type":"Feature","properties":{"id":5022,"title":"Mchikichini","status":"PUBLISHED","created":"2018","lastUpdated":"2018","lastActive":"no","area":1.696085516193505,"changesets":668,"mappers":38,"roads":2.21692032106359,"buildings":7214,"edits":8160,"latest":"2018-08-24T13:48:26.000Z"},"geometry":{"type":"Point","coordinates":[39.2653533791413,-6.81925346992819]}},{"type":"Feature","properties":{"id":5154,"title":"Tabata","status":"PUBLISHED","created":"2018","lastUpdated":"2018","lastActive":"no","area":4.474362552715539,"changesets":1339,"mappers":40,"roads":3.34133572011009,"buildings":16310,"edits":18457,"latest":"2018-09-18T12:54:13.000Z"},"geometry":{"type":"Point","coordinates":[39.2250548605046,-6.82841398190697]}},{"type":"Feature","properties":{"id":5028,"title":"Keko","status":"PUBLISHED","created":"2018","lastUpdated":"2018","lastActive":"no","area":1.4649293626540205,"changesets":1033,"mappers":36,"roads":3.96567970367937,"buildings":8564,"edits":10636,"latest":"2018-08-29T12:46:37.000Z"},"geometry":{"type":"Point","coordinates":[39.275538576061,-6.83599209301762]}},{"type":"Feature","properties":{"id":5192,"title":"Mabibo","status":"PUBLISHED","created":"2018","lastUpdated":"2018","lastActive":"no","area":4.059450716198464,"changesets":2230,"mappers":25,"roads":6.02412742139535,"buildings":19921,"edits":24255,"latest":"2018-10-03T07:34:20.000Z"},"geometry":{"type":"Point","coordinates":[39.2256157177568,-6.80974155735172]}},{"type":"Feature","properties":{"id":5149,"title":"Makurumla","status":"PUBLISHED","created":"2018","lastUpdated":"2018","lastActive":"no","area":1.5565034409898066,"changesets":6,"mappers":3,"roads":0.155136909614126,"buildings":44,"edits":51,"latest":"2018-09-27T08:15:11.000Z"},"geometry":{"type":"Point","coordinates":[39.2425747094317,-6.80590884032526]}},{"type":"Feature","properties":{"id":5147,"title":"Buguruni","status":"PUBLISHED","created":"2018","lastUpdated":"2018","lastActive":"no","area":3.4752018850888398,"changesets":1320,"mappers":39,"roads":4.89305254742564,"buildings":15862,"edits":19963,"latest":"2018-09-11T11:11:16.000Z"},"geometry":{"type":"Point","coordinates":[39.2449507288679,-6.83166163112609]}},{"type":"Feature","properties":{"id":5202,"title":"Mbagala","status":"PUBLISHED","created":"2018","lastUpdated":"2018","lastActive":"no","area":3.357497597645662,"changesets":614,"mappers":22,"roads":0.550372073861051,"buildings":3452,"edits":3769,"latest":"2018-10-23T14:01:26.000Z"},"geometry":{"type":"Point","coordinates":[39.2642484046761,-6.89854569609534]}},{"type":"Feature","properties":{"id":4897,"title":"Tanzania Development Trust:  Manyara FGM 4","status":"PUBLISHED","created":"2018","lastUpdated":"2018","lastActive":"no","area":1739.962002417171,"changesets":633,"mappers":143,"roads":213.429020340366,"buildings":3352,"edits":3764,"latest":"2018-11-04T13:31:46.000Z"},"geometry":{"type":"Point","coordinates":[37.0970672438041,-5.2770004737346]}},{"type":"Feature","properties":{"id":4852,"title":"Tanzania Development Trust: Morogoro Community Mapping Project","status":"PUBLISHED","created":"2018","lastUpdated":"2018","lastActive":"no","area":11.997049798456361,"changesets":722,"mappers":115,"roads":112.026515224032,"buildings":14475,"edits":15857,"latest":"2018-11-08T04:50:16.000Z"},"geometry":{"type":"Point","coordinates":[37.6844733023174,-6.81089355032121]}},{"type":"Feature","properties":{"id":4801,"title":"Priority Villages, Ruvuma Region, Tanzania Mini Grids Project","status":"PUBLISHED","created":"2018","lastUpdated":"2018","lastActive":"no","area":491.345226887175,"changesets":662,"mappers":36,"roads":3.61080322618974,"buildings":27808,"edits":27829,"latest":"2018-08-23T09:25:41.000Z"},"geometry":{"type":"Point","coordinates":[35.4477861752995,-10.8248962516213]}}],"totalArea":2401361973.2280188,"Philippines":[{"type":"Feature","properties":{"id":5435,"title":"Mindanao Region, Misamis Oriental (northern), Philippines - Mapping for Food Security","status":"PUBLISHED","created":"2018","lastUpdated":"2018","lastActive":"yes","area":2072.929989519479,"changesets":154,"mappers":26,"roads":45.1703741173288,"buildings":6151,"edits":6385,"latest":"2018-11-14T19:35:18.000Z"},"geometry":{"type":"Point","coordinates":[124.994799793291,8.76680642717642]}},{"type":"Feature","properties":{"id":5459,"title":"Mindanao Region, Bukindon, Philippines - Mapping for Food Security","status":"PUBLISHED","created":"2018","lastUpdated":"2018","lastActive":"yes","area":9159.72862244662,"changesets":11,"mappers":3,"roads":22.234691292018,"buildings":93,"edits":136,"latest":"2018-11-14T21:14:00.000Z"},"geometry":{"type":"Point","coordinates":[124.998487237751,8.02006279209236]}},{"type":"Feature","properties":{"id":5465,"title":"Samar North, Philippines - Mapping for Food Security","status":"PUBLISHED","created":"2018","lastUpdated":"2018","lastActive":"yes","area":3415.086756157814,"changesets":201,"mappers":54,"roads":48.0905655410232,"buildings":5177,"edits":5581,"latest":"2018-11-14T22:49:00.000Z"},"geometry":{"type":"Point","coordinates":[124.789879432047,12.4134374698783]}},{"type":"Feature","properties":{"id":5352,"title":"[demo] local villages, San Juan, NCR","status":"ARCHIVED","created":"2018","lastUpdated":"2018","lastActive":"no","area":5.8122326022660795,"changesets":0,"mappers":0,"roads":0,"buildings":0,"edits":0,"latest":null},"geometry":{"type":"Point","coordinates":[121.036699803478,14.6024727102402]}},{"type":"Feature","properties":{"id":5256,"title":"Post-Disaster Mapping in Brgy. Naalad and Brgy. Tinaan, Naga City, Cebu","status":"ARCHIVED","created":"2018","lastUpdated":"2018","lastActive":"no","area":4.081334180056122,"changesets":81,"mappers":14,"roads":0.541248657808227,"buildings":2559,"edits":2569,"latest":"2018-09-21T20:43:42.000Z"},"geometry":{"type":"Point","coordinates":[123.744010558498,10.2094401920945]}},{"type":"Feature","properties":{"id":5458,"title":"Mindanao Region, Misamis Oriental (southern), Philippines - Food Security","status":"PUBLISHED","created":"2018","lastUpdated":"2018","lastActive":"yes","area":1277.0811871734315,"changesets":5,"mappers":2,"roads":0,"buildings":12,"edits":12,"latest":"2018-11-14T19:38:04.000Z"},"geometry":{"type":"Point","coordinates":[124.513786993793,8.45080046521423]}},{"type":"Feature","properties":{"id":3228,"title":"Barangay Villa Imelda, MacArthur, Leyte - Missing Maps","status":"ARCHIVED","created":"2017","lastUpdated":"2017","lastActive":"no","area":0.34056231149443766,"changesets":25,"mappers":2,"roads":1.2957954780593,"buildings":451,"edits":508,"latest":"2017-07-09T19:29:18.000Z"},"geometry":{"type":"Point","coordinates":[124.972643940364,10.7947134566455]}},{"type":"Feature","properties":{"id":3294,"title":"Barangay Wilson, Mayorga, Leyte - Missing Maps","status":"ARCHIVED","created":"2017","lastUpdated":"2017","lastActive":"no","area":1.4154403844413321,"changesets":34,"mappers":2,"roads":4.9537091799972,"buildings":585,"edits":755,"latest":"2017-07-11T16:39:00.000Z"},"geometry":{"type":"Point","coordinates":[124.968112062972,10.8504871670189]}},{"type":"Feature","properties":{"id":3236,"title":"Barangay Palanog 37A, Tacloban, Leyte - Missing Maps","status":"ARCHIVED","created":"2017","lastUpdated":"2017","lastActive":"no","area":0.1653148006960754,"changesets":64,"mappers":7,"roads":0.402938860436941,"buildings":903,"edits":936,"latest":"2017-07-07T20:41:36.000Z"},"geometry":{"type":"Point","coordinates":[124.953583047297,11.2543792396367]}},{"type":"Feature","properties":{"id":5448,"title":"Palawan Region, El Nido, Philippines - Mapping for Food Security","status":"PUBLISHED","created":"2018","lastUpdated":"2018","lastActive":"yes","area":531.8008952420495,"changesets":33,"mappers":11,"roads":3.08719202195895,"buildings":189,"edits":211,"latest":"2018-11-14T22:49:57.000Z"},"geometry":{"type":"Point","coordinates":[119.456004378106,11.2053832796224]}},{"type":"Feature","properties":{"id":2059,"title":"DOST-Project NOAH (ISAIAH) Structures Map Up Taguig City","status":"PUBLISHED","created":"2016","lastUpdated":"2017","lastActive":"no","area":36.87283084272823,"changesets":4328,"mappers":22,"roads":2.4293822761857,"buildings":85702,"edits":88012,"latest":"2017-01-13T04:08:01.000Z"},"geometry":{"type":"Point","coordinates":[121.060318398119,14.5189720719609]}},{"type":"Feature","properties":{"id":3238,"title":"Barangay Santa Isabel, MacArthur, Leyte - Missing Maps","status":"ARCHIVED","created":"2017","lastUpdated":"2017","lastActive":"no","area":0.3374960636779886,"changesets":18,"mappers":2,"roads":0.0231423896385014,"buildings":516,"edits":532,"latest":"2017-07-10T13:34:40.000Z"},"geometry":{"type":"Point","coordinates":[124.892277712698,10.8308504173485]}},{"type":"Feature","properties":{"id":3303,"title":"Barangay Union, Mayorga, Leyte, Philippines - Missing Maps","status":"ARCHIVED","created":"2017","lastUpdated":"2017","lastActive":"no","area":17.042331597623818,"changesets":195,"mappers":7,"roads":18.6550236728385,"buildings":1661,"edits":2365,"latest":"2017-11-18T18:54:20.000Z"},"geometry":{"type":"Point","coordinates":[124.993170994558,10.8565233231812]}},{"type":"Feature","properties":{"id":804,"title":"Typhoon Ruby (Hagupit) - Masbate Pre Disaster Mapping","status":"ARCHIVED","created":"2014","lastUpdated":"2015","lastActive":"no","area":5810.130346163757,"changesets":0,"mappers":0,"roads":0,"buildings":0,"edits":0,"latest":null},"geometry":{"type":"Point","coordinates":[123.644085687226,12.1710565746417]}},{"type":"Feature","properties":{"id":3240,"title":"Barangay Penalosa, Alang Alang, Leyte, Philippines - Missing Maps","status":"ARCHIVED","created":"2017","lastUpdated":"2017","lastActive":"no","area":0.6747688693036419,"changesets":80,"mappers":10,"roads":6.15107538342412,"buildings":577,"edits":820,"latest":"2017-11-10T18:21:36.000Z"},"geometry":{"type":"Point","coordinates":[124.850142059389,11.1631329700222]}},{"type":"Feature","properties":{"id":5436,"title":"Palawan Region, Philippines - Mapping for Food Security","status":"ARCHIVED","created":"2018","lastUpdated":"2018","lastActive":"no","area":6259.0846636785745,"changesets":7,"mappers":5,"roads":10.3378114534038,"buildings":332,"edits":373,"latest":"2018-11-08T15:53:48.000Z"},"geometry":{"type":"Point","coordinates":[118.604119573544,9.73950098809045]}},{"type":"Feature","properties":{"id":5434,"title":"Panabo, Davao del Norte, Philippines - MapPH","status":"PUBLISHED","created":"2018","lastUpdated":"2018","lastActive":"yes","area":111.37433144550731,"changesets":2868,"mappers":116,"roads":148.844623168767,"buildings":31352,"edits":33050,"latest":"2018-11-14T18:23:55.000Z"},"geometry":{"type":"Point","coordinates":[125.654373572769,7.31201677488237]}},{"type":"Feature","properties":{"id":3234,"title":"Barangay Danao, MacArthur, Leyte, Philippines - Missing Maps","status":"ARCHIVED","created":"2017","lastUpdated":"2017","lastActive":"no","area":0.6515179835806594,"changesets":49,"mappers":2,"roads":3.62472543642404,"buildings":519,"edits":669,"latest":"2017-10-23T21:51:44.000Z"},"geometry":{"type":"Point","coordinates":[124.969031914827,10.8062140537066]}},{"type":"Feature","properties":{"id":3226,"title":"Barangay Astorga, Alang Alang, Leyte, Philippines - Missing Maps","status":"ARCHIVED","created":"2017","lastUpdated":"2017","lastActive":"no","area":1.3096988453597511,"changesets":53,"mappers":10,"roads":11.0684994888335,"buildings":597,"edits":929,"latest":"2017-11-06T13:37:41.000Z"},"geometry":{"type":"Point","coordinates":[124.863932029955,11.1579333099687]}},{"type":"Feature","properties":{"id":3248,"title":"Barangay Hubang, Alang Alang, Leyte, Philippines  - Missing Maps","status":"ARCHIVED","created":"2017","lastUpdated":"2017","lastActive":"no","area":2.762184954485713,"changesets":102,"mappers":13,"roads":12.491424011262,"buildings":1354,"edits":1762,"latest":"2017-10-27T14:33:20.000Z"},"geometry":{"type":"Point","coordinates":[124.843876392546,11.2288843412602]}},{"type":"Feature","properties":{"id":3243,"title":"Barangay San Paglaum 103A, Tacloban, Leyte - Missing Maps","status":"ARCHIVED","created":"2017","lastUpdated":"2017","lastActive":"no","area":0.4057453323088775,"changesets":33,"mappers":5,"roads":4.41897577051849,"buildings":1178,"edits":1357,"latest":"2017-07-09T00:52:58.000Z"},"geometry":{"type":"Point","coordinates":[124.921469189789,11.257719569367]}},{"type":"Feature","properties":{"id":5482,"title":"Samar Western, Philippines - Mapping for Food Security","status":"PUBLISHED","created":"2018","lastUpdated":"2018","lastActive":"yes","area":5475.406235248917,"changesets":36,"mappers":7,"roads":7.63428582937202,"buildings":533,"edits":550,"latest":"2018-11-14T21:38:50.000Z"},"geometry":{"type":"Point","coordinates":[124.94054745821,11.8428113562351]}},{"type":"Feature","properties":{"id":809,"title":"Typhoon Ruby (Hagupit) - North east Mindoro Pre Disaster Mapping","status":"ARCHIVED","created":"2014","lastUpdated":"2014","lastActive":"no","area":1326.8236273706668,"changesets":9,"mappers":5,"roads":17.8401728378916,"buildings":231,"edits":405,"latest":"2015-10-03T16:21:22.000Z"},"geometry":{"type":"Point","coordinates":[121.298232409024,13.2309591428197]}},{"type":"Feature","properties":{"id":2723,"title":"NOAH-UNICEF: Mapping Itogon, Benguet","status":"PUBLISHED","created":"2017","lastUpdated":"2017","lastActive":"no","area":438.98478316533635,"changesets":104,"mappers":3,"roads":63.427448544975,"buildings":11532,"edits":12011,"latest":"2018-11-12T15:54:54.000Z"},"geometry":{"type":"Point","coordinates":[120.707504946132,16.316694576558]}},{"type":"Feature","properties":{"id":4875,"title":"Lake Sebu village mapping exercise - P.M. Session","status":"ARCHIVED","created":"2018","lastUpdated":"2018","lastActive":"no","area":0.32577374851661883,"changesets":105,"mappers":17,"roads":12.6115966598724,"buildings":832,"edits":887,"latest":"2018-09-04T00:32:09.000Z"},"geometry":{"type":"Point","coordinates":[124.716714184942,6.271670922273]}},{"type":"Feature","properties":{"id":4306,"title":"CRS-UP NOAH Building Footprints Mapping - Malabon City (Free for All)","status":"PUBLISHED","created":"2018","lastUpdated":"2018","lastActive":"no","area":0.8869727357098613,"changesets":11,"mappers":2,"roads":0,"buildings":86,"edits":86,"latest":"2018-03-18T13:04:12.000Z"},"geometry":{"type":"Point","coordinates":[120.961255644921,14.6574777075648]}},{"type":"Feature","properties":{"id":133,"title":"Baganga - Typhoon Bopha/Pablo","status":"ARCHIVED","created":"2012","lastUpdated":"2018","lastActive":"no","area":148.7861752355768,"changesets":67,"mappers":11,"roads":133.600912887323,"buildings":12388,"edits":12822,"latest":"2018-10-31T04:52:57.000Z"},"geometry":{"type":"Point","coordinates":[126.545160760843,7.60391729996262]}},{"type":"Feature","properties":{"id":131,"title":"New Bataan - Typhoon Bopha/Pablo","status":"ARCHIVED","created":"2012","lastUpdated":"2018","lastActive":"no","area":106.888571010529,"changesets":719,"mappers":33,"roads":2498.97338320675,"buildings":83340,"edits":93909,"latest":"2018-08-18T10:08:02.000Z"},"geometry":{"type":"Point","coordinates":[126.108576736349,7.55772514395339]}},{"type":"Feature","properties":{"id":4993,"title":"Settlement mapping exercise - Lake Sebu, SCO, PH","status":"ARCHIVED","created":"2018","lastUpdated":"2018","lastActive":"no","area":12.139239685454037,"changesets":267,"mappers":30,"roads":70.6333937889701,"buildings":3978,"edits":4426,"latest":"2018-09-20T04:03:14.000Z"},"geometry":{"type":"Point","coordinates":[124.674894947625,6.24324411286153]}},{"type":"Feature","properties":{"id":387,"title":"Mapping in Taal volcano, Philippines","status":"PUBLISHED","created":"2013","lastUpdated":"2016","lastActive":"no","area":71.85336636220062,"changesets":0,"mappers":0,"roads":0,"buildings":0,"edits":0,"latest":null},"geometry":{"type":"Point","coordinates":[120.99507413733,14.007640175295]}},{"type":"Feature","properties":{"id":4934,"title":"Settlement mapping exercise - Lake Sebu, SCO, PH","status":"ARCHIVED","created":"2018","lastUpdated":"2018","lastActive":"no","area":5.951740845677327,"changesets":135,"mappers":15,"roads":18.7669911239401,"buildings":1228,"edits":1375,"latest":"2018-08-19T16:20:47.000Z"},"geometry":{"type":"Point","coordinates":[124.728218697631,6.34768561053494]}},{"type":"Feature","properties":{"id":4793,"title":"CRS-UP NOAH Building Footprints Mapping - Meycauayan, Bulacan","status":"PUBLISHED","created":"2018","lastUpdated":"2018","lastActive":"no","area":31.969074351640266,"changesets":571,"mappers":62,"roads":18.1002836567397,"buildings":9560,"edits":10821,"latest":"2018-09-28T05:07:19.000Z"},"geometry":{"type":"Point","coordinates":[120.967937667105,14.752384032173]}},{"type":"Feature","properties":{"id":363,"title":"Typhoon Haiyan - Eastern Side of Panay Island ","status":"ARCHIVED","created":"2013","lastUpdated":"2017","lastActive":"no","area":5119.451144114698,"changesets":0,"mappers":0,"roads":0,"buildings":0,"edits":0,"latest":null},"geometry":{"type":"Point","coordinates":[122.82016392368,11.2188614872727]}},{"type":"Feature","properties":{"id":720,"title":"Missing Maps: Leyte, Philippines","status":"ARCHIVED","created":"2014","lastUpdated":"2017","lastActive":"no","area":139.76118137707127,"changesets":0,"mappers":0,"roads":0,"buildings":0,"edits":0,"latest":null},"geometry":{"type":"Point","coordinates":[124.910090097988,10.9815119774559]}},{"type":"Feature","properties":{"id":808,"title":"Typhoon Ruby (Hagupit) - Pre-Disaster Mapping - Borongan","status":"ARCHIVED","created":"2014","lastUpdated":"2015","lastActive":"no","area":259.4089896023906,"changesets":0,"mappers":0,"roads":0,"buildings":0,"edits":0,"latest":null},"geometry":{"type":"Point","coordinates":[125.436158936151,11.6177459138524]}},{"type":"Feature","properties":{"id":810,"title":"Typhoon Ruby (Hagupit) - East Marinduque Island Pre Disaster Mapping","status":"ARCHIVED","created":"2014","lastUpdated":"2014","lastActive":"no","area":852.5424463544282,"changesets":0,"mappers":0,"roads":0,"buildings":0,"edits":0,"latest":null},"geometry":{"type":"Point","coordinates":[122.039360925308,13.3593712640078]}},{"type":"Feature","properties":{"id":5421,"title":"PRC-VCAD project sites","status":"PUBLISHED","created":"2018","lastUpdated":"2018","lastActive":"no","area":1978.0745869605585,"changesets":9,"mappers":2,"roads":23.8884778366055,"buildings":184,"edits":542,"latest":"2018-11-06T15:36:38.000Z"},"geometry":{"type":"Point","coordinates":[122.624235299629,12.3256284958559]}},{"type":"Feature","properties":{"id":1458,"title":"Northern Cebu Risk Mapping Project - Bogo City","status":"ARCHIVED","created":"2016","lastUpdated":"2018","lastActive":"no","area":185.2414334365492,"changesets":579,"mappers":66,"roads":60.0266484741038,"buildings":23617,"edits":26886,"latest":"2017-02-15T08:51:57.000Z"},"geometry":{"type":"Point","coordinates":[123.993777935566,11.0245272303029]}},{"type":"Feature","properties":{"id":5430,"title":"Mindanao, Philippines - Missing Roads Validation","status":"PUBLISHED","created":"2018","lastUpdated":"2018","lastActive":"no","area":58.54300317552073,"changesets":0,"mappers":0,"roads":0,"buildings":0,"edits":0,"latest":null},