{"totalEdits":44287388,"totalBuildings":36860025,"totalRoads":929494.037535735,"mappersOnline":70,"totalTasksMapped":1758075,"totalMappers":151540,"totalProjects":4278,"United States of America":[{"type":"Feature","properties":{"id":3173,"title":"Wainwright (North Slope Mapathon)","status":"PUBLISHED","created":"2017","lastUpdated":"2018","lastActive":"no","area":6.750219628095549,"changesets":54,"mappers":7,"roads":4.30981412359065,"buildings":250,"edits":310,"latest":"2018-09-05T10:31:26.000Z"},"geometry":{"type":"Point","coordinates":[-159.996541027614,70.6472938231576]}},{"type":"Feature","properties":{"id":3542,"title":"Hurricane Irma | 2017 - Western Florida 4 - Fort Myers (Central) and Rocky Bay","status":"ARCHIVED","created":"2017","lastUpdated":"2017","lastActive":"no","area":159.36374384434458,"changesets":0,"mappers":0,"roads":0,"buildings":0,"edits":0,"latest":null},"geometry":{"type":"Point","coordinates":[-81.8527164008892,26.5749115025817]}},{"type":"Feature","properties":{"id":3539,"title":"Hurricane Irma | 2017 - Pine Island, Southwestern Florida (USA)","status":"ARCHIVED","created":"2017","lastUpdated":"2017","lastActive":"no","area":159.22743341199293,"changesets":0,"mappers":0,"roads":0,"buildings":0,"edits":0,"latest":null},"geometry":{"type":"Point","coordinates":[-82.1081020919893,26.6028513342203]}},{"type":"Feature","properties":{"id":3516,"title":"Hurricane Irma | 2017 - Homestead 1 (South), Southeastern Florida (USA)","status":"ARCHIVED","created":"2017","lastUpdated":"2017","lastActive":"no","area":153.60034009987928,"changesets":1561,"mappers":281,"roads":217.525670141804,"buildings":29610,"edits":35281,"latest":"2017-09-16T14:22:03.000Z"},"geometry":{"type":"Point","coordinates":[-80.4815871018597,25.4608534164363]}},{"type":"Feature","properties":{"id":3526,"title":"Hurricane Irma | 2017 - Kendal, Souteastern Florida (USA)","status":"ARCHIVED","created":"2017","lastUpdated":"2017","lastActive":"no","area":208.22038879094126,"changesets":0,"mappers":0,"roads":0,"buildings":0,"edits":0,"latest":null},"geometry":{"type":"Point","coordinates":[-80.3484255676096,25.7291699503787]}},{"type":"Feature","properties":{"id":3170,"title":"Nuiqsut (North Slope Mapathon)","status":"PUBLISHED","created":"2017","lastUpdated":"2018","lastActive":"no","area":5.6592530672380414,"changesets":21,"mappers":3,"roads":0.316626495894549,"buildings":99,"edits":110,"latest":"2018-03-22T05:34:48.000Z"},"geometry":{"type":"Point","coordinates":[-151.00810495825,70.2206940282292]}},{"type":"Feature","properties":{"id":3540,"title":"Hurricane Irma | 2017 - Western Florida 2 - Bonita Springs","status":"ARCHIVED","created":"2017","lastUpdated":"2017","lastActive":"no","area":359.46658862524,"changesets":4093,"mappers":557,"roads":414.98848107014,"buildings":76462,"edits":86299,"latest":"2017-09-17T09:08:45.000Z"},"geometry":{"type":"Point","coordinates":[-81.7667967553374,26.3271386562314]}},{"type":"Feature","properties":{"id":3517,"title":"Hurricane Irma | 2017 - Homestead 2 (North) and Kendal, Souteastern Florida","status":"ARCHIVED","created":"2017","lastUpdated":"2017","lastActive":"no","area":423.6185573810764,"changesets":3448,"mappers":342,"roads":104.014040471883,"buildings":40419,"edits":42851,"latest":"2017-09-17T11:16:28.000Z"},"geometry":{"type":"Point","coordinates":[-80.3979604947987,25.6046292931151]}},{"type":"Feature","properties":{"id":3166,"title":"Atqasuk (North Slope Mapathon)","status":"PUBLISHED","created":"2017","lastUpdated":"2018","lastActive":"no","area":5.203003629080993,"changesets":15,"mappers":4,"roads":1.80054966104201,"buildings":111,"edits":130,"latest":"2018-04-27T14:35:10.000Z"},"geometry":{"type":"Point","coordinates":[-157.425099524301,70.4752618974524]}},{"type":"Feature","properties":{"id":3558,"title":"Hurricane Irma | 2017 - Keys Project 2 - Key West","status":"PUBLISHED","created":"2017","lastUpdated":"2018","lastActive":"no","area":27.00451682458065,"changesets":194,"mappers":25,"roads":8.04874751854674,"buildings":1616,"edits":1841,"latest":"2018-10-26T20:07:00.000Z"},"geometry":{"type":"Point","coordinates":[-81.7653994684301,24.564585928053]}}],"totalArea":2403056197.7414293,"Tajikistan":[{"type":"Feature","properties":{"id":2389,"title":"ARUP - Republic of Tajikistan - Infrastructure Mapping","status":"PUBLISHED","created":"2016","lastUpdated":"2017","lastActive":"no","area":819.9704737825224,"changesets":29,"mappers":5,"roads":20.6312418296776,"buildings":181,"edits":315,"latest":"2017-01-12T08:02:05.000Z"},"geometry":{"type":"Point","coordinates":[69.0464019279355,37.5569909579916]}},{"type":"Feature","properties":{"id":509,"title":"Landslide/Mudflow in Mekhnatabad, Tajikistan","status":"ARCHIVED","created":"2014","lastUpdated":"2014","lastActive":"no","area":6.915290879141178,"changesets":0,"mappers":0,"roads":0,"buildings":0,"edits":0,"latest":null},"geometry":{"type":"Point","coordinates":[68.6224527855903,37.8723089986587]}},{"type":"Feature","properties":{"id":2390,"title":"ARUP - Republic of Tajikistan - New Mappers - Buildings Only Mapping","status":"PUBLISHED","created":"2016","lastUpdated":"2017","lastActive":"no","area":35.83346061485949,"changesets":80,"mappers":20,"roads":2.0753336310704,"buildings":677,"edits":767,"latest":"2018-11-18T11:20:18.000Z"},"geometry":{"type":"Point","coordinates":[68.1762794589744,37.4212981992578]}}],"Burundi":[{"type":"Feature","properties":{"id":4303,"title":"Missing Maps: Mapping waterways and roads in central Burundi (2)","status":"ARCHIVED","created":"2018","lastUpdated":"2018","lastActive":"no","area":916.4277060596885,"changesets":715,"mappers":36,"roads":2853.19679299569,"buildings":762,"edits":11203,"latest":"2018-04-11T13:48:00.000Z"},"geometry":{"type":"Point","coordinates":[29.7823569502621,-3.24306708222962]}},{"type":"Feature","properties":{"id":4299,"title":"Missing Maps: Mapping waterways and roads in central Burundi (1)","status":"ARCHIVED","created":"2018","lastUpdated":"2018","lastActive":"no","area":935.1808639822943,"changesets":1318,"mappers":54,"roads":2786.83819301018,"buildings":1482,"edits":13866,"latest":"2018-03-28T15:13:49.000Z"},"geometry":{"type":"Point","coordinates":[29.7768265131524,-3.74946967402011]}},{"type":"Feature","properties":{"id":187,"title":"Burundi, Muyinga, Gasorwe","status":"ARCHIVED","created":"2013","lastUpdated":"2013","lastActive":"no","area":71.02058491465182,"changesets":1,"mappers":1,"roads":0,"buildings":218,"edits":218,"latest":"2016-05-19T16:30:26.000Z"},"geometry":{"type":"Point","coordinates":[30.2085493760741,-2.86253541939008]}},{"type":"Feature","properties":{"id":213,"title":"EUROSHA: Kinama/Gasorwe Refugee Camp, Muyinga, Burundi","status":"PUBLISHED","created":"2013","lastUpdated":"2018","lastActive":"no","area":1.2524861287922506,"changesets":149,"mappers":15,"roads":45.8591278596511,"buildings":709,"edits":1031,"latest":"2018-08-01T03:46:46.000Z"},"geometry":{"type":"Point","coordinates":[30.2076311669637,-2.88227614240215]}},{"type":"Feature","properties":{"id":189,"title":"Burundi, Ruyigi, Bwagiriza","status":"PUBLISHED","created":"2013","lastUpdated":"2015","lastActive":"no","area":0.08723797881981511,"changesets":492,"mappers":16,"roads":360.816894431892,"buildings":12749,"edits":15233,"latest":"2017-12-11T11:33:45.000Z"},"geometry":{"type":"Point","coordinates":[30.2503361957965,-3.47360909552862]}}],"Uganda":[{"type":"Feature","properties":{"id":5577,"title":"Kiryandongo District Roads Mapping","status":"PUBLISHED","created":"2018","lastUpdated":"2018","lastActive":"yes","area":3647.7812630637227,"changesets":572,"mappers":19,"roads":1527.03848805002,"buildings":11290,"edits":13571,"latest":"2018-12-17T19:38:56.000Z"},"geometry":{"type":"Point","coordinates":[32.041618424462,2.02288277482153]}},{"type":"Feature","properties":{"id":5596,"title":"Lamwo District Roads Mapping","status":"PUBLISHED","created":"2018","lastUpdated":"2018","lastActive":"yes","area":4809.246792498921,"changesets":139,"mappers":6,"roads":348.659966996415,"buildings":5822,"edits":6339,"latest":"2018-12-18T11:10:30.000Z"},"geometry":{"type":"Point","coordinates":[32.757186543365,3.5779333797391]}},{"type":"Feature","properties":{"id":5552,"title":"Adjumani District, Uganda -Refugee Mapping","status":"PUBLISHED","created":"2018","lastUpdated":"2018","lastActive":"no","area":1451.1457567869315,"changesets":1125,"mappers":33,"roads":1.57842855439283,"buildings":48307,"edits":48423,"latest":"2018-11-25T15:57:46.000Z"},"geometry":{"type":"Point","coordinates":[31.906987872274,3.30700822508436]}},{"type":"Feature","properties":{"id":5207,"title":"Ebola 2018, DRC/Ntoroko District Border Mapping","status":"PUBLISHED","created":"2018","lastUpdated":"2018","lastActive":"no","area":1827.2729891423319,"changesets":1555,"mappers":275,"roads":448.284224937414,"buildings":7739,"edits":10042,"latest":"2018-12-18T03:55:18.000Z"},"geometry":{"type":"Point","coordinates":[30.2710121990189,1.08357516305285]}},{"type":"Feature","properties":{"id":3815,"title":"Palorinya Refugee Camp, Moyo District, Uganda","status":"ARCHIVED","created":"2017","lastUpdated":"2018","lastActive":"no","area":48.290477115658256,"changesets":698,"mappers":77,"roads":129.325256236034,"buildings":12886,"edits":14860,"latest":"2017-12-06T18:21:40.000Z"},"geometry":{"type":"Point","coordinates":[31.6830063852259,3.51337385498218]}},{"type":"Feature","properties":{"id":3732,"title":"Saving Mothers Giving Life: Kyenjojo, Uganda","status":"ARCHIVED","created":"2017","lastUpdated":"2018","lastActive":"no","area":2366.1273157793985,"changesets":7902,"mappers":655,"roads":8561.83893691151,"buildings":127814,"edits":251183,"latest":"2018-04-10T01:54:13.000Z"},"geometry":{"type":"Point","coordinates":[30.6620978302436,0.659377083365902]}},{"type":"Feature","properties":{"id":2770,"title":"Palorinya Refugee Camp, Moyo District, Uganda ","status":"ARCHIVED","created":"2017","lastUpdated":"2017","lastActive":"no","area":53.107368138798506,"changesets":703,"mappers":90,"roads":299.253719200193,"buildings":26966,"edits":29048,"latest":"2017-04-12T20:52:03.000Z"},"geometry":{"type":"Point","coordinates":[31.5796627315964,3.42915486471554]}},{"type":"Feature","properties":{"id":3346,"title":"Adjumani District (part 1), Uganda","status":"ARCHIVED","created":"2017","lastUpdated":"2018","lastActive":"no","area":1056.6255168319685,"changesets":1396,"mappers":86,"roads":982.315405454141,"buildings":34122,"edits":42368,"latest":"2017-11-02T12:38:59.000Z"},"geometry":{"type":"Point","coordinates":[31.7001146757727,3.21380682260722]}},{"type":"Feature","properties":{"id":5609,"title":"Sigulu Islands, Namayingo District, Uganda","status":"PUBLISHED","created":"2018","lastUpdated":"2018","lastActive":"no","area":4194.804131916774,"changesets":1,"mappers":1,"roads":0,"buildings":2,"edits":2,"latest":"2018-12-14T23:52:11.000Z"},"geometry":{"type":"Point","coordinates":[33.8022774540449,-0.386263256659969]}},{"type":"Feature","properties":{"id":5524,"title":"Lamwo District, Uganda","status":"ARCHIVED","created":"2018","lastUpdated":"2018","lastActive":"no","area":4809.246792498921,"changesets":33,"mappers":19,"roads":0.223816882549406,"buildings":3847,"edits":3851,"latest":"2018-11-22T09:00:39.000Z"},"geometry":{"type":"Point","coordinates":[32.757186543365,3.5779333797391]}},{"type":"Feature","properties":{"id":5597,"title":"Maracha District, Uganda Refugee Mapping","status":"PUBLISHED","created":"2018","lastUpdated":"2018","lastActive":"yes","area":444.114272588287,"changesets":734,"mappers":13,"roads":95.7404829486062,"buildings":21353,"edits":21495,"latest":"2018-12-18T09:03:06.000Z"},"geometry":{"type":"Point","coordinates":[30.9269259834444,3.23693474825563]}},{"type":"Feature","properties":{"id":5561,"title":"Koboko District, Uganda - Refugee Mapping","status":"PUBLISHED","created":"2018","lastUpdated":"2018","lastActive":"no","area":578.7932983581329,"changesets":766,"mappers":31,"roads":1.29943184575194,"buildings":58646,"edits":58710,"latest":"2018-11-28T04:49:13.000Z"},"geometry":{"type":"Point","coordinates":[30.9989659453894,3.53932560965777]}},{"type":"Feature","properties":{"id":5452,"title":"Busiisi, Bujumbura,Subcounty, Hoima District, Uganda","status":"PUBLISHED","created":"2018","lastUpdated":"2018","lastActive":"no","area":140.36645870963497,"changesets":439,"mappers":25,"roads":0.994103249974874,"buildings":12047,"edits":12129,"latest":"2018-11-26T00:23:30.000Z"},"geometry":{"type":"Point","coordinates":[31.3246638047757,1.43938302679903]}},{"type":"Feature","properties":{"id":5568,"title":"Nakawa Division,Kampala District, Uganda - Refugee Mapping","status":"PUBLISHED","created":"2018","lastUpdated":"2018","lastActive":"no","area":57.11590155571471,"changesets":863,"mappers":26,"roads":4.73653271913863,"buildings":40182,"edits":40482,"latest":"2018-12-13T20:19:08.000Z"},"geometry":{"type":"Point","coordinates":[32.6283803986938,0.33318445589441]}},{"type":"Feature","properties":{"id":5456,"title":"Kyangwali Subcounty, Hoima District, Uganda","status":"PUBLISHED","created":"2018","lastUpdated":"2018","lastActive":"no","area":495.99932479912576,"changesets":435,"mappers":26,"roads":2.18249531944726,"buildings":16135,"edits":16188,"latest":"2018-11-28T12:12:07.000Z"},"geometry":{"type":"Point","coordinates":[30.8450375976689,1.23352105668042]}},{"type":"Feature","properties":{"id":5565,"title":"Lubaga Division,Kampala District, Uganda - Refugee Mapping","status":"PUBLISHED","created":"2018","lastUpdated":"2018","lastActive":"no","area":37.76082581318521,"changesets":1299,"mappers":36,"roads":2.56210523686728,"buildings":49832,"edits":50254,"latest":"2018-12-17T12:34:11.000Z"},"geometry":{"type":"Point","coordinates":[32.5449538892016,0.3082549933315]}},{"type":"Feature","properties":{"id":5454,"title":"Buseruka, Kizirafumbi Subcounty Hoima, Uganda","status":"PUBLISHED","created":"2018","lastUpdated":"2018","lastActive":"no","area":668.2757904201408,"changesets":586,"mappers":30,"roads":5.11922937035868,"buildings":27478,"edits":27531,"latest":"2018-11-20T10:03:35.000Z"},"geometry":{"type":"Point","coordinates":[31.1193703429499,1.44560886297994]}},{"type":"Feature","properties":{"id":5445,"title":"Mparo Division and Buhanika Subcounty, Hoima District, Uganda","status":"PUBLISHED","created":"2018","lastUpdated":"2018","lastActive":"no","area":181.89432975513586,"changesets":574,"mappers":23,"roads":1.64164097195028,"buildings":12852,"edits":12930,"latest":"2018-11-16T13:58:40.000Z"},"geometry":{"type":"Point","coordinates":[31.426515825295,1.3700422947166]}},{"type":"Feature","properties":{"id":5469,"title":"Babakara, Hapuuyo, Kyegegwa Town Council, Kyegegwa District, Uganda","status":"PUBLISHED","created":"2018","lastUpdated":"2018","lastActive":"no","area":713.164590218725,"changesets":675,"mappers":33,"roads":8.83235552469332,"buildings":43839,"edits":44104,"latest":"2018-11-20T14:40:21.000Z"},"geometry":{"type":"Point","coordinates":[31.0059218176027,0.574104523109574]}},{"type":"Feature","properties":{"id":5570,"title":"DRC/Zombo District Uganda Border Mapping - Buildings","status":"PUBLISHED","created":"2018","lastUpdated":"2018","lastActive":"no","area":483.0963199543513,"changesets":1256,"mappers":97,"roads":197.344851391283,"buildings":72503,"edits":73120,"latest":"2018-12-11T12:50:00.000Z"},"geometry":{"type":"Point","coordinates":[30.8502224182556,2.49578886308214]}},{"type":"Feature","properties":{"id":5505,"title":"Kiryandongo District, Uganda","status":"PUBLISHED","created":"2018","lastUpdated":"2018","lastActive":"no","area":2478.332860346222,"changesets":2025,"mappers":68,"roads":23.0145547280738,"buildings":141904,"edits":142015,"latest":"2018-12-05T09:09:33.000Z"},"geometry":{"type":"Point","coordinates":[32.1099919646167,1.96952847861348]}},{"type":"Feature","properties":{"id":5443,"title":"Kitoba and Kyabigamire Subcounty, Hoima District, Uganda","status":"PUBLISHED","created":"2018","lastUpdated":"2018","lastActive":"no","area":515.0246137830939,"changesets":501,"mappers":13,"roads":2.4582039764687,"buildings":40325,"edits":40452,"latest":"2018-11-13T15:14:57.000Z"},"geometry":{"type":"Point","coordinates":[31.426850899203,1.49336723438459]}},{"type":"Feature","properties":{"id":5004,"title":"Uganda Crowdsourcing Non-Camp Refugee Data Baroli Refugee Settlement, Adjumani District","status":"PUBLISHED","created":"2018","lastUpdated":"2018","lastActive":"no","area":1.0795136184381657,"changesets":82,"mappers":10,"roads":0.612074934819944,"buildings":2075,"edits":2087,"latest":"2018-08-22T12:10:15.000Z"},"geometry":{"type":"Point","coordinates":[31.8678608543468,3.29418717287429]}},{"type":"Feature","properties":{"id":5274,"title":"2018 Ebola, Kigorobya Subcounty, Hoima District, Uganda","status":"PUBLISHED","created":"2018","lastUpdated":"2018","lastActive":"no","area":523.5626068607933,"changesets":798,"mappers":61,"roads":118.465264933848,"buildings":41196,"edits":41456,"latest":"2018-11-27T20:55:56.000Z"},"geometry":{"type":"Point","coordinates":[31.2684257295975,1.61960269032494]}},{"type":"Feature","properties":{"id":5209,"title":"Ebola 2018, DRC/Kasese District Border Mapping","status":"PUBLISHED","created":"2018","lastUpdated":"2018","lastActive":"no","area":322.8536752846355,"changesets":670,"mappers":88,"roads":55.4896063560609,"buildings":26532,"edits":27825,"latest":"2018-11-26T05:50:13.000Z"},"geometry":{"type":"Point","coordinates":[29.7365617256048,0.06069365863441]}},{"type":"Feature","properties":{"id":5171,"title":"Ebola 2018, DRC/Kanungu District Border Roads Mapping","status":"PUBLISHED","created":"2018","lastUpdated":"2018","lastActive":"no","area":653.4038399066059,"changesets":404,"mappers":57,"roads":824.602674625516,"buildings":885,"edits":3698,"latest":"2018-12-09T16:59:08.000Z"},"geometry":{"type":"Point","coordinates":[29.638815766461,-0.765965544201528]}},{"type":"Feature","properties":{"id":5069,"title":"Uganda Crowdsourcing Non-Camp Refugee Data Baratuku Refugee Settlement, Adjumani District","status":"PUBLISHED","created":"2018","lastUpdated":"2018","lastActive":"no","area":9.00863186321426,"changesets":18,"mappers":2,"roads":0,"buildings":238,"edits":238,"latest":"2018-08-24T21:17:13.000Z"},"geometry":{"type":"Point","coordinates":[31.895626923864,3.46854635451249]}},{"type":"Feature","properties":{"id":5054,"title":"Uganda Crowdsourcing Non-Camp Refugee Data Uleppi Subcounty, Arua District","status":"ARCHIVED","created":"2018","lastUpdated":"2018","lastActive":"no","area":111.60526811307514,"changesets":157,"mappers":7,"roads":0.199441541099154,"buildings":5831,"edits":5862,"latest":"2018-09-07T01:58:18.000Z"},"geometry":{"type":"Point","coordinates":[31.0672369715303,2.78650774798417]}},{"type":"Feature","properties":{"id":5023,"title":"Uganda Crowdsourcing Non-Camp Refugee Data Ayilo Refugee Settlement Adjumani District","status":"PUBLISHED","created":"2018","lastUpdated":"2018","lastActive":"no","area":8.431347575060217,"changesets":138,"mappers":5,"roads":0.0124358352302912,"buildings":6392,"edits":6402,"latest":"2018-08-24T13:48:14.000Z"},"geometry":{"type":"Point","coordinates":[31.9466760047503,3.27608662441525]}},{"type":"Feature","properties":{"id":4967,"title":"Missing Maps: Bughendera County, Western Sub-Region, Uganda","status":"ARCHIVED","created":"2018","lastUpdated":"2018","lastActive":"no","area":575.7970774248723,"changesets":2200,"mappers":239,"roads":18.7121626103336,"buildings":25622,"edits":25804,"latest":"2018-09-07T19:42:48.000Z"},"geometry":{"type":"Point","coordinates":[30.0725371138497,0.67793010618373]}},{"type":"Feature","properties":{"id":4970,"title":"Clean Streets Kampala","status":"PUBLISHED","created":"2018","lastUpdated":"2018","lastActive":"no","area":1.1349195259435116,"changesets":281,"mappers":33,"roads":2.86296845781359,"buildings":3260,"edits":3404,"latest":"2018-12-04T14:20:19.000Z"},"geometry":{"type":"Point","coordinates":[32.5913183551921,0.351818893458289]}},{"type":"Feature","properties":{"id":5057,"title":"Uganda Crowdsourcing Non-Camp Refugee Data Arivu Subcounty, Arua District","status":"ARCHIVED","created":"2018","lastUpdated":"2018","lastActive":"no","area":144.28092010200572,"changesets":161,"mappers":8,"roads":0.01078135629435,"buildings":2821,"edits":2860,"latest":"2018-09-07T01:44:37.000Z"},"geometry":{"type":"Point","coordinates":[30.9664177907221,2.8359897833636]}},{"type":"Feature","properties":{"id":3835,"title":"Non-Camp Data Koboko District","status":"ARCHIVED","created":"2017","lastUpdated":"2018","lastActive":"no","area":158.284796951813,"changesets":1587,"mappers":207,"roads":125.640744946157,"buildings":26603,"edits":28333,"latest":"2018-02-06T00:38:05.000Z"},"geometry":{"type":"Point","coordinates":[31.0124724674512,3.49004354496691]}},{"type":"Feature","properties":{"id":5019,"title":"Uganda Crowdsourcing Non-Camp Refugee Data Mungula 1 Refugee Settlement Adjumani District","status":"PUBLISHED","created":"2018","lastUpdated":"2018","lastActive":"no","area":1.9878667365284295,"changesets":73,"mappers":5,"roads":0,"buildings":1594,"edits":1594,"latest":"2018-08-23T06:38:50.000Z"},"geometry":{"type":"Point","coordinates":[31.7917565331246,3.19005820627249]}},{"type":"Feature","properties":{"id":5455,"title":"Kabwoya Subcounty, Hoima District, Uganda","status":"PUBLISHED","created":"2018","lastUpdated":"2018","lastActive":"no","area":818.3554056042698,"changesets":484,"mappers":41,"roads":4.09211411212646,"buildings":23049,"edits":23127,"latest":"2018-11-15T11:27:46.000Z"},"geometry":{"type":"Point","coordinates":[31.0186667251115,1.29767269222666]}},{"type":"Feature","properties":{"id":1428,"title":"Missing Maps: Uganda (Lakes George, Edward and the Kazinga Channel) - Urban","status":"ARCHIVED","created":"2016","lastUpdated":"2016","lastActive":"no","area":39.25407577410402,"changesets":67,"mappers":2,"roads":32.730798363527,"buildings":4705,"edits":4859,"latest":"2016-02-09T09:52:05.000Z"},"geometry":{"type":"Point","coordinates":[30.0046043688596,-0.107777662789444]}},{"type":"Feature","properties":{"id":1426,"title":"DELETE","status":"ARCHIVED","created":"2016","lastUpdated":"2016","lastActive":"no","area":39.25407577410402,"changesets":0,"mappers":0,"roads":0,"buildings":0,"edits":0,"latest":null},"geometry":{"type":"Point","coordinates":[30.0046043688596,-0.107777662789444]}},{"type":"Feature","properties":{"id":5457,"title":"Isingiro District, Uganda","status":"PUBLISHED","created":"2018","lastUpdated":"2018","lastActive":"no","area":1081.0285623998413,"changesets":930,"mappers":35,"roads":2.33634857249548,"buildings":47491,"edits":47586,"latest":"2018-11-19T18:06:39.000Z"},"geometry":{"type":"Point","coordinates":[30.7700561160228,-0.777796423006711]}},{"type":"Feature","properties":{"id":4829,"title":"Uganda Crowdsourcing Non-Camp Refugee Data, Oruchinga, Isingiro District","status":"PUBLISHED","created":"2018","lastUpdated":"2018","lastActive":"no","area":362.6687747467698,"changesets":706,"mappers":71,"roads":7.82374290592274,"buildings":29048,"edits":29143,"latest":"2018-08-24T16:30:45.000Z"},"geometry":{"type":"Point","coordinates":[30.6482833665806,-0.957818207888592]}},{"type":"Feature","properties":{"id":3568,"title":"Kisiizi Floods - Western Uganda","status":"ARCHIVED","created":"2017","lastUpdated":"2017","lastActive":"no","area":14.977652814558583,"changesets":298,"mappers":38,"roads":194.531878442258,"buildings":4324,"edits":6521,"latest":"2017-09-23T00:05:30.000Z"},"geometry":{"type":"Point","coordinates":[29.9497663698454,-0.991347806407083]}},{"type":"Feature","properties":{"id":4135,"title":"Salesforce, Uganda Crowd-sourcing Non-Camp Refugee Data (Urban Mapping), Ndeeba, Wankulukuku","status":"PUBLISHED","created":"2018","lastUpdated":"2018","lastActive":"no","area":4.371431618487186,"changesets":1035,"mappers":145,"roads":9.29574392161781,"buildings":10522,"edits":10746,"latest":"2018-11-19T12:53:59.000Z"},"geometry":{"type":"Point","coordinates":[32.5567293812962,0.28494997937009]}},{"type":"Feature","properties":{"id":4140,"title":"Uganda Crowd sourcing Non-Camp Refugee Data , Arua, Ofua Zone Area, Rhino Refugee Settlement","status":"ARCHIVED","created":"2018","lastUpdated":"2018","lastActive":"no","area":123.68500987609691,"changesets":921,"mappers":124,"roads":30.8913147433652,"buildings":8008,"edits":8234,"latest":"2018-03-09T18:11:13.000Z"},"geometry":{"type":"Point","coordinates":[31.2021225377434,3.12878610113241]}},{"type":"Feature","properties":{"id":4966,"title":"Missing Maps: Bwamba County, Western Sub-Region, Uganda","status":"ARCHIVED","created":"2018","lastUpdated":"2018","lastActive":"no","area":281.6584044189153,"changesets":2369,"mappers":301,"roads":17.8228962542698,"buildings":48043,"edits":48289,"latest":"2018-10-18T14:38:50.000Z"},"geometry":{"type":"Point","coordinates":[30.020962205808,0.740122803683257]}},{"type":"Feature","properties":{"id":4360,"title":"Uganda Open Mapping - Ggaaba Parish, Kampala City","status":"PUBLISHED","created":"2018","lastUpdated":"2018","lastActive":"no","area":6.9888601486311845,"changesets":637,"mappers":69,"roads":14.4832036693082,"buildings":5657,"edits":5981,"latest":"2018-04-11T10:44:28.000Z"},"geometry":{"type":"Point","coordinates":[32.6287421135338,0.267123698611461]}},{"type":"Feature","properties":{"id":4295,"title":"Uganda Crowd-sourcing Non-Camp Refugee Data, Rwebisengo, Kahondo, Makondo Villages, Ntoroko District Base Mapping","status":"PUBLISHED","created":"2018","lastUpdated":"2018","lastActive":"no","area":162.10041758428503,"changesets":1300,"mappers":55,"roads":11.5996184576009,"buildings":3571,"edits":3601,"latest":"2018-10-08T13:21:35.000Z"},"geometry":{"type":"Point","coordinates":[30.2903001792257,1.06175437465088]}},{"type":"Feature","properties":{"id":4268,"title":"Uganda Crowdsourcing Non-Camp Refugee Data, Palabek Kal, Lamwo Distrcit","status":"ARCHIVED","created":"2018","lastUpdated":"2018","lastActive":"no","area":84.40290946779128,"changesets":399,"mappers":64,"roads":49.6563847880299,"buildings":6125,"edits":6415,"latest":"2018-03-27T16:26:33.000Z"},"geometry":{"type":"Point","coordinates":[32.5550298024703,3.39955722090626]}},{"type":"Feature","properties":{"id":3374,"title":"Uganda Bureau of Statistics Educational Facilities Buildings and Road Network Mapping","status":"PUBLISHED","created":"2017","lastUpdated":"2018","lastActive":"no","area":243082.79180043133,"changesets":152,"mappers":16,"roads":1047.2510109615,"buildings":3982,"edits":5511,"latest":"2018-11-18T22:28:10.000Z"},"geometry":{"type":"Point","coordinates":[32.3913221758817,1.28071652713602]}},{"type":"Feature","properties":{"id":5175,"title":"Ebola 2018, DRC/ Kanungu District Border Residential Area","status":"PUBLISHED","created":"2018","lastUpdated":"2018","lastActive":"no","area":1014.8539353732183,"changesets":978,"mappers":68,"roads":89.3439494093495,"buildings":2843,"edits":3449,"latest":"2018-09-19T22:56:00.000Z"},"geometry":{"type":"Point","coordinates":[29.6541216793303,-0.706291387880673]}},{"type":"Feature","properties":{"id":5169,"title":"DRC/Kanungu District Border Mapping - Buildings","status":"PUBLISHED","created":"2018","lastUpdated":"2018","lastActive":"no","area":644.1391577244494,"changesets":1097,"mappers":98,"roads":8.77379178771117,"buildings":26586,"edits":26906,"latest":"2018-12-07T11:47:16.000Z"},"geometry":{"type":"Point","coordinates":[29.6410887541837,-0.726509199805097]}},{"type":"Feature","properties":{"id":4132,"title":"Salesforce, Uganda Crowd-sourcing Non-Camp Refugee Data (Urban Mapping), Bakuli, Lubiri, Old Kampala, Kabuusu","status":"ARCHIVED","created":"2018","lastUpdated":"2018","lastActive":"no","area":10.230783549660723,"changesets":755,"mappers":99,"roads":27.1667762988123,"buildings":4245,"edits":4480,"latest":"2018-03-15T11:13:32.000Z"},"geometry":{"type":"Point","coordinates":[32.5624919613758,0.307775373018714]}},{"type":"Feature","properties":{"id":4121,"title":"Uganda Crowd-sourcing Non-Camp Refugee Data, Madi-Okollo,Baito Parish","status":"ARCHIVED","created":"2018","lastUpdated":"2018","lastActive":"no","area":115.57634607861536,"changesets":338,"mappers":40,"roads":129.59810557319,"buildings":2411,"edits":2968,"latest":"2018-03-23T21:21:59.000Z"},"geometry":{"type":"Point","coordinates":[31.2437596327978,2.70017875405747]}},{"type":"Feature","properties":{"id":5055,"title":"Uganda Crowdsourcing Non-Camp Refugee Data Uleppi Subcounty, Arua District","status":"ARCHIVED","created":"2018","lastUpdated":"2018","lastActive":"no","area":111.60526811307514,"changesets":39,"mappers":7,"roads":8.02246545492809,"buildings":195,"edits":232,"latest":"2018-09-04T18:50:36.000Z"},"geometry":{"type":"Point","coordinates":[31.0672369715303,2.78650774798417]}},{"type":"Feature","properties":{"id":3838,"title":"Non-Camp Data Koboko District 2","status":"ARCHIVED","created":"2017","lastUpdated":"2018","lastActive":"no","area":91.33450434634564,"changesets":476,"mappers":52,"roads":278.945845782679,"buildings":5999,"edits":9000,"latest":"2017-12-26T12:30:27.000Z"},"geometry":{"type":"Point","coordinates":[31.0415256600436,3.58168833451747]}},{"type":"Feature","properties":{"id":3850,"title":"Smart Cities Mapping- Kiteezi","status":"ARCHIVED","created":"2017","lastUpdated":"2018","lastActive":"no","area":5.78404342872706,"changesets":344,"mappers":23,"roads":10.8770828869207,"buildings":5001,"edits":5227,"latest":"2018-02-13T14:44:17.000Z"},"geometry":{"type":"Point","coordinates":[32.570530576259,0.416483116088845]}},{"type":"Feature","properties":{"id":839,"title":"Mapping Eastern Uganda","status":"ARCHIVED","created":"2015","lastUpdated":"2015","lastActive":"no","area":38492.808770526186,"changesets":0,"mappers":0,"roads":0,"buildings":0,"edits":0,"latest":null},"geometry":{"type":"Point","coordinates":[33.725713353498,0.986348559412214]}},{"type":"Feature","properties":{"id":1436,"title":"MapUganda - Phase 1: Mbale (Pallisa, Kaliro, Kibuku and Budaka)","status":"PUBLISHED","created":"2016","lastUpdated":"2018","lastActive":"no","area":2884.303189069722,"changesets":1017,"mappers":108,"roads":741.729924921986,"buildings":9969,"edits":14517,"latest":"2018-07-26T00:12:45.000Z"},"geometry":{"type":"Point","coordinates":[33.7084365828725,1.12548842040835]}},{"type":"Feature","properties":{"id":4141,"title":"Uganda Crowd sourcing Non-Camp Refugee Data, Arua, Omugo Imvepi Area","status":"ARCHIVED","created":"2018","lastUpdated":"2018","lastActive":"no","area":163.51668169498143,"changesets":2759,"mappers":187,"roads":137.275119852827,"buildings":14837,"edits":15599,"latest":"2018-05-09T15:55:29.000Z"},"geometry":{"type":"Point","coordinates":[31.1915165073517,3.20976337704671]}},{"type":"Feature","properties":{"id":4120,"title":"Uganda Crowd-sourcing Non-Camp Refugee Data, Madi-Okollo, Ajibu Parish","status":"ARCHIVED","created":"2018","lastUpdated":"2018","lastActive":"no","area":74.10769411316731,"changesets":731,"mappers":90,"roads":578.998482436729,"buildings":5183,"edits":8489,"latest":"2018-03-22T18:40:58.000Z"},"geometry":{"type":"Point","coordinates":[31.1217456222401,2.73635846884362]}},{"type":"Feature","properties":{"id":2269,"title":"PEPFAR Uganda: Kalangala","status":"PUBLISHED","created":"2016","lastUpdated":"2018","lastActive":"no","area":2542.196115017722,"changesets":797,"mappers":59,"roads":966.353386465589,"buildings":18488,"edits":24861,"latest":"2018-05-19T20:12:56.000Z"},"geometry":{"type":"Point","coordinates":[32.3283052070046,-0.415601992455147]}},{"type":"Feature","properties":{"id":1477,"title":"Missing Maps: Uganda (Lakes George, Edward and the Kazinga Channel) - Rural","status":"ARCHIVED","created":"2016","lastUpdated":"2016","lastActive":"no","area":185.6829237552295,"changesets":1119,"mappers":49,"roads":513.733445778957,"buildings":15261,"edits":19383,"latest":"2016-03-29T21:38:30.000Z"},"geometry":{"type":"Point","coordinates":[30.2912262406782,-0.059470487988049]}},{"type":"Feature","properties":{"id":1427,"title":"TO DELETE","status":"ARCHIVED","created":"2016","lastUpdated":"2016","lastActive":"no","area":39.25407577410402,"changesets":0,"mappers":0,"roads":0,"buildings":0,"edits":0,"latest":null},"geometry":{"type":"Point","coordinates":[30.0046043688596,-0.107777662789444]}},{"type":"Feature","properties":{"id":2705,"title":"Zone 1, Bidibidi Refugee Camp, Yumbe Area, Uganda, Camp - WatSan (Step 1)","status":"ARCHIVED","created":"2017","lastUpdated":"2017","lastActive":"no","area":18.636320656970597,"changesets":493,"mappers":55,"roads":98.7220511122454,"buildings":22226,"edits":26632,"latest":"2017-10-20T14:19:47.000Z"},"geometry":{"type":"Point","coordinates":[31.3799516510507,3.47017353871846]}},{"type":"Feature","properties":{"id":3298,"title":"Rhino Extension","status":"ARCHIVED","created":"2017","lastUpdated":"2018","lastActive":"no","area":50.912827212817916,"changesets":468,"mappers":28,"roads":348.115419157621,"buildings":2790,"edits":10201,"latest":"2017-12-25T22:42:22.000Z"},"geometry":{"type":"Point","coordinates":[31.2946813875767,3.19692505997461]}},{"type":"Feature","properties":{"id":2441,"title":"Zone 4, Bidibidi Refugee Camp, Yumbe Area, Uganda, Camp - WatSan","status":"ARCHIVED","created":"2017","lastUpdated":"2017","lastActive":"no","area":14.217041052112378,"changesets":482,"mappers":72,"roads":129.035438472735,"buildings":5830,"edits":7435,"latest":"2017-04-16T17:40:59.000Z"},"geometry":{"type":"Point","coordinates":[31.3048731771696,3.34761489097928]}},{"type":"Feature","properties":{"id":4123,"title":"Uganda Crowd-sourcing Non-Camp Refugee Data, Madi-Okollo,Onyomu Parish","status":"ARCHIVED","created":"2018","lastUpdated":"2018","lastActive":"no","area":121.54325315707095,"changesets":302,"mappers":39,"roads":68.1042178765754,"buildings":2208,"edits":2478,"latest":"2018-03-26T19:23:42.000Z"},"geometry":{"type":"Point","coordinates":[31.2132972595582,2.75840510430834]}},{"type":"Feature","properties":{"id":3169,"title":"Boroli, Olua, Ayilo Refugee Camps Adjumani Area","status":"PUBLISHED","created":"2017","lastUpdated":"2018","lastActive":"no","area":58.972945959980706,"changesets":579,"mappers":52,"roads":532.999212699442,"buildings":5886,"edits":12023,"latest":"2018-01-09T06:11:28.000Z"},"geometry":{"type":"Point","coordinates":[31.9102481840702,3.2930226304181]}},{"type":"Feature","properties":{"id":3193,"title":"Adjumani Town","status":"PUBLISHED","created":"2017","lastUpdated":"2018","lastActive":"no","area":12.19607221223854,"changesets":660,"mappers":41,"roads":139.726730765495,"buildings":12885,"edits":15350,"latest":"2017-09-24T10:56:17.000Z"},"geometry":{"type":"Point","coordinates":[31.7888665446857,3.37512889161942]}},{"type":"Feature","properties":{"id":3301,"title":"Rhino Camp 1 ","status":"ARCHIVED","created":"2017","lastUpdated":"2018","lastActive":"no","area":180.3805453622093,"changesets":1114,"mappers":102,"roads":1049.00708924649,"buildings":17412,"edits":29178,"latest":"2017-12-25T23:25:32.000Z"},"geometry":{"type":"Point","coordinates":[31.3411078795868,3.11009256577626]}},{"type":"Feature","properties":{"id":3587,"title":"Ibanda Floods - Western Uganda","status":"ARCHIVED","created":"2017","lastUpdated":"2018","lastActive":"no","area":20.609120926153867,"changesets":327,"mappers":18,"roads":97.108671006253,"buildings":1666,"edits":2049,"latest":"2017-09-15T18:53:28.000Z"},"geometry":{"type":"Point","coordinates":[29.9850938234277,-1.00300604176077]}},{"type":"Feature","properties":{"id":3205,"title":"PEPFAR Uganda: Rakai","status":"PUBLISHED","created":"2017","lastUpdated":"2018","lastActive":"no","area":1538.4469936367382,"changesets":3397,"mappers":394,"roads":5113.4074063088,"buildings":40524,"edits":91432,"latest":"2018-12-14T08:12:57.000Z"},"geometry":{"type":"Point","coordinates":[31.4558076511786,-0.668168159623924]}},{"type":"Feature","properties":{"id":842,"title":"Mapping Eastern Uganda","status":"ARCHIVED","created":"2015","lastUpdated":"2015","lastActive":"no","area":31803.02063355089,"changesets":651,"mappers":9,"roads":200.597492193757,"buildings":1449,"edits":1538,"latest":"2015-10-18T10:07:04.000Z"},"geometry":{"type":"Point","coordinates":[33.7215750923588,1.19248724980706]}},{"type":"Feature","properties":{"id":2818,"title":"Zone 3, Bidibidi Refugee Camp, Yumbe Area, Uganda, Camp - WatSan (Step 1)","status":"ARCHIVED","created":"2017","lastUpdated":"2017","lastActive":"no","area":18.468752458104692,"changesets":811,"mappers":46,"roads":227.203736482797,"buildings":15056,"edits":18953,"latest":"2017-05-04T20:30:58.000Z"},"geometry":{"type":"Point","coordinates":[31.3564565414602,3.39166842971235]}},{"type":"Feature","properties":{"id":4330,"title":"Salesforce, Uganda Crowd-Sourcing Non-Camp Refugee Data (Urban Mapping) Rubaga Division Part 3 Kampala District","status":"PUBLISHED","created":"2018","lastUpdated":"2018","lastActive":"no","area":13.01779996853652,"changesets":1272,"mappers":120,"roads":16.3060620637681,"buildings":13776,"edits":14085,"latest":"2018-05-18T12:59:22.000Z"},"geometry":{"type":"Point","coordinates":[32.5301241340712,0.286325110387967]}},{"type":"Feature","properties":{"id":2819,"title":"Imvepi Refugee Camp, Maracha District, Uganda","status":"ARCHIVED","created":"2017","lastUpdated":"2017","lastActive":"no","area":32.866788263834295,"changesets":795,"mappers":62,"roads":345.338976163483,"buildings":11157,"edits":14771,"latest":"2017-06-05T15:40:45.000Z"},"geometry":{"type":"Point","coordinates":[31.2762084058748,3.252609303692]}},{"type":"Feature","properties":{"id":4593,"title":"Uganda Crowd-sourcing Non-Camp Refugee Data (Urban Mapping), Hoima Municipality, Hoima District","status":"PUBLISHED","created":"2018","lastUpdated":"2018","lastActive":"no","area":40.21494542121517,"changesets":868,"mappers":157,"roads":17.6444311791784,"buildings":12315,"edits":12544,"latest":"2018-11-05T12:51:46.000Z"},"geometry":{"type":"Point","coordinates":[31.3454547455693,1.43808881418473]}},{"type":"Feature","properties":{"id":5300,"title":"Eastern Division - Kapchorwa Town Council mapping to help end FGM - Uganda","status":"PUBLISHED","created":"2018","lastUpdated":"2018","lastActive":"no","area":2.680962226924354,"changesets":351,"mappers":11,"roads":11.5665538636238,"buildings":1881,"edits":1987,"latest":"2018-10-10T14:09:05.000Z"},"geometry":{"type":"Point","coordinates":[34.4651098338578,1.39633929784753]}},{"type":"Feature","properties":{"id":5193,"title":"Uganda Crowdsourcing Non-Camp Refugee Data Urban Mapping Kisoro Town, Kisoro District","status":"PUBLISHED","created":"2018","lastUpdated":"2018","lastActive":"no","area":31.214552016699503,"changesets":141,"mappers":9,"roads":0.12289320711668,"buildings":12430,"edits":12471,"latest":"2018-11-01T10:15:35.000Z"},"geometry":{"type":"Point","coordinates":[29.6916206568608,-1.2854421210458]}},{"type":"Feature","properties":{"id":5357,"title":"Uganda Open Mapping - Ggaba Parish - OSM Data Clean Up","status":"PUBLISHED","created":"2018","lastUpdated":"2018","lastActive":"no","area":1.0308245186708191,"changesets":424,"mappers":21,"roads":17.4000056964273,"buildings":8648,"edits":10626,"latest":"2018-10-29T11:40:27.000Z"},"geometry":{"type":"Point","coordinates":[32.6334691706018,0.25598348410269]}},{"type":"Feature","properties":{"id":5528,"title":"Lamwo District, Uganda -Refugee Mapping","status":"PUBLISHED","created":"2018","lastUpdated":"2018","lastActive":"yes","area":4809.246792498921,"changesets":511,"mappers":34,"roads":20.8515077141249,"buildings":50616,"edits":50834,"latest":"2018-12-18T10:23:12.000Z"},"geometry":{"type":"Point","coordinates":[32.757186543365,3.5779333797391]}},{"type":"Feature","properties":{"id":3272,"title":"Moyo District ","status":"ARCHIVED","created":"2017","lastUpdated":"2018","lastActive":"no","area":1903.0348366203182,"changesets":661,"mappers":24,"roads":527.82392398249,"buildings":50486,"edits":53654,"latest":"2017-09-26T20:04:26.000Z"},"geometry":{"type":"Point","coordinates":[31.6716404616088,3.53028518984553]}},{"type":"Feature","properties":{"id":4975,"title":"Missing Maps: Ndorwa County (NE part), Southwest Sub-Region, Uganda","status":"ARCHIVED","created":"2018","lastUpdated":"2018","lastActive":"no","area":347.47640850622633,"changesets":5887,"mappers":372,"roads":25.0014438579042,"buildings":81922,"edits":82482,"latest":"2018-09-19T04:22:38.000Z"},"geometry":{"type":"Point","coordinates":[30.0490897178157,-1.18196538029396]}},{"type":"Feature","properties":{"id":5052,"title":"Uganda Crowdsourcing Non-Camp Refugee Data Pawor Subcounty, Arua District","status":"PUBLISHED","created":"2018","lastUpdated":"2018","lastActive":"no","area":133.50000403229305,"changesets":265,"mappers":7,"roads":0.493529238101716,"buildings":6593,"edits":6601,"latest":"2018-08-24T20:57:53.000Z"},"geometry":{"type":"Point","coordinates":[31.3243482905018,2.82022728461498]}},{"type":"Feature","properties":{"id":5056,"title":"Uganda Crowdsourcing Non-Camp Refugee Data Arivu Subcounty, Arua District","status":"PUBLISHED","created":"2018","lastUpdated":"2018","lastActive":"no","area":144.28092010200572,"changesets":142,"mappers":9,"roads":0.129906072175552,"buildings":11055,"edits":11072,"latest":"2018-09-03T12:22:42.000Z"},"geometry":{"type":"Point","coordinates":[30.9664177907221,2.8359897833636]}},{"type":"Feature","properties":{"id":5061,"title":"Uganda Crowdsourcing Non-Camp Refugee Data Aroi Subcounty, Arua District","status":"ARCHIVED","created":"2018","lastUpdated":"2018","lastActive":"no","area":38.37059986525889,"changesets":219,"mappers":31,"roads":0.0293161685079718,"buildings":10888,"edits":10899,"latest":"2018-09-07T18:06:48.000Z"},"geometry":{"type":"Point","coordinates":[30.8842657022088,3.10692251895172]}},{"type":"Feature","properties":{"id":3468,"title":"Ofua Zone in Rhino Camp, Arua, Uganda","status":"ARCHIVED","created":"2017","lastUpdated":"2018","lastActive":"no","area":48.17004918169673,"changesets":377,"mappers":54,"roads":130.286880130197,"buildings":7184,"edits":7913,"latest":"2018-02-07T18:10:31.000Z"},"geometry":{"type":"Point","coordinates":[31.2028260352484,3.14299655737804]}},{"type":"Feature","properties":{"id":5212,"title":"Missing Maps: Kitagwenda County, Western Sub-Region, Uganda","status":"PUBLISHED","created":"2018","lastUpdated":"2018","lastActive":"no","area":720.4273400392675,"changesets":3005,"mappers":160,"roads":7.39176720720533,"buildings":17885,"edits":18104,"latest":"2018-10-22T09:44:10.000Z"},"geometry":{"type":"Point","coordinates":[30.3404283336177,0.014955365673615]}},{"type":"Feature","properties":{"id":4277,"title":"Uganda Crowdsourcing Non-Camp Refugee Data Base Mapping, Kyangwali Area, Hoima, Kagadi District","status":"ARCHIVED","created":"2018","lastUpdated":"2018","lastActive":"no","area":223.49057286073074,"changesets":1366,"mappers":183,"roads":169.046331057569,"buildings":21328,"edits":22458,"latest":"2018-06-26T16:14:34.000Z"},"geometry":{"type":"Point","coordinates":[30.7734076863128,1.16885563007676]}},{"type":"Feature","properties":{"id":5433,"title":"Kiryandongo Refugee Settlement, Kiryandongo District, Uganda","status":"ARCHIVED","created":"2018","lastUpdated":"2018","lastActive":"no","area":42.06565519389318,"changesets":132,"mappers":4,"roads":33.2558222097221,"buildings":4569,"edits":4722,"latest":"2018-11-09T12:42:27.000Z"},"geometry":{"type":"Point","coordinates":[32.1863985683423,1.933473366647]}},{"type":"Feature","properties":{"id":99,"title":"Bwaise Tracing","status":"PUBLISHED","created":"2012","lastUpdated":"2016","lastActive":"no","area":0.8424582471365009,"changesets":342,"mappers":20,"roads":661.319057583078,"buildings":38690,"edits":40153,"latest":"2018-10-10T08:30:38.000Z"},"geometry":{"type":"Point","coordinates":[32.5581694734761,0.350213428461381]}},{"type":"Feature","properties":{"id":4497,"title":"Uganda CrowdSourcing Non-Refugee Data, Isingiro District","status":"PUBLISHED","created":"2018","lastUpdated":"2018","lastActive":"no","area":1029.2287197351604,"changesets":2552,"mappers":270,"roads":344.47992231982,"buildings":25805,"edits":26685,"latest":"2018-05-24T11:09:35.000Z"},"geometry":{"type":"Point","coordinates":[31.0362440296621,-0.8976788335591]}},{"type":"Feature","properties":{"id":4686,"title":"Uganda Crowd-sourcing Non-Camp Refugee Data,Vurra Subcounty, Arua","status":"PUBLISHED","created":"2018","lastUpdated":"2018","lastActive":"no","area":125.97781211607399,"changesets":1525,"mappers":233,"roads":55.6569770481544,"buildings":20045,"edits":20465,"latest":"2018-08-07T06:53:19.000Z"},"geometry":{"type":"Point","coordinates":[30.9024129398521,2.89959541282152]}},{"type":"Feature","properties":{"id":3588,"title":"Ngoma Floods - Western Uganda","status":"ARCHIVED","created":"2017","lastUpdated":"2018","lastActive":"no","area":11.391254678845172,"changesets":168,"mappers":14,"roads":32.908183427561,"buildings":1389,"edits":1717,"latest":"2017-09-16T12:32:46.000Z"},"geometry":{"type":"Point","coordinates":[29.9561221706196,-0.950854072671534]}},{"type":"Feature","properties":{"id":5453,"title":"Bugambe, Buhimba Subcounty, Hoima District, Uganda","status":"PUBLISHED","created":"2018","lastUpdated":"2018","lastActive":"no","area":493.2354347266354,"changesets":516,"mappers":22,"roads":4.4956674239833,"buildings":25929,"edits":25965,"latest":"2018-11-14T09:46:02.000Z"},"geometry":{"type":"Point","coordinates":[31.2677321034713,1.36006193418811]}},{"type":"Feature","properties":{"id":5299,"title":"Kirwoko, Siron  Parishes - Kapchorwa District mapping to help end FGM - Uganda","status":"PUBLISHED","created":"2018","lastUpdated":"2018","lastActive":"no","area":8.630813776064755,"changesets":258,"mappers":15,"roads":47.456731253572,"buildings":1955,"edits":2397,"latest":"2018-11-02T13:08:34.000Z"},"geometry":{"type":"Point","coordinates":[34.4699761423445,1.4195506684342]}},{"type":"Feature","properties":{"id":5210,"title":"Ebola 2018, DRC/Kasese District Border Roads  Mapping","status":"PUBLISHED","created":"2018","lastUpdated":"2018","lastActive":"no","area":370.51964845627447,"changesets":1421,"mappers":272,"roads":1279.09777090163,"buildings":3988,"edits":12169,"latest":"2018-12-11T14:31:27.000Z"},"geometry":{"type":"Point","coordinates":[29.7439454702374,0.045849191372524]}},{"type":"Feature","properties":{"id":5020,"title":"Uganda Crowdsourcing Non-Camp Refugee Data Olua Refugee Settlement Adjumani District","status":"PUBLISHED","created":"2018","lastUpdated":"2018","lastActive":"no","area":1.0733591387640204,"changesets":43,"mappers":3,"roads":0,"buildings":676,"edits":676,"latest":"2018-08-22T13:47:24.000Z"},"geometry":{"type":"Point","coordinates":[31.8917519171841,3.29508397657283]}},{"type":"Feature","properties":{"id":5059,"title":"Uganda Crowdsourcing Non-Camp Refugee Data Adumi Subcounty, Arua District","status":"PUBLISHED","created":"2018","lastUpdated":"2018","lastActive":"no","area":65.22649556163152,"changesets":247,"mappers":8,"roads":0.311206684157506,"buildings":14188,"edits":14238,"latest":"2018-09-03T12:03:36.000Z"},"geometry":{"type":"Point","coordinates":[30.8253293585244,3.03935367078327]}},{"type":"Feature","properties":{"id":4798,"title":"Uganda Crowdsourcing Non-Camp Refugee Data, Rwamwanja Refugee Settlement, Kamwenge District","status":"PUBLISHED","created":"2018","lastUpdated":"2018","lastActive":"no","area":343.59803817321034,"changesets":1718,"mappers":164,"roads":180.094444968631,"buildings":24734,"edits":26622,"latest":"2018-08-19T09:15:33.000Z"},"geometry":{"type":"Point","coordinates":[30.681410042181,0.325864901010008]}},{"type":"Feature","properties":{"id":1437,"title":"MapUganda - Phase 2: Tororo (Butaleja, Namutumba, Bugiri, Namiyango and Busia)","status":"PUBLISHED","created":"2016","lastUpdated":"2018","lastActive":"no","area":5529.26414171349,"changesets":468,"mappers":97,"roads":799.003526632193,"buildings":8014,"edits":12431,"latest":"2018-11-14T22:51:54.000Z"},"geometry":{"type":"Point","coordinates":[33.8839172184962,0.592549617620751]}},{"type":"Feature","properties":{"id":3453,"title":"Arua District Part 1 ","status":"ARCHIVED","created":"2017","lastUpdated":"2017","lastActive":"no","area":529.2306053605045,"changesets":4196,"mappers":182,"roads":4227.26121542801,"buildings":126842,"edits":181444,"latest":"2017-10-14T08:16:51.000Z"},"geometry":{"type":"Point","coordinates":[31.0321807498023,3.12375575162827]}},{"type":"Feature","properties":{"id":4322,"title":"Uganda - Bridges to Prosperity - Bridge AOI Mapping","status":"ARCHIVED","created":"2018","lastUpdated":"2018","lastActive":"no","area":6.405450259715074,"changesets":140,"mappers":11,"roads":52.7012264258264,"buildings":1606,"edits":1975,"latest":"2018-04-09T05:13:11.000Z"},"geometry":{"type":"Point","coordinates":[34.2550829145807,1.11600197899798]}},{"type":"Feature","properties":{"id":4359,"title":"CFYDDI Training","status":"ARCHIVED","created":"2018","lastUpdated":"2018","lastActive":"no","area":27.820896722399368,"changesets":11,"mappers":3,"roads":0,"buildings":14,"edits":14,"latest":"2018-03-24T15:56:59.000Z"},"geometry":{"type":"Point","coordinates":[32.6375174892928,0.482318647545628]}},{"type":"Feature","properties":{"id":4857,"title":"Camp mapping HCR - Kiryandongo - Ouganda","status":"ARCHIVED","created":"2018","lastUpdated":"2018","lastActive":"no","area":1.1402716815376035,"changesets":126,"mappers":22,"roads":29.2359959229702,"buildings":1130,"edits":1407,"latest":"2018-07-16T11:29:31.000Z"},"geometry":{"type":"Point","coordinates":[32.1681779776585,1.94123292266983]}}],"Democratic Republic of the Congo":[{"type":"Feature","properties":{"id":4631,"title":"2018 Ebola #48, Lac Tumba south 1, DRC","status":"ARCHIVED","created":"2018","lastUpdated":"2018","lastActive":"no","area":3.421247831543412,"changesets":270,"mappers":51,"roads":1.00576233326209,"buildings":2410,"edits":2437,"latest":"2018-06-01T03:35:01.000Z"},"geometry":{"type":"Point","coordinates":[17.944906060793,-0.826875903158574]}},{"type":"Feature","properties":{"id":4690,"title":"2018 Ebola #50, road Mbandaka - Bikoro 1, DRC","status":"ARCHIVED","created":"2018","lastUpdated":"2018","lastActive":"no","area":2.904104562850074,"changesets":308,"mappers":53,"roads":1.74626237526988,"buildings":3089,"edits":3114,"latest":"2018-06-07T09:28:41.000Z"},"geometry":{"type":"Point","coordinates":[18.2899421417415,-0.462946111197856]}},{"type":"Feature","properties":{"id":5592,"title":"2018 Ebola Revision Butembo, Nord-Kivu, DRC","status":"ARCHIVED","created":"2018","lastUpdated":"2018","lastActive":"no","area":142.56813615720938,"changesets":5,"mappers":4,"roads":3.91788228651056,"buildings":199,"edits":234,"latest":"2018-12-09T13:23:24.000Z"},"geometry":{"type":"Point","coordinates":[29.2932600567729,0.132453002030353]}},{"type":"Feature","properties":{"id":4600,"title":"2018 Ebola #40, Lokoro, DRC","status":"ARCHIVED","created":"2018","lastUpdated":"2018","lastActive":"no","area":1811.4420156220588,"changesets":110,"mappers":18,"roads":11.6382589941515,"buildings":9,"edits":140,"latest":"2018-05-30T23:31:32.000Z"},"geometry":{"type":"Point","coordinates":[19.1231202546398,-2.02937688669494]}},{"type":"Feature","properties":{"id":4594,"title":"2018 Ebola #36, Kiri, DRC","status":"ARCHIVED","created":"2018","lastUpdated":"2018","lastActive":"no","area":1491.896303277133,"changesets":224,"mappers":32,"roads":20.876668939593,"buildings":817,"edits":1095,"latest":"2018-05-26T21:06:50.000Z"},"geometry":{"type":"Point","coordinates":[18.815575644476,-1.57981435593016]}},{"type":"Feature","properties":{"id":4587,"title":"2018 Ebola #30, North-West of Lake Mai-Ndombe, DRC","status":"ARCHIVED","created":"2018","lastUpdated":"2018","lastActive":"no","area":1790.1436915205766,"changesets":142,"mappers":20,"roads":143.416618123546,"buildings":422,"edits":749,"latest":"2018-05-25T14:48:46.000Z"},"geometry":{"type":"Point","coordinates":[18.0642466460537,-1.43046680835656]}},{"type":"Feature","properties":{"id":4598,"title":"2018 Ebola #38, North East Kiri, DRC","status":"ARCHIVED","created":"2018","lastUpdated":"2018","lastActive":"no","area":1283.2519077000459,"changesets":165,"mappers":25,"roads":249.232658050597,"buildings":794,"edits":1157,"latest":"2018-05-30T15:28:59.000Z"},"geometry":{"type":"Point","coordinates":[19.195746304154,-1.21794730344669]}},{"type":"Feature","properties":{"id":4502,"title":"2018 Ebola, Bikoro, DRC","status":"ARCHIVED","created":"2018","lastUpdated":"2018","lastActive":"no","area":5.241563102794842,"changesets":112,"mappers":30,"roads":48.3719639312052,"buildings":2292,"edits":2654,"latest":"2018-05-18T13:39:35.000Z"},"geometry":{"type":"Point","coordinates":[18.1300332467447,-0.73549194582927]}},{"type":"Feature","properties":{"id":4581,"title":"2018 Ebola #28, North of Lake Mai-Ndombe, DRC","status":"ARCHIVED","created":"2018","lastUpdated":"2018","lastActive":"no","area":1790.5828286605806,"changesets":182,"mappers":60,"roads":84.3476608453994,"buildings":561,"edits":795,"latest":"2018-05-25T11:14:51.000Z"},"geometry":{"type":"Point","coordinates":[18.4157526431121,-1.43131260916133]}},{"type":"Feature","properties":{"id":4565,"title":"2018 Ebola #22, North of Mampoko, DRC","status":"ARCHIVED","created":"2018","lastUpdated":"2018","lastActive":"no","area":2523.4962851992523,"changesets":341,"mappers":58,"roads":27.523744240196,"buildings":1110,"edits":1351,"latest":"2018-05-24T14:01:31.000Z"},"geometry":{"type":"Point","coordinates":[18.7590983487615,1.06215397641751]}},{"type":"Feature","properties":{"id":4591,"title":"2018 Ebola #34, Inongo, DRC","status":"ARCHIVED","created":"2018","lastUpdated":"2018","lastActive":"no","area":1786.9351967145803,"changesets":267,"mappers":54,"roads":250.021479974604,"buildings":1238,"edits":1928,"latest":"2018-05-28T18:18:21.000Z"},"geometry":{"type":"Point","coordinates":[18.4438176099286,-1.94603531516757]}},{"type":"Feature","properties":{"id":4505,"title":"2018 Ebola, Lukanga - Mpangi area, DRC","status":"ARCHIVED","created":"2018","lastUpdated":"2018","lastActive":"no","area":1584.9953765025734,"changesets":319,"mappers":38,"roads":225.46894714731,"buildings":657,"edits":979,"latest":"2018-05-11T14:03:04.000Z"},"geometry":{"type":"Point","coordinates":[18.3376275929732,-0.988373976365813]}},{"type":"Feature","properties":{"id":5307,"title":"DRC/Bundibugyo District Border Mapping","status":"PUBLISHED","created":"2018","lastUpdated":"2018","lastActive":"no","area":334.59591531698646,"changesets":653,"mappers":89,"roads":919.297436900022,"buildings":4540,"edits":8553,"latest":"2018-12-16T18:45:26.000Z"},"geometry":{"type":"Point","coordinates":[29.9023571310443,0.650051053822993]}},{"type":"Feature","properties":{"id":4552,"title":"2018 Ebola #14, Ruki river to Ingende, DRC","status":"ARCHIVED","created":"2018","lastUpdated":"2018","lastActive":"no","area":1750.6684174589489,"changesets":177,"mappers":24,"roads":139.21483542089,"buildings":1870,"edits":2131,"latest":"2018-05-20T16:25:55.000Z"},"geometry":{"type":"Point","coordinates":[18.6918488065037,-0.167204266941964]}},{"type":"Feature","properties":{"id":4554,"title":"2018 Ebola #16, East of Ingende, DRC","status":"ARCHIVED","created":"2018","lastUpdated":"2018","lastActive":"no","area":1134.0328311752671,"changesets":131,"mappers":22,"roads":154.316473840062,"buildings":986,"edits":1247,"latest":"2018-05-25T05:08:33.000Z"},"geometry":{"type":"Point","coordinates":[19.0763837731612,-0.308677159822863]}},{"type":"Feature","properties":{"id":4755,"title":"2018 Ebola #54, South west of Ingende, DRC","status":"ARCHIVED","created":"2018","lastUpdated":"2018","lastActive":"no","area":5.001448446383952,"changesets":153,"mappers":35,"roads":8.6624487197095,"buildings":1193,"edits":1236,"latest":"2018-06-15T14:00:58.000Z"},"geometry":{"type":"Point","coordinates":[18.7705122947346,-0.413055560240571]}},{"type":"Feature","properties":{"id":4608,"title":"2018 Ebola #42, around Iboko, DRC","status":"ARCHIVED","created":"2018","lastUpdated":"2018","lastActive":"no","area":8.46464006943003,"changesets":523,"mappers":67,"roads":8.41276105593732,"buildings":12150,"edits":12333,"latest":"2018-05-31T15:49:44.000Z"},"geometry":{"type":"Point","coordinates":[18.5726655021791,-1.05884914759738]}},{"type":"Feature","properties":{"id":4523,"title":"Ebola #6 2018, Mbandaka (NO de Av. Revolution), RDC","status":"ARCHIVED","created":"2018","lastUpdated":"2018","lastActive":"no","area":8.703722637020713,"changesets":983,"mappers":70,"roads":59.2473575070839,"buildings":15949,"edits":16303,"latest":"2018-05-16T23:16:14.000Z"},"geometry":{"type":"Point","coordinates":[18.2547794540417,0.048372248656735]}},{"type":"Feature","properties":{"id":4589,"title":"2018 Ebola #32, South East of Lukolela, DRC","status":"ARCHIVED","created":"2018","lastUpdated":"2018","lastActive":"no","area":2013.6766261336995,"changesets":147,"mappers":30,"roads":30.5295281337406,"buildings":391,"edits":502,"latest":"2018-05-26T10:54:44.000Z"},"geometry":{"type":"Point","coordinates":[17.3327174947974,-1.43249211776356]}},{"type":"Feature","properties":{"id":4629,"title":"2018 Ebola #46, west of Kiri, DRC","status":"ARCHIVED","created":"2018","lastUpdated":"2018","lastActive":"no","area":11.260378892701459,"changesets":339,"mappers":47,"roads":8.91969579441993,"buildings":5296,"edits":5371,"latest":"2018-06-07T08:02:44.000Z"},"geometry":{"type":"Point","coordinates":[18.5380972044585,-1.43500248166916]}},{"type":"Feature","properties":{"id":4561,"title":"2018 Ebola #20, North of Mbandaka, DRC","status":"ARCHIVED","created":"2018","lastUpdated":"2018","lastActive":"no","area":1444.823543377266,"changesets":250,"mappers":35,"roads":44.1763446725115,"buildings":2255,"edits":2516,"latest":"2018-05-22T13:24:52.000Z"},"geometry":{"type":"Point","coordinates":[18.386118626577,0.323834089601862]}},{"type":"Feature","properties":{"id":5585,"title":"2018 Ebola Bulembo, Nord-Kivu, DRC","status":"ARCHIVED","created":"2018","lastUpdated":"2018","lastActive":"no","area":238.76445677946168,"changesets":795,"mappers":72,"roads":348.703534056498,"buildings":18512,"edits":20525,"latest":"2018-12-10T19:32:18.000Z"},"geometry":{"type":"Point","coordinates":[29.426511837835,0.195477101443886]}},{"type":"Feature","properties":{"id":4575,"title":"2018 Ebola #26, East of Itipo, DRC","status":"ARCHIVED","created":"2018","lastUpdated":"2018","lastActive":"no","area":3.570335237938049,"changesets":296,"mappers":47,"roads":74.5426339824222,"buildings":4031,"edits":4082,"latest":"2018-05-24T03:14:43.000Z"},"geometry":{"type":"Point","coordinates":[18.6799148931041,-0.849378204803166]}},{"type":"Feature","properties":{"id":4567,"title":"2018 Ebola #24, Makanza, DRC","status":"ARCHIVED","created":"2018","lastUpdated":"2018","lastActive":"no","area":1696.9493444553755,"changesets":380,"mappers":63,"roads":30.5127793559269,"buildings":1124,"edits":1620,"latest":"2018-05-24T20:49:22.000Z"},"geometry":{"type":"Point","coordinates":[19.0909235714459,1.61806216248831]}},{"type":"Feature","properties":{"id":4559,"title":"2018 Ebola #18, North of Ruki, DRC","status":"ARCHIVED","created":"2018","lastUpdated":"2018","lastActive":"no","area":1387.9700889591134,"changesets":196,"mappers":36,"roads":245.553454388241,"buildings":1116,"edits":1418,"latest":"2018-05-23T20:19:04.000Z"},"geometry":{"type":"Point","coordinates":[18.9670145804051,0.035803923133312]}},{"type":"Feature","properties":{"id":4550,"title":"2018 Ebola #12, South of Ingende, DRC","status":"ARCHIVED","created":"2018","lastUpdated":"2018","lastActive":"no","area":1463.595825961868,"changesets":157,"mappers":29,"roads":85.4011627306656,"buildings":1954,"edits":2135,"latest":"2018-05-19T09:30:56.000Z"},"geometry":{"type":"Point","coordinates":[18.7677302882419,-0.459362708279654]}},{"type":"Feature","properties":{"id":4626,"title":"2018 Ebola #44, east of Iboko, DRC","status":"ARCHIVED","created":"2018","lastUpdated":"2018","lastActive":"no","area":8.746543897145571,"changesets":443,"mappers":58,"roads":56.4906910640961,"buildings":14475,"edits":14663,"latest":"2018-05-31T17:03:51.000Z"},"geometry":{"type":"Point","coordinates":[19.0778325910921,-0.944688082095729]}},{"type":"Feature","properties":{"id":4953,"title":"2018 Ebola, West of Beni, Nord-Kivu, DRC","status":"ARCHIVED","created":"2018","lastUpdated":"2018","lastActive":"no","area":210.17940985095694,"changesets":846,"mappers":91,"roads":311.375768491126,"buildings":18669,"edits":19772,"latest":"2018-08-12T17:51:34.000Z"},"geometry":{"type":"Point","coordinates":[29.3368765464649,0.523409977552767]}},{"type":"Feature","properties":{"id":4543,"title":"2018 Ebola #10, Irebu, DRC","status":"ARCHIVED","created":"2018","lastUpdated":"2018","lastActive":"no","area":93.75149139241934,"changesets":185,"mappers":29,"roads":20.228517976925,"buildings":2033,"edits":2125,"latest":"2018-05-18T06:30:55.000Z"},"geometry":{"type":"Point","coordinates":[17.7985190306168,-0.60658220043042]}},{"type":"Feature","properties":{"id":5180,"title":"2018 Ebola, South of Beni, Nord-Kivu, DRC","status":"ARCHIVED","created":"2018","lastUpdated":"2018","lastActive":"no","area":192.118936407539,"changesets":702,"mappers":81,"roads":307.095321516918,"buildings":15876,"edits":17384,"latest":"2018-09-15T12:38:09.000Z"},"geometry":{"type":"Point","coordinates":[29.4194734211863,0.409250170256753]}},{"type":"Feature","properties":{"id":4764,"title":"Matete - Kisenso (DRR-Erosion)","status":"ARCHIVED","created":"2018","lastUpdated":"2018","lastActive":"no","area":5.970040735252853,"changesets":1,"mappers":1,"roads":0,"buildings":38,"edits":38,"latest":"2018-06-29T07:35:46.000Z"},"geometry":{"type":"Point","coordinates":[15.3390780353555,-4.39470702165279]}},{"type":"Feature","properties":{"id":4525,"title":"2018 Ebola #8, Mbandaka (E Av. Revolution), DRC","status":"ARCHIVED","created":"2018","lastUpdated":"2018","lastActive":"no","area":11.214682390257893,"changesets":701,"mappers":82,"roads":26.8790814005482,"buildings":13967,"edits":14312,"latest":"2018-05-17T14:38:01.000Z"},"geometry":{"type":"Point","coordinates":[18.2789789858524,0.04126200032361]}},{"type":"Feature","properties":{"id":4718,"title":"2018 Ebola #52, around Ngengobala, DRC","status":"ARCHIVED","created":"2018","lastUpdated":"2018","lastActive":"no","area":1.6484944766762328,"changesets":91,"mappers":12,"roads":2.45273254781479,"buildings":568,"edits":590,"latest":"2018-06-11T18:16:04.000Z"},"geometry":{"type":"Point","coordinates":[18.5567058952405,-0.533860795497544]}},{"type":"Feature","properties":{"id":5260,"title":"2018 Ebola, South of Lubero, Nord-Kivu, DRC","status":"PUBLISHED","created":"2018","lastUpdated":"2018","lastActive":"yes","area":237.25761177080247,"changesets":1636,"mappers":162,"roads":636.009715899143,"buildings":16774,"edits":20083,"latest":"2018-12-18T03:43:04.000Z"},"geometry":{"type":"Point","coordinates":[29.2052350383231,-0.251116931803326]}},{"type":"Feature","properties":{"id":5226,"title":"Ebola 2018, Malambo, Nord-Kivu, DRC","status":"PUBLISHED","created":"2018","lastUpdated":"2018","lastActive":"no","area":218.12211516437594,"changesets":970,"mappers":132,"roads":381.111950926756,"buildings":18057,"edits":20348,"latest":"2018-12-16T15:19:00.000Z"},"geometry":{"type":"Point","coordinates":[29.7159930285264,0.332677334702665]}},{"type":"Feature","properties":{"id":4783,"title":"2018 Ebola #57, Along the Congo river 1, DRC","status":"ARCHIVED","created":"2018","lastUpdated":"2018","lastActive":"no","area":3.4976027502999556,"changesets":371,"mappers":34,"roads":1.54299518907741,"buildings":3567,"edits":3598,"latest":"2018-07-15T12:15:06.000Z"},"geometry":{"type":"Point","coordinates":[17.9245281927784,-0.332350366129487]}},{"type":"Feature","properties":{"id":2533,"title":"Along Lusenda - Baraka road, Sud-Kivu, DRC","status":"ARCHIVED","created":"2017","lastUpdated":"2017","lastActive":"no","area":14.769048885300412,"changesets":280,"mappers":46,"roads":134.194118917624,"buildings":5045,"edits":6641,"latest":"2017-02-25T02:08:28.000Z"},"geometry":{"type":"Point","coordinates":[29.0986179217268,-3.95888715371722]}},{"type":"Feature","properties":{"id":2048,"title":"Missing Maps: Biyela, Kinshasa, Democratic Republic of Congo (Buildings only) part 2","status":"ARCHIVED","created":"2016","lastUpdated":"2016","lastActive":"no","area":15.868920924789501,"changesets":767,"mappers":57,"roads":51.6403133890498,"buildings":6282,"edits":8022,"latest":"2016-08-06T23:10:56.000Z"},"geometry":{"type":"Point","coordinates":[15.4062925583787,-4.46294235822371]}},{"type":"Feature","properties":{"id":2046,"title":"Missing Maps: Kikimi, Kinshasa, Democratic Republic of Congo (Road networks and residential areas) part 2","status":"ARCHIVED","created":"2016","lastUpdated":"2016","lastActive":"no","area":23.242974161843787,"changesets":99,"mappers":29,"roads":116.806072986761,"buildings":491,"edits":1541,"latest":"2016-08-06T14:04:41.000Z"},"geometry":{"type":"Point","coordinates":[15.4652259503211,-4.48042299048789]}},{"type":"Feature","properties":{"id":2256,"title":"Missing Maps: Masisi territory, North Kivu, DRC (roads part 5)","status":"ARCHIVED","created":"2016","lastUpdated":"2016","lastActive":"no","area":575.3763817680577,"changesets":1412,"mappers":183,"roads":1314.77922154115,"buildings":1643,"edits":14085,"latest":"2016-12-25T18:49:32.000Z"},"geometry":{"type":"Point","coordinates":[28.8617502465128,-1.65607301257042]}},{"type":"Feature","properties":{"id":2041,"title":"Missing Maps: Kingasani, Kinshasa, Democratic Republic of Congo (Buildings only)","status":"ARCHIVED","created":"2016","lastUpdated":"2017","lastActive":"no","area":9.410107415401853,"changesets":3031,"mappers":204,"roads":58.56491002768,"buildings":40553,"edits":43954,"latest":"2016-10-20T21:12:02.000Z"},"geometry":{"type":"Point","coordinates":[15.4065925172623,-4.41326390766066]}},{"type":"Feature","properties":{"id":5160,"title":"2018 Ebola, North-West of Beni, Nord-Kivu, DRC","status":"ARCHIVED","created":"2018","lastUpdated":"2018","lastActive":"no","area":211.1809692726596,"changesets":178,"mappers":35,"roads":57.1272132871228,"buildings":879,"edits":1222,"latest":"2018-09-06T14:56:26.000Z"},"geometry":{"type":"Point","coordinates":[29.3062631770409,0.631593962576439]}},{"type":"Feature","properties":{"id":5265,"title":"Ebola 2018, Kasenyi, Ituri, DRC","status":"ARCHIVED","created":"2018","lastUpdated":"2018","lastActive":"no","area":101.90828555411727,"changesets":570,"mappers":38,"roads":813.124409427895,"buildings":14727,"edits":17271,"latest":"2018-10-10T05:39:04.000Z"},"geometry":{"type":"Point","coordinates":[30.48860092733,1.497277568076]}},{"type":"Feature","properties":{"id":4952,"title":"Electrification project, North of Likasi, DRC","status":"PUBLISHED","created":"2018","lastUpdated":"2018","lastActive":"no","area":14.409397230762899,"changesets":115,"mappers":58,"roads":6.88633291323825,"buildings":1876,"edits":1934,"latest":"2018-11-06T18:54:45.000Z"},"geometry":{"type":"Point","coordinates":[26.8083802973376,-10.6770837057262]}},{"type":"Feature","properties":{"id":4790,"title":"Missing Maps: Ngalula & Makungu in South Kivu, Democratic Republic of Congo (Project 34)","status":"ARCHIVED","created":"2018","lastUpdated":"2018","lastActive":"no","area":2.065613747670676,"changesets":98,"mappers":8,"roads":50.0181359850683,"buildings":2069,"edits":2205,"latest":"2018-07-15T22:04:40.000Z"},"geometry":{"type":"Point","coordinates":[28.8201592038596,-4.9696115189931]}},{"type":"Feature","properties":{"id":1580,"title":"Missing Maps: Kiambi, Katanga Province, Democratic Republic of Congo (DRC)","status":"ARCHIVED","created":"2016","lastUpdated":"2016","lastActive":"no","area":3.9728281045197775,"changesets":194,"mappers":14,"roads":107.290108529372,"buildings":1670,"edits":2284,"latest":"2016-03-03T08:18:40.000Z"},"geometry":{"type":"Point","coordinates":[28.0116422773706,-7.3249456565712]}},{"type":"Feature","properties":{"id":4064,"title":"Missing Maps: South Kivu, Democratic Republic of Congo (Project 29: health facilities)","status":"ARCHIVED","created":"2018","lastUpdated":"2018","lastActive":"no","area":1076.2855731489042,"changesets":62,"mappers":2,"roads":2.96145175135685,"buildings":310,"edits":645,"latest":"2018-02-08T11:18:23.000Z"},"geometry":{"type":"Point","coordinates":[29.0239485884282,-4.30420426948689]}},{"type":"Feature","properties":{"id":1490,"title":"Missing Maps: Manono, Katanga Province, Democratic Republic of Congo (DRC)","status":"PUBLISHED","created":"2016","lastUpdated":"2018","lastActive":"no","area":75.464135432213,"changesets":1581,"mappers":132,"roads":147.110880698028,"buildings":11428,"edits":15160,"latest":"2016-04-21T15:28:07.000Z"},"geometry":{"type":"Point","coordinates":[27.4162904806386,-7.2958299588948]}},{"type":"Feature","properties":{"id":1460,"title":"Missing Maps: Likasi, Katanga Province, Democratic Republic of Congo (DRC)","status":"ARCHIVED","created":"2016","lastUpdated":"2016","lastActive":"no","area":99.60773293185213,"changesets":4109,"mappers":213,"roads":1475.09129765061,"buildings":62651,"edits":92737,"latest":"2016-04-06T06:46:44.000Z"},"geometry":{"type":"Point","coordinates":[26.743390875574,-10.9898922200204]}},{"type":"Feature","properties":{"id":1478,"title":"Missing Maps: Map South Kivu, Democratic Republic of Congo (Project 17: Roads and residential areas)","status":"ARCHIVED","created":"2016","lastUpdated":"2016","lastActive":"no","area":1057.157033484748,"changesets":1370,"mappers":84,"roads":1889.38148685209,"buildings":2740,"edits":18354,"latest":"2016-04-19T19:38:44.000Z"},"geometry":{"type":"Point","coordinates":[28.811402197816,-3.53464097283308]}},{"type":"Feature","properties":{"id":1472,"title":"Missing Maps: Pweto, Katanga Province, Democratic Republic of Congo (DRC)","status":"ARCHIVED","created":"2016","lastUpdated":"2016","lastActive":"no","area":42.272187503530986,"changesets":1260,"mappers":50,"roads":503.360052042313,"buildings":14644,"edits":31647,"latest":"2016-03-19T12:16:13.000Z"},"geometry":{"type":"Point","coordinates":[28.9253574836638,-8.45973424601834]}},{"type":"Feature","properties":{"id":1432,"title":"Missing Maps: DRC, Digitising Katanga field maps","status":"PUBLISHED","created":"2016","lastUpdated":"2018","lastActive":"no","area":21608.383386716705,"changesets":793,"mappers":67,"roads":3453.39399253254,"buildings":1559,"edits":10317,"latest":"2018-09-20T14:51:47.000Z"},"geometry":{"type":"Point","coordinates":[26.2054412138014,-7.61799671156407]}},{"type":"Feature","properties":{"id":1248,"title":"Missing Maps: Map South Kivu, Democratic Republic of Congo (Task 9: Roads and residential areas )","status":"ARCHIVED","created":"2015","lastUpdated":"2016","lastActive":"no","area":908.7161892990985,"changesets":204,"mappers":19,"roads":523.693586677618,"buildings":835,"edits":3525,"latest":"2016-07-14T09:12:11.000Z"},"geometry":{"type":"Point","coordinates":[29.0172187095793,-4.10776798969038]}},{"type":"Feature","properties":{"id":1251,"title":"Missing Maps: Map South Kivu, Democratic Republic of Congo (Task 11: Roads and residential areas )","status":"ARCHIVED","created":"2015","lastUpdated":"2017","lastActive":"no","area":496.70077096194547,"changesets":401,"mappers":54,"roads":369.454340890693,"buildings":1502,"edits":4049,"latest":"2016-07-25T16:05:19.000Z"},"geometry":{"type":"Point","coordinates":[28.9084142513084,-4.38111530526132]}},{"type":"Feature","properties":{"id":1222,"title":"Nyabibwe, South Kivu, DRC","status":"PUBLISHED","created":"2015","lastUpdated":"2016","lastActive":"no","area":24.91046008499545,"changesets":352,"mappers":35,"roads":25.7303640620083,"buildings":2623,"edits":2972,"latest":"2015-11-15T13:31:03.000Z"},"geometry":{"type":"Point","coordinates":[28.9399090672055,-1.92934329742974]}},{"type":"Feature","properties":{"id":1350,"title":"Missing Maps: Map South Kivu, Democratic Republic of Congo  (Task 16: Roads and residential areas )","status":"ARCHIVED","created":"2015","lastUpdated":"2016","lastActive":"no","area":478.9194642913641,"changesets":851,"mappers":80,"roads":806.933696096181,"buildings":1608,"edits":8829,"latest":"2016-02-10T00:55:14.000Z"},"geometry":{"type":"Point","coordinates":[28.9842101821943,-3.25068782337804]}},{"type":"Feature","properties":{"id":1163,"title":"Missing Maps: Map South Kivu, Democratic Republic of Congo  (Task 7: Roads and residential areas )","status":"ARCHIVED","created":"2015","lastUpdated":"2018","lastActive":"no","area":3688.857972894839,"changesets":358,"mappers":28,"roads":1688.75304657213,"buildings":529,"edits":5025,"latest":"2016-02-06T14:24:36.000Z"},"geometry":{"type":"Point","coordinates":[28.253053423009,-4.03592645365248]}},{"type":"Feature","properties":{"id":1349,"title":"Missing Maps: Lubumbashi (north-east), Democratic Republic of Congo (DRC)","status":"ARCHIVED","created":"2015","lastUpdated":"2015","lastActive":"no","area":19.958570477891072,"changesets":496,"mappers":30,"roads":176.281088766763,"buildings":8137,"edits":12164,"latest":"2015-12-05T20:43:00.000Z"},"geometry":{"type":"Point","coordinates":[27.51667953628,-11.5687821707176]}},{"type":"Feature","properties":{"id":4472,"title":"Missing Maps: Sleeping Sickness in Maniema DR Congo - Samba","status":"PUBLISHED","created":"2018","lastUpdated":"2018","lastActive":"no","area":7333.222635221938,"changesets":515,"mappers":89,"roads":815.107037520284,"buildings":3598,"edits":4986,"latest":"2018-06-13T11:07:01.000Z"},"geometry":{"type":"Point","coordinates":[26.3230162671315,-4.72486851755082]}},{"type":"Feature","properties":{"id":1309,"title":"Missing Maps: Map South Kivu, Democratic Republic of Congo  (Task 15: Roads and residential areas )","status":"ARCHIVED","created":"2015","lastUpdated":"2016","lastActive":"no","area":403.19592005975613,"changesets":346,"mappers":53,"roads":304.604374363432,"buildings":2470,"edits":5375,"latest":"2016-08-09T15:23:16.000Z"},"geometry":{"type":"Point","coordinates":[29.0642316526311,-3.75920914186871]}},{"type":"Feature","properties":{"id":1081,"title":"Missing Maps: Map South Kivu, Democratic Republic of Congo (Task 5: Roads and residential areas )","status":"ARCHIVED","created":"2015","lastUpdated":"2018","lastActive":"no","area":1235.068371780537,"changesets":182,"mappers":29,"roads":38.09212718461,"buildings":1003,"edits":1418,"latest":"2016-01-05T18:55:16.000Z"},"geometry":{"type":"Point","coordinates":[27.7846559800447,-2.22252183255806]}},{"type":"Feature","properties":{"id":1078,"title":"Missing Maps: Map South Kivu, Democratic Republic of Congo  (Task 3: Roads and residential areas )","status":"ARCHIVED","created":"2015","lastUpdated":"2018","lastActive":"no","area":704.0899835215878,"changesets":1449,"mappers":84,"roads":1003.74708099451,"buildings":3851,"edits":9353,"latest":"2016-01-26T12:56:47.000Z"},"geometry":{"type":"Point","coordinates":[28.8922695904225,-1.79101603005545]}},{"type":"Feature","properties":{"id":1302,"title":"Missing Maps: Map South Kivu, Democratic Republic of Congo  (Task 14: Roads and residential areas )","status":"ARCHIVED","created":"2015","lastUpdated":"2016","lastActive":"no","area":233.05192036532696,"changesets":285,"mappers":35,"roads":192.394859295451,"buildings":1529,"edits":4777,"latest":"2016-02-02T20:55:44.000Z"},"geometry":{"type":"Point","coordinates":[29.1236711711411,-3.45110321154127]}},{"type":"Feature","properties":{"id":5176,"title":"2018 Ebola, North-West of Beni, Nord-Kivu, DRC","status":"ARCHIVED","created":"2018","lastUpdated":"2018","lastActive":"no","area":210.61101334569332,"changesets":319,"mappers":48,"roads":109.065594100484,"buildings":5859,"edits":6279,"latest":"2018-09-12T09:59:08.000Z"},"geometry":{"type":"Point","coordinates":[29.1630430370293,0.631378590717463]}},{"type":"Feature","properties":{"id":4004,"title":"Missing Maps: Map South Kivu, Democratic Republic of Congo (Project 27: Buildings)","status":"PUBLISHED","created":"2018","lastUpdated":"2018","lastActive":"no","area":16.160413324668365,"changesets":257,"mappers":38,"roads":2.68791114943387,"buildings":3319,"edits":3443,"latest":"2018-03-19T20:42:12.000Z"},"geometry":{"type":"Point","coordinates":[29.1119074899896,-4.31563872317578]}},{"type":"Feature","properties":{"id":4372,"title":"Missing Maps: Map Tchonka in South Kivu, Democratic Republic of Congo (Project 30)","status":"ARCHIVED","created":"2018","lastUpdated":"2018","lastActive":"no","area":81.95962619883498,"changesets":308,"mappers":62,"roads":24.6071783099488,"buildings":5282,"edits":5595,"latest":"2018-05-16T14:27:13.000Z"},"geometry":{"type":"Point","coordinates":[27.5396433192983,-2.32806750098613]}},{"type":"Feature","properties":{"id":1252,"title":"Missing Maps: Map South Kivu, Democratic Republic of Congo (Task 12: Roads and residential areas )","status":"ARCHIVED","created":"2015","lastUpdated":"2018","lastActive":"no","area":124.58381309539743,"changesets":0,"mappers":0,"roads":0,"buildings":0,"edits":0,"latest":null},"geometry":{"type":"Point","coordinates":[29.0831824623398,-4.10669985446933]}},{"type":"Feature","properties":{"id":4434,"title":"Missing Maps: Sleeping Sickness in Maniema DR Congo - Tunda","status":"PUBLISHED","created":"2018","lastUpdated":"2018","lastActive":"no","area":9995.56095616409,"changesets":270,"mappers":78,"roads":664.849059721887,"buildings":861,"edits":1642,"latest":"2018-12-03T12:10:35.000Z"},"geometry":{"type":"Point","coordinates":[25.1359241582198,-4.06649327064681]}},{"type":"Feature","properties":{"id":4485,"title":"Flooded Area Ruzizi (RDC)","status":"ARCHIVED","created":"2018","lastUpdated":"2018","lastActive":"no","area":251.22551930092104,"changesets":1051,"mappers":174,"roads":496.12952103037,"buildings":22558,"edits":25199,"latest":"2018-06-09T13:06:24.000Z"},"geometry":{"type":"Point","coordinates":[29.0666984715755,-2.94822608422047]}},{"type":"Feature","properties":{"id":3016,"title":"2017 Ebola outbreak in Bas-Uele, DRC (Proj. 6)","status":"ARCHIVED","created":"2017","lastUpdated":"2017","lastActive":"no","area":788.576120297372,"changesets":123,"mappers":31,"roads":7.61377784308942,"buildings":1002,"edits":1206,"latest":"2017-05-22T16:28:23.000Z"},"geometry":{"type":"Point","coordinates":[23.6268034225243,3.33827879029528]}},{"type":"Feature","properties":{"id":4708,"title":"Mapping for Ebola  - Archiving this task - #OSM-DRC is responsible to coordinate these projects and zone already covered - please discuss with #OSM-DRC team on hot list","status":"ARCHIVED","created":"2018","lastUpdated":"2018","lastActive":"no","area":36035.618448038585,"changesets":566,"mappers":70,"roads":1.74055142893443,"buildings":28201,"edits":28346,"latest":"2018-06-11T09:54:01.000Z"},"geometry":{"type":"Point","coordinates":[18.3644855038404,-0.437884765824334]}},{"type":"Feature","properties":{"id":4839,"title":"Missing Maps: Sleeping Sickness in Maniema DR Congo - Lusangi","status":"PUBLISHED","created":"2018","lastUpdated":"2018","lastActive":"no","area":4259.872230869905,"changesets":253,"mappers":49,"roads":211.072973343214,"buildings":2410,"edits":2668,"latest":"2018-11-22T15:57:54.000Z"},"geometry":{"type":"Point","coordinates":[27.2319896032437,-4.67542450570248]}},{"type":"Feature","properties":{"id":2608,"title":"Missing Maps - Goma, DRC - Water and Sanitation - For intermediate mappers","status":"PUBLISHED","created":"2017","lastUpdated":"2018","lastActive":"yes","area":53.739188152281926,"changesets":3435,"mappers":206,"roads":651.471323750877,"buildings":128382,"edits":149934,"latest":"2018-12-17T22:12:53.000Z"},"geometry":{"type":"Point","coordinates":[29.20167071425,-1.65134606727651]}},{"type":"Feature","properties":{"id":629,"title":"Ebola Outbreak, Boende area, Democratic Republic of Congo","status":"ARCHIVED","created":"2014","lastUpdated":"2016","lastActive":"no","area":1036.60075271983,"changesets":0,"mappers":0,"roads":0,"buildings":0,"edits":0,"latest":null},"geometry":{"type":"Point","coordinates":[20.700628379291,-0.565184903410807]}},{"type":"Feature","properties":{"id":4031,"title":"Missing Maps: South Kivu, Democratic Republic of Congo (Project 28: health infrastructure)","status":"ARCHIVED","created":"2018","lastUpdated":"2018","lastActive":"no","area":1076.2855731489042,"changesets":0,"mappers":0,"roads":0,"buildings":0,"edits":0,"latest":null},"geometry":{"type":"Point","coordinates":[29.0239485884282,-4.30420426948689]}},{"type":"Feature","properties":{"id":312,"title":"Detailed mapping of Kalemie/DRC ","status":"ARCHIVED","created":"2013","lastUpdated":"2014","lastActive":"no","area":24.77981270236113,"changesets":594,"mappers":23,"roads":1208.62446233935,"buildings":188,"edits":3419,"latest":"2018-04-03T06:50:28.000Z"},"geometry":{"type":"Point","coordinates":[29.1967989036532,-5.90641097177879]}},{"type":"Feature","properties":{"id":1076,"title":"Missing Maps: Map South Kivu, Democratic Republic of Congo  (Task 1: Roads and residential areas )","status":"ARCHIVED","created":"2015","lastUpdated":"2018","lastActive":"no","area":2885.9841576088215,"changesets":107,"mappers":25,"roads":64.4322337087448,"buildings":594,"edits":974,"latest":"2015-11-09T18:55:48.000Z"},"geometry":{"type":"Point","coordinates":[27.4744404408247,-2.59919700016993]}},{"type":"Feature","properties":{"id":3008,"title":"2017 Ebola outbreak in Bas-Uele, DRC - Likati town","status":"ARCHIVED","created":"2017","lastUpdated":"2017","lastActive":"no","area":15.74895707088454,"changesets":0,"mappers":0,"roads":0,"buildings":0,"edits":0,"latest":null},"geometry":{"type":"Point","coordinates":[23.8987274399545,3.36735424381593]}},{"type":"Feature","properties":{"id":1106,"title":"Missing Maps: Cit Gcamines, Lubumbashi, Democratic Republic of Congo (DRC)","status":"ARCHIVED","created":"2015","lastUpdated":"2015","lastActive":"no","area":18.631344157984216,"changesets":2109,"mappers":91,"roads":37.1413202827139,"buildings":40187,"edits":43565,"latest":"2015-08-12T02:23:18.000Z"},"geometry":{"type":"Point","coordinates":[27.4353637512359,-11.6886494863078]}},{"type":"Feature","properties":{"id":1365,"title":"Missing Maps: Lubumbashi (north-west), Democratic Republic of Congo (DRC)","status":"ARCHIVED","created":"2015","lastUpdated":"2016","lastActive":"no","area":78.86836045593579,"changesets":1347,"mappers":67,"roads":128.247169291276,"buildings":18428,"edits":20979,"latest":"2016-01-03T01:49:31.000Z"},"geometry":{"type":"Point","coordinates":[27.4138096602512,-11.6173389134413]}},{"type":"Feature","properties":{"id":1088,"title":"Missing Maps: Map South Kivu, Democratic Republic of Congo  (Task 6: Roads and residential areas )","status":"ARCHIVED","created":"2015","lastUpdated":"2018","lastActive":"no","area":3835.800248128071,"changesets":1898,"mappers":81,"roads":1488.56957690486,"buildings":2149,"edits":9351,"latest":"2016-06-28T09:24:08.000Z"},"geometry":{"type":"Point","coordinates":[28.3789851850665,-2.26125266516576]}},{"type":"Feature","properties":{"id":1146,"title":"Missing Maps: Lubumbashi (west), Democratic Republic of Congo (DRC)","status":"ARCHIVED","created":"2015","lastUpdated":"2015","lastActive":"no","area":57.42911226591548,"changesets":4707,"mappers":176,"roads":56.9911847178632,"buildings":57671,"edits":59639,"latest":"2015-10-22T11:13:53.000Z"},"geometry":{"type":"Point","coordinates":[27.4563887541482,-11.639959461855]}},{"type":"Feature","properties":{"id":1077,"title":"Missing Maps: Map South Kivu, Democratic Republic of Congo (Task 2: Roads and residential areas )","status":"ARCHIVED","created":"2015","lastUpdated":"2018","lastActive":"no","area":389.4641082900672,"changesets":410,"mappers":48,"roads":352.936916192387,"buildings":1922,"edits":4758,"latest":"2015-12-22T09:59:45.000Z"},"geometry":{"type":"Point","coordinates":[28.8833825581463,-4.5433663177797]}},{"type":"Feature","properties":{"id":1301,"title":"Missing Maps: Map South Kivu, Democratic Republic of Congo  (Task 13: Roads and residential areas )","status":"ARCHIVED","created":"2015","lastUpdated":"2016","lastActive":"no","area":1123.6508460597738,"changesets":1447,"mappers":137,"roads":1712.66088457476,"buildings":4421,"edits":17056,"latest":"2016-02-24T20:42:05.000Z"},"geometry":{"type":"Point","coordinates":[29.1242886534188,-3.14782229383699]}},{"type":"Feature","properties":{"id":1253,"title":"Missing Maps: Lubumbashi (east), Democratic Republic of Congo (DRC)","status":"ARCHIVED","created":"2015","lastUpdated":"2015","lastActive":"no","area":25.020057039327114,"changesets":2808,"mappers":102,"roads":44.7343995341555,"buildings":36615,"edits":39616,"latest":"2015-12-09T12:34:53.000Z"},"geometry":{"type":"Point","coordinates":[27.5486560069219,-11.6691256244952]}},{"type":"Feature","properties":{"id":920,"title":"DRC WRI forestry tracks import","status":"ARCHIVED","created":"2015","lastUpdated":"2016","lastActive":"no","area":39754.75877637009,"changesets":0,"mappers":0,"roads":0,"buildings":0,"edits":0,"latest":null},"geometry":{"type":"Point","coordinates":[20.9270581013704,2.00559492351721]}},{"type":"Feature","properties":{"id":4696,"title":"Mapping for Ebola  - Archiving this task - #OSM-DRC is responsible to coordinate these projedts and zone already covered - please discuss with #OSM-DRC team on hot list","status":"ARCHIVED","created":"2018","lastUpdated":"2018","lastActive":"no","area":2644.394404002388,"changesets":359,"mappers":73,"roads":1.31538440355478,"buildings":13114,"edits":13178,"latest":"2018-06-08T22:45:38.000Z"},"geometry":{"type":"Point","coordinates":[18.7325363281888,-0.308788136006049]}},{"type":"Feature","properties":{"id":3059,"title":"2017 Ebola outbreak in Bas-Uele, DRC (Proj. 11)","status":"ARCHIVED","created":"2017","lastUpdated":"2017","lastActive":"no","area":334.19917732267754,"changesets":238,"mappers":28,"roads":16.8678060976209,"buildings":1764,"edits":2127,"latest":"2017-05-24T22:35:30.000Z"},"geometry":{"type":"Point","coordinates":[23.7870449758019,3.4046765175966]}},{"type":"Feature","properties":{"id":4635,"title":"Missing Maps: Map Misisi in South Kivu, Democratic Republic of Congo (Project 32)","status":"ARCHIVED","created":"2018","lastUpdated":"2018","lastActive":"no","area":1.168677206492672,"changesets":0,"mappers":0,"roads":0,"buildings":0,"edits":0,"latest":null},"geometry":{"type":"Point","coordinates":[28.6990181250359,-4.76507294128255]}},{"type":"Feature","properties":{"id":1079,"title":"Missing Maps: Map South Kivu, Democratic Republic of Congo  (Task 4: Roads and residential areas )","status":"ARCHIVED","created":"2015","lastUpdated":"2018","lastActive":"no","area":2250.512692755052,"changesets":484,"mappers":19,"roads":94.3245980840381,"buildings":207,"edits":1648,"latest":"2015-11-04T15:19:06.000Z"},"geometry":{"type":"Point","coordinates":[28.0367855243459,-2.50911124395526]}},{"type":"Feature","properties":{"id":2666,"title":"Violences in Kasai: Kananga - Tshimbulu, Dibaya, Kasai, DRC","status":"ARCHIVED","created":"2017","lastUpdated":"2017","lastActive":"no","area":10869.84671501634,"changesets":886,"mappers":77,"roads":1769.00961638452,"buildings":1495,"edits":5377,"latest":"2017-05-02T08:09:22.000Z"},"geometry":{"type":"Point","coordinates":[22.6708583987284,-6.37771129972566]}},{"type":"Feature","properties":{"id":2990,"title":"2017 Ebola outbreak in Bas-Uele, DRC (Proj. 2)","status":"ARCHIVED","created":"2017","lastUpdated":"2017","lastActive":"no","area":23639.833323390416,"changesets":1220,"mappers":112,"roads":640.616571053348,"buildings":28874,"edits":33014,"latest":"2017-10-25T19:29:20.000Z"},"geometry":{"type":"Point","coordinates":[24.6520248253902,3.0128197253525]}},{"type":"Feature","properties":{"id":3009,"title":"2017 Ebola outbreak in Bas-Uele, DRC - Likati town (proj. 5)","status":"ARCHIVED","created":"2017","lastUpdated":"2017","lastActive":"no","area":7.874478535442227,"changesets":462,"mappers":93,"roads":35.9356756736877,"buildings":8097,"edits":9021,"latest":"2017-06-05T12:09:09.000Z"},"geometry":{"type":"Point","coordinates":[23.8987274399544,3.36735424381593]}},{"type":"Feature","properties":{"id":3246,"title":"Missing Maps: Map South Kivu, Democratic Republic of Congo (Project 22: Roads and residential areas)","status":"ARCHIVED","created":"2017","lastUpdated":"2018","lastActive":"no","area":171.35435792577496,"changesets":96,"mappers":23,"roads":96.3587656914518,"buildings":127,"edits":514,"latest":"2017-07-14T07:54:06.000Z"},"geometry":{"type":"Point","coordinates":[29.1038286360375,-4.60595291138693]}},{"type":"Feature","properties":{"id":2624,"title":"Missing Maps - Goma, RDC - Water and Sanitation - For beginners","status":"ARCHIVED","created":"2017","lastUpdated":"2017","lastActive":"no","area":141.52604103789002,"changesets":147,"mappers":20,"roads":81.7403460777808,"buildings":2292,"edits":4220,"latest":"2017-04-11T07:04:35.000Z"},"geometry":{"type":"Point","coordinates":[29.1837380312445,-1.62876007604997]}},{"type":"Feature","properties":{"id":2988,"title":"2017 Ebola outbreak in Bas-Uele, DRC","status":"ARCHIVED","created":"2017","lastUpdated":"2017","lastActive":"no","area":10726.542562653003,"changesets":1751,"mappers":150,"roads":1456.6200572327,"buildings":43312,"edits":50929,"latest":"2017-08-16T01:13:13.000Z"},"geometry":{"type":"Point","coordinates":[22.9791693485271,3.40434368212326]}},{"type":"Feature","properties":{"id":988,"title":"DRC, refugees from CAR - Mboti camp","status":"ARCHIVED","created":"2015","lastUpdated":"2015","lastActive":"no","area":0.18072164924495876,"changesets":23,"mappers":5,"roads":1.57522552000093,"buildings":158,"edits":209,"latest":"2015-05-08T16:25:52.000Z"},"geometry":{"type":"Point","coordinates":[25.8194772262687,4.02376955477009]}},{"type":"Feature","properties":{"id":3268,"title":"Missing Maps: Map South Kivu, Democratic Republic of Congo (Project 23: Buildings)","status":"ARCHIVED","created":"2017","lastUpdated":"2018","lastActive":"no","area":110.119725914713,"changesets":261,"mappers":43,"roads":75.8566614788438,"buildings":9432,"edits":9949,"latest":"2017-08-01T06:32:39.000Z"},"geometry":{"type":"Point","coordinates":[29.0501030786814,-4.20005248704493]}},{"type":"Feature","properties":{"id":3242,"title":"Missing Maps: Map South Kivu, Democratic Republic of Congo (Project 20: Roads and residential areas)","status":"ARCHIVED","created":"2017","lastUpdated":"2018","lastActive":"no","area":625.3767776416804,"changesets":390,"mappers":36,"roads":492.579665245401,"buildings":186,"edits":3686,"latest":"2017-07-03T20:44:31.000Z"},"geometry":{"type":"Point","coordinates":[29.1536400115305,-4.34563892858167]}},{"type":"Feature","properties":{"id":803,"title":"TEST - PLEASE DELETE","status":"ARCHIVED","created":"2014","lastUpdated":"2014","lastActive":"no","area":657540.8865328028,"changesets":0,"mappers":0,"roads":0,"buildings":0,"edits":0,"latest":null},"geometry":{"type":"Point","coordinates":[25.6973147870049,2.77660671475194]}},{"type":"Feature","properties":{"id":427,"title":"#mapcongo Dubie","status":"ARCHIVED","created":"2014","lastUpdated":"2016","lastActive":"no","area":194.44330860236522,"changesets":0,"mappers":0,"roads":0,"buildings":0,"edits":0,"latest":null},"geometry":{"type":"Point","coordinates":[28.5357316319378,-8.58363427722878]}},{"type":"Feature","properties":{"id":5393,"title":"Rseau Routier de la RDC : Kongo Central - Kinshasa (routes principales sur base des donnes CI/OR)","status":"PUBLISHED","created":"2018","lastUpdated":"2018","lastActive":"no","area":17463.475431110535,"changesets":53,"mappers":2,"roads":476.972520030785,"buildings":0,"edits":561,"latest":"2018-10-25T09:12:15.000Z"},"geometry":{"type":"Point","coordinates":[14.2086408278334,-5.18208894862849]}},{"type":"Feature","properties":{"id":640,"title":"DRC Ebola 2014, Bokote-Waka, quarantine area","status":"ARCHIVED","created":"2014","lastUpdated":"2014","lastActive":"no","area":7149.895515909358,"changesets":0,"mappers":0,"roads":0,"buildings":0,"edits":0,"latest":null},"geometry":{"type":"Point","coordinates":[20.0812472751974,-0.649269946818611]}},{"type":"Feature","properties":{"id":631,"title":"DRC Ebola 2014, Boende city","status":"ARCHIVED","created":"2014","lastUpdated":"2014","lastActive":"no","area":5.59161277054659,"changesets":0,"mappers":0,"roads":0,"buildings":0,"edits":0,"latest":null},"geometry":{"type":"Point","coordinates":[20.8813122978718,-0.285652144721772]}},{"type":"Feature","properties":{"id":661,"title":"DRC Ebola 2014, Boende Moke, Boende Monene and surroundings, mapping with WorldView-2 imagery","status":"ARCHIVED","created":"2014","lastUpdated":"2016","lastActive":"no","area":2617.427150680207,"changesets":0,"mappers":0,"roads":0,"buildings":0,"edits":0,"latest":null},"geometry":{"type":"Point","coordinates":[20.8011791895088,-0.498487086563879]}},{"type":"Feature","properties":{"id":468,"title":"Kalima, DRC -- Updated Imagery, 07 September 2013","status":"PUBLISHED","created":"2014","lastUpdated":"2015","lastActive":"no","area":331.2871082022658,"changesets":0,"mappers":0,"roads":0,"buildings":0,"edits":0,"latest":null},"geometry":{"type":"Point","coordinates":[26.5971146171187,-2.55719376204306]}},{"type":"Feature","properties":{"id":5407,"title":"Rseau Routier de la RDC : Kasa (routes principales sur base des donnes CI/OR)","status":"PUBLISHED","created":"2018","lastUpdated":"2018","lastActive":"no","area":44925.8294684595,"changesets":146,"mappers":3,"roads":520.725884990236,"buildings":0,"edits":1375,"latest":"2018-11-06T11:15:39.000Z"},"geometry":{"type":"Point","coordinates":[22.8183761012238,-5.30093825686823]}},{"type":"Feature","properties":{"id":1332,"title":"Missing Maps: Lubumbashi (south-east), Democratic Republic of Congo (DRC)","status":"ARCHIVED","created":"2015","lastUpdated":"2015","lastActive":"no","area":7.67620482778595,"changesets":162,"mappers":31,"roads":1.37103078744453,"buildings":829,"edits":993,"latest":"2016-01-20T09:52:16.000Z"},"geometry":{"type":"Point","coordinates":[27.5437035155503,-11.7031663045911]}},{"type":"Feature","properties":{"id":2881,"title":"DRC Road network: Task 1/A (based on DIAF data in Kasai)","status":"PUBLISHED","created":"2017","lastUpdated":"2018","lastActive":"no","area":12996.209617402423,"changesets":750,"mappers":18,"roads":5955.37849348321,"buildings":599,"edits":9460,"latest":"2018-08-15T10:16:00.000Z"},"geometry":{"type":"Point","coordinates":[22.3031737840355,-4.62015601792638]}},{"type":"Feature","properties":{"id":5017,"title":"DRC Road network: Bandundu (main roads based on CI/OR data)","status":"PUBLISHED","created":"2018","lastUpdated":"2018","lastActive":"no","area":48576.906446531626,"changesets":218,"mappers":2,"roads":2537.80058635181,"buildings":3,"edits":3560,"latest":"2018-11-19T00:27:41.000Z"},"geometry":{"type":"Point","coordinates":[18.2133880095629,-4.62722328423884]}},{"type":"Feature","properties":{"id":2991,"title":"2017 Ebola outbreak in Bas-Uele, DRC (Proj. 3)","status":"ARCHIVED","created":"2017","lastUpdated":"2017","lastActive":"no","area":11651.716435614915,"changesets":890,"mappers":94,"roads":1502.8821851843,"buildings":7412,"edits":13751,"latest":"2017-06-05T14:42:43.000Z"},"geometry":{"type":"Point","coordinates":[23.2896907172166,2.65863552337951]}},{"type":"Feature","properties":{"id":2985,"title":"2017 Ebola outbreak in Bas-Uele, DRC","status":"ARCHIVED","created":"2017","lastUpdated":"2017","lastActive":"no","area":65362.73536842078,"changesets":14,"mappers":4,"roads":11.8500973797555,"buildings":10,"edits":40,"latest":"2017-05-12T18:25:10.000Z"},"geometry":{"type":"Point","coordinates":[23.9225645184878,3.35562497806035]}},{"type":"Feature","properties":{"id":5225,"title":"Ebola 2018, South-West of Beni, Nord-Kivu, DRC","status":"ARCHIVED","created":"2018","lastUpdated":"2018","lastActive":"no","area":226.93873761591792,"changesets":993,"mappers":102,"roads":244.687755024826,"buildings":9271,"edits":10813,"latest":"2018-10-03T17:13:48.000Z"},"geometry":{"type":"Point","coordinates":[29.5743969452797,0.414481178165362]}},{"type":"Feature","properties":{"id":5408,"title":"Missing Maps: Democratic Republic of Congo, Kinshasa, Maluku I","status":"PUBLISHED","created":"2018","lastUpdated":"2018","lastActive":"no","area":5324.760673432831,"changesets":2626,"mappers":216,"roads":52.9746144202399,"buildings":9213,"edits":9437,"latest":"2018-11-14T20:58:56.000Z"},"geometry":{"type":"Point","coordinates":[16.1551074350205,-4.48984047829384]}},{"type":"Feature","properties":{"id":126,"title":"RD Congo, Sud-Kivu, RN5 Bukavu - Katagota","status":"ARCHIVED","created":"2012","lastUpdated":"2018","lastActive":"no","area":160.4123067941322,"changesets":398,"mappers":23,"roads":135.415628181299,"buildings":15765,"edits":18459,"latest":"2017-10-03T04:27:34.000Z"},"geometry":{"type":"Point","coordinates":[28.9082335348516,-2.66959011486519]}},{"type":"Feature","properties":{"id":116,"title":"RD-Congo,  Nord-Kivu, Nyiragongo Volcano","status":"ARCHIVED","created":"2012","lastUpdated":"2014","lastActive":"no","area":110.30082408143865,"changesets":720,"mappers":23,"roads":1238.86580368434,"buildings":29900,"edits":33335,"latest":"2018-07-25T10:08:04.000Z"},"geometry":{"type":"Point","coordinates":[29.2279719455196,-1.53860040943148]}},{"type":"Feature","properties":{"id":124,"title":"RD Congo, Nord-Kivu Rutshuru Territory, Nextview Imagery","status":"ARCHIVED","created":"2012","lastUpdated":"2014","lastActive":"no","area":781.8142281757939,"changesets":657,"mappers":27,"roads":471.95220068063,"buildings":125240,"edits":130271,"latest":"2018-08-15T03:13:12.000Z"},"geometry":{"type":"Point","coordinates":[29.4534731116426,-1.35141909142887]}},{"type":"Feature","properties":{"id":140,"title":"RD Congo, Sud-Kivu, RN2 Kalengera - Burhale","status":"ARCHIVED","created":"2013","lastUpdated":"2018","lastActive":"no","area":286.43473275139837,"changesets":148,"mappers":7,"roads":44.6166180465709,"buildings":11174,"edits":11380,"latest":"2018-12-14T03:02:30.000Z"},"geometry":{"type":"Point","coordinates":[28.7161443970652,-2.6595668491148]}},{"type":"Feature","properties":{"id":2844,"title":"Okapi National Park, East-West Road, DRC","status":"ARCHIVED","created":"2017","lastUpdated":"2017","lastActive":"no","area":80.97546979591154,"changesets":0,"mappers":0,"roads":0,"buildings":0,"edits":0,"latest":null},"geometry":{"type":"Point","coordinates":[28.413884926327,1.40230801175528]}},{"type":"Feature","properties":{"id":4726,"title":"Missing Maps: Map Nyangi in South Kivu, Democratic Republic of Congo (Project 33)","status":"ARCHIVED","created":"2018","lastUpdated":"2018","lastActive":"no","area":1.491036847033257,"changesets":461,"mappers":33,"roads":94.8855203345235,"buildings":3301,"edits":4361,"latest":"2018-07-27T13:19:05.000Z"},"geometry":{"type":"Point","coordinates":[28.8386186577951,-5.00259599539927]}},{"type":"Feature","properties":{"id":1254,"title":"Missing Maps: Lubumbashi (south), Democratic Republic of Congo (DRC)","status":"ARCHIVED","created":"2015","lastUpdated":"2016","lastActive":"no","area":26.977163396060966,"changesets":4547,"mappers":357,"roads":23.3904344576414,"buildings":48304,"edits":49761,"latest":"2016-04-02T18:34:13.000Z"},"geometry":{"type":"Point","coordinates":[27.4812473472868,-11.7052159583224]}},{"type":"Feature","properties":{"id":3477,"title":"Coastal Jiba HZ, Ituri, DRC","status":"PUBLISHED","created":"2017","lastUpdated":"2017","lastActive":"no","area":100.88965683887055,"changesets":107,"mappers":13,"roads":1.46307617982564,"buildings":197,"edits":277,"latest":"2017-11-07T19:11:08.000Z"},"geometry":{"type":"Point","coordinates":[30.7650057492941,1.78171266058815]}},