{"totalEdits":43435196,"totalBuildings":36067286,"totalRoads":914354.017153956,"mappersOnline":184,"totalTasksMapped":1727281,"totalMappers":147867,"totalProjects":4231,"Nigeria":[{"type":"Feature","properties":{"id":5250,"title":"Missing Maps: Villages in Kebbi State, Nigeria (1)","status":"PUBLISHED","created":"2018","lastUpdated":"2018","lastActive":"no","area":3744.624137845002,"changesets":16,"mappers":3,"roads":0.0000781166629977292,"buildings":0,"edits":1,"latest":"2018-09-24T17:26:01.000Z"},"geometry":{"type":"Point","coordinates":[4.69297612781228,11.6527299828523]}},{"type":"Feature","properties":{"id":1451,"title":"Kebbi State Road Network Mapping for Vaccine Delivery Routing, Nigeria","status":"PUBLISHED","created":"2016","lastUpdated":"2018","lastActive":"no","area":37552.94735367729,"changesets":959,"mappers":28,"roads":9356.89924584059,"buildings":47,"edits":40649,"latest":"2018-02-02T18:16:33.000Z"},"geometry":{"type":"Point","coordinates":[4.51271072315815,11.7161243185886]}},{"type":"Feature","properties":{"id":5323,"title":"Joinkrama Flooded Area Mapping. Nigeria","status":"PUBLISHED","created":"2018","lastUpdated":"2018","lastActive":"no","area":557.1601360502681,"changesets":1879,"mappers":191,"roads":506.111850484727,"buildings":18449,"edits":20606,"latest":"2018-11-15T00:06:13.000Z"},"geometry":{"type":"Point","coordinates":[6.49756838956685,5.07155836451435]}},{"type":"Feature","properties":{"id":1482,"title":"Edo State Road Network Mapping for Vaccine Delivery Routing, Nigeria","status":"PUBLISHED","created":"2016","lastUpdated":"2018","lastActive":"no","area":19683.74941904491,"changesets":1993,"mappers":43,"roads":14473.1090348353,"buildings":1770,"edits":104724,"latest":"2018-02-21T02:39:49.000Z"},"geometry":{"type":"Point","coordinates":[5.93057822234096,6.63453713168272]}},{"type":"Feature","properties":{"id":1358,"title":"Ekiti State Road Network Mapping for Vaccine Delivery Routing, Nigeria","status":"PUBLISHED","created":"2015","lastUpdated":"2018","lastActive":"no","area":5819.8685550308655,"changesets":1065,"mappers":24,"roads":7990.00725237455,"buildings":270,"edits":70027,"latest":"2018-01-24T14:42:52.000Z"},"geometry":{"type":"Point","coordinates":[5.31091296609966,7.71898164631485]}},{"type":"Feature","properties":{"id":1438,"title":"Gombe State Road Network Mapping for Vaccine Delivery Routing, Nigeria","status":"PUBLISHED","created":"2016","lastUpdated":"2018","lastActive":"no","area":16230.248020691795,"changesets":1892,"mappers":35,"roads":11418.4713032426,"buildings":190,"edits":98014,"latest":"2018-02-12T18:08:46.000Z"},"geometry":{"type":"Point","coordinates":[11.2042322517928,10.3540636495086]}},{"type":"Feature","properties":{"id":1457,"title":"Jigawa State Road Network Mapping for Vaccine Delivery Routing, Nigeria","status":"ARCHIVED","created":"2016","lastUpdated":"2016","lastActive":"no","area":23585.965723018166,"changesets":646,"mappers":32,"roads":3625.73224764997,"buildings":62,"edits":5529,"latest":"2016-02-05T18:20:50.000Z"},"geometry":{"type":"Point","coordinates":[9.56105583561993,12.2290521315549]}},{"type":"Feature","properties":{"id":1420,"title":"Delta State Road Network Mapping for Vaccine Delivery Routing, Nigeria","status":"PUBLISHED","created":"2016","lastUpdated":"2018","lastActive":"no","area":16783.956565654746,"changesets":1038,"mappers":15,"roads":9094.14698935304,"buildings":1,"edits":71950,"latest":"2018-02-02T08:40:42.000Z"},"geometry":{"type":"Point","coordinates":[5.94800813578102,5.71097075504181]}},{"type":"Feature","properties":{"id":5334,"title":"Missing Maps - Nigeria - Niger Flooding Djebba-Lokoya","status":"PUBLISHED","created":"2018","lastUpdated":"2018","lastActive":"no","area":6412.337415729219,"changesets":3003,"mappers":236,"roads":6513.47976801177,"buildings":54549,"edits":69123,"latest":"2018-11-25T13:59:52.000Z"},"geometry":{"type":"Point","coordinates":[6.0071305918705,8.66680686741859]}},{"type":"Feature","properties":{"id":4492,"title":"Missing Maps: Mapping residential areas and buildings in Niger State, Nigeria (project 11)","status":"PUBLISHED","created":"2018","lastUpdated":"2018","lastActive":"no","area":164.65919548091162,"changesets":3141,"mappers":194,"roads":312.321612534097,"buildings":59113,"edits":59986,"latest":"2018-07-04T06:19:19.000Z"},"geometry":{"type":"Point","coordinates":[6.45522923462123,10.3035554133245]}},{"type":"Feature","properties":{"id":443,"title":"Open Data Day, Open Oil, OML 61","status":"PUBLISHED","created":"2014","lastUpdated":"2014","lastActive":"no","area":1527.857340641795,"changesets":0,"mappers":0,"roads":0,"buildings":0,"edits":0,"latest":null},"geometry":{"type":"Point","coordinates":[6.48158907224908,5.32834346776366]}},{"type":"Feature","properties":{"id":4867,"title":"Missing Maps: Residential areas in Sokoto State, Nigeria (1)","status":"ARCHIVED","created":"2018","lastUpdated":"2018","lastActive":"no","area":16.006737909543173,"changesets":647,"mappers":72,"roads":389.532430864526,"buildings":1598,"edits":2935,"latest":"2018-08-21T09:04:22.000Z"},"geometry":{"type":"Point","coordinates":[6.48241023533448,13.1612540958641]}},{"type":"Feature","properties":{"id":3875,"title":"Bauchi RI Catchment Mapping Support","status":"PUBLISHED","created":"2017","lastUpdated":"2017","lastActive":"no","area":49917.703636484526,"changesets":1516,"mappers":38,"roads":2161.09281244604,"buildings":19,"edits":4341,"latest":"2018-05-10T18:26:21.000Z"},"geometry":{"type":"Point","coordinates":[9.99989796204689,10.7773864877194]}},{"type":"Feature","properties":{"id":4765,"title":"Missing Maps: Lake Chad - Nigeria, Yobe, Yunusari","status":"PUBLISHED","created":"2018","lastUpdated":"2018","lastActive":"no","area":3838.4136265019115,"changesets":1299,"mappers":201,"roads":119.475443417791,"buildings":11821,"edits":12105,"latest":"2018-11-23T02:09:51.000Z"},"geometry":{"type":"Point","coordinates":[11.7778278083386,13.097171300674]}},{"type":"Feature","properties":{"id":4712,"title":"Missing Maps: Lake Chad - Nigeria, Borno, Mintar","status":"PUBLISHED","created":"2018","lastUpdated":"2018","lastActive":"no","area":447.46174026130313,"changesets":183,"mappers":32,"roads":13.1649283865459,"buildings":1905,"edits":1974,"latest":"2018-11-18T03:05:44.000Z"},"geometry":{"type":"Point","coordinates":[13.92251485134,12.6768526041885]}},{"type":"Feature","properties":{"id":3898,"title":"Sokoto Routine Immunization Catchment Mapping","status":"PUBLISHED","created":"2017","lastUpdated":"2018","lastActive":"no","area":31257.071995494418,"changesets":393,"mappers":83,"roads":2321.66988491535,"buildings":2699,"edits":7571,"latest":"2018-11-05T15:05:51.000Z"},"geometry":{"type":"Point","coordinates":[5.31816596114995,13.0560744884251]}},{"type":"Feature","properties":{"id":441,"title":"Open Data Day, Open Oil, OML 63","status":"PUBLISHED","created":"2014","lastUpdated":"2017","lastActive":"no","area":2247.454295655266,"changesets":0,"mappers":0,"roads":0,"buildings":0,"edits":0,"latest":null},"geometry":{"type":"Point","coordinates":[6.02524630477629,4.73454607550322]}},{"type":"Feature","properties":{"id":3904,"title":"Missing Maps: Mapping residential areas and buildings in Niger State, Nigeria (project 8)","status":"PUBLISHED","created":"2017","lastUpdated":"2018","lastActive":"no","area":269.04966150739665,"changesets":8481,"mappers":760,"roads":489.799184926236,"buildings":124431,"edits":130927,"latest":"2018-11-11T20:46:34.000Z"},"geometry":{"type":"Point","coordinates":[5.97705370202516,9.18332949513013]}},{"type":"Feature","properties":{"id":1335,"title":"Biu city - NE Nigeria crisis","status":"ARCHIVED","created":"2015","lastUpdated":"2016","lastActive":"no","area":18.12749606000366,"changesets":1466,"mappers":138,"roads":278.480638475464,"buildings":21357,"edits":26274,"latest":"2016-01-19T05:28:42.000Z"},"geometry":{"type":"Point","coordinates":[12.188540880277,10.613597862928]}},{"type":"Feature","properties":{"id":1189,"title":"Nassarawa Road Network Mapping for Vaccine Delivery Routing, Nigeria","status":"ARCHIVED","created":"2015","lastUpdated":"2015","lastActive":"no","area":26575.59772324704,"changesets":131,"mappers":5,"roads":1816.32889541969,"buildings":15,"edits":1836,"latest":"2015-10-29T16:38:13.000Z"},"geometry":{"type":"Point","coordinates":[8.19477130080385,8.49901280214293]}},{"type":"Feature","properties":{"id":1310,"title":"Kwara State Road Network Mapping for Vaccine Delivery Routing, Nigeria","status":"ARCHIVED","created":"2015","lastUpdated":"2016","lastActive":"no","area":33583.379264104595,"changesets":502,"mappers":14,"roads":5552.76706610478,"buildings":2,"edits":5742,"latest":"2015-11-19T07:47:14.000Z"},"geometry":{"type":"Point","coordinates":[4.3935933299499,8.96072166947418]}},{"type":"Feature","properties":{"id":1226,"title":"Plateau State Road Network Mapping for Vaccine Delivery Routing, Nigeria","status":"ARCHIVED","created":"2015","lastUpdated":"2015","lastActive":"no","area":26112.83838111782,"changesets":238,"mappers":4,"roads":5371.12079645911,"buildings":3,"edits":5009,"latest":"2015-10-21T13:22:34.000Z"},"geometry":{"type":"Point","coordinates":[9.51643724563267,9.21728517962292]}},{"type":"Feature","properties":{"id":1356,"title":"Kogi State Road Network Mapping for Vaccine Delivery Routing, Nigeria","status":"ARCHIVED","created":"2015","lastUpdated":"2015","lastActive":"no","area":29236.647686284785,"changesets":319,"mappers":13,"roads":2655.43688143588,"buildings":203,"edits":2927,"latest":"2015-12-21T09:49:58.000Z"},"geometry":{"type":"Point","coordinates":[6.69197885129475,7.73299113811308]}},{"type":"Feature","properties":{"id":1341,"title":"Yobe State Road Network Mapping for Vaccine Delivery Routing, Nigeria","status":"ARCHIVED","created":"2015","lastUpdated":"2015","lastActive":"no","area":46030.869444445314,"changesets":227,"mappers":12,"roads":2452.52638025392,"buildings":3,"edits":2606,"latest":"2016-02-15T01:26:56.000Z"},"geometry":{"type":"Point","coordinates":[11.4281707000238,12.3029477910517]}},{"type":"Feature","properties":{"id":1147,"title":"Katsina Road Network Mapping for Polio Eradication, Nigeria","status":"ARCHIVED","created":"2015","lastUpdated":"2015","lastActive":"no","area":24383.897544722702,"changesets":62,"mappers":5,"roads":402.242982638399,"buildings":3,"edits":457,"latest":"2015-08-10T10:07:28.000Z"},"geometry":{"type":"Point","coordinates":[7.63746166733989,12.3878373519169]}},{"type":"Feature","properties":{"id":2768,"title":"Mapping: Borno State (north), Nigeria for Reach Every Settlement (RES) & Reach Inaccessible Children (RIC) Campaign","status":"PUBLISHED","created":"2017","lastUpdated":"2018","lastActive":"no","area":34862.614980403865,"changesets":4903,"mappers":385,"roads":48945.1178165883,"buildings":16133,"edits":147548,"latest":"2018-11-23T04:26:38.000Z"},"geometry":{"type":"Point","coordinates":[13.2946332021766,12.6383741541924]}},{"type":"Feature","properties":{"id":1725,"title":"Kano State Road Network Mapping for Vaccine Delivery Routing, Nigeria","status":"PUBLISHED","created":"2016","lastUpdated":"2018","lastActive":"no","area":4565.65604433861,"changesets":873,"mappers":16,"roads":5744.40517120162,"buildings":194,"edits":73582,"latest":"2018-01-23T09:26:25.000Z"},"geometry":{"type":"Point","coordinates":[8.76862488842163,11.1720467274171]}},{"type":"Feature","properties":{"id":5512,"title":"Missing Maps: Villages in Zamfara State, Nigeria (2)","status":"ARCHIVED","created":"2018","lastUpdated":"2018","lastActive":"no","area":411.0996311400117,"changesets":47,"mappers":6,"roads":0.100291487960472,"buildings":0,"edits":1,"latest":"2018-11-20T20:07:14.000Z"},"geometry":{"type":"Point","coordinates":[6.46268561857501,11.3305122034545]}},{"type":"Feature","properties":{"id":5513,"title":"Missing Maps: Villages in Zamfara State, Nigeria (3)","status":"PUBLISHED","created":"2018","lastUpdated":"2018","lastActive":"no","area":2049.5875097414455,"changesets":92,"mappers":8,"roads":0.0364558123960537,"buildings":0,"edits":4,"latest":"2018-11-22T20:45:26.000Z"},"geometry":{"type":"Point","coordinates":[6.71972789834857,12.1223248623725]}},{"type":"Feature","properties":{"id":3717,"title":"#WarwickUni - Mapping Slums in Nigeria to improve Access to Healthcare #SasaIbadan","status":"PUBLISHED","created":"2017","lastUpdated":"2018","lastActive":"no","area":4.932440003961636,"changesets":0,"mappers":0,"roads":0,"buildings":0,"edits":0,"latest":null},"geometry":{"type":"Point","coordinates":[3.91363095491311,7.48135426406079]}},{"type":"Feature","properties":{"id":1880,"title":"Missing Maps: Mapping roads and settlements in Niger State, Nigeria (project 2)","status":"PUBLISHED","created":"2016","lastUpdated":"2018","lastActive":"no","area":5838.952781678435,"changesets":5962,"mappers":502,"roads":11079.8474331238,"buildings":24017,"edits":87927,"latest":"2017-08-28T19:45:45.000Z"},"geometry":{"type":"Point","coordinates":[4.23539411286801,10.7904649835857]}},{"type":"Feature","properties":{"id":3584,"title":"Mapping for Flooding Emergency Intervention and Support #NRCSkano","status":"PUBLISHED","created":"2017","lastUpdated":"2018","lastActive":"no","area":1802.032750673025,"changesets":494,"mappers":95,"roads":946.947002374906,"buildings":11338,"edits":16485,"latest":"2018-10-30T12:40:28.000Z"},"geometry":{"type":"Point","coordinates":[8.84825950123226,7.36919363607563]}},{"type":"Feature","properties":{"id":2488,"title":"Missing Maps: Maiduguri, Nigeria (buildings and residential roads)","status":"ARCHIVED","created":"2017","lastUpdated":"2017","lastActive":"no","area":58.31213932438755,"changesets":2597,"mappers":239,"roads":344.012979575205,"buildings":61092,"edits":67923,"latest":"2017-09-20T16:23:50.000Z"},"geometry":{"type":"Point","coordinates":[13.1589291000798,11.7997322282298]}},{"type":"Feature","properties":{"id":1050,"title":"Sokoto Road Network Mapping for Polio Eradication, Nigeria","status":"ARCHIVED","created":"2015","lastUpdated":"2016","lastActive":"no","area":31548.185636093353,"changesets":48,"mappers":1,"roads":1467.8310575126,"buildings":0,"edits":706,"latest":"2016-03-10T09:02:51.000Z"},"geometry":{"type":"Point","coordinates":[5.31754069907975,13.0427013618203]}},{"type":"Feature","properties":{"id":439,"title":"Open Data Day, Open Oil, OML 18","status":"PUBLISHED","created":"2014","lastUpdated":"2018","lastActive":"no","area":1024.7249327592526,"changesets":145,"mappers":1,"roads":94.8598125024363,"buildings":9254,"edits":10934,"latest":"2017-09-14T04:52:40.000Z"},"geometry":{"type":"Point","coordinates":[6.97973270167323,4.59012345010185]}},{"type":"Feature","properties":{"id":4504,"title":"Missing Maps: Residential areas in Sokoto and Kebbi States, Nigeria","status":"ARCHIVED","created":"2018","lastUpdated":"2018","lastActive":"no","area":68866.83269858525,"changesets":1020,"mappers":109,"roads":389.165191675773,"buildings":4602,"edits":5682,"latest":"2018-06-12T14:31:50.000Z"},"geometry":{"type":"Point","coordinates":[4.89307430915782,12.3635233044931]}},{"type":"Feature","properties":{"id":4493,"title":"Missing Maps: Mapping residential areas and buildings in Niger State, Nigeria (project 12)","status":"PUBLISHED","created":"2018","lastUpdated":"2018","lastActive":"no","area":218.06571058849335,"changesets":4020,"mappers":378,"roads":67.211524122203,"buildings":28117,"edits":28592,"latest":"2018-09-17T20:50:52.000Z"},"geometry":{"type":"Point","coordinates":[6.58673124761999,9.97563294826575]}},{"type":"Feature","properties":{"id":1188,"title":"Abia Road Network Mapping for Vaccine Delivery Routing, Nigeria","status":"ARCHIVED","created":"2015","lastUpdated":"2016","lastActive":"no","area":4890.208238918961,"changesets":222,"mappers":4,"roads":2214.29893361453,"buildings":12,"edits":4332,"latest":"2016-03-07T10:34:52.000Z"},"geometry":{"type":"Point","coordinates":[7.52453250368347,5.4567147761289]}},{"type":"Feature","properties":{"id":1179,"title":"Cross River Road Network Mapping for Vaccine Delivery Routing, Nigeria","status":"ARCHIVED","created":"2015","lastUpdated":"2016","lastActive":"no","area":21267.877839034907,"changesets":801,"mappers":18,"roads":5550.50018331739,"buildings":72,"edits":8117,"latest":"2015-10-08T15:25:30.000Z"},"geometry":{"type":"Point","coordinates":[8.60035811913438,5.86891079661682]}},{"type":"Feature","properties":{"id":1183,"title":"Anambra Road Network Mapping for Vaccine Delivery Routing, Nigeria","status":"ARCHIVED","created":"2015","lastUpdated":"2015","lastActive":"no","area":4791.135003899627,"changesets":342,"mappers":6,"roads":2969.40206344138,"buildings":1,"edits":6361,"latest":"2015-10-02T09:25:04.000Z"},"geometry":{"type":"Point","coordinates":[6.93584039764533,6.22794744213852]}},{"type":"Feature","properties":{"id":1086,"title":"Borno Road Network Mapping for Polio Eradication, Nigeria","status":"ARCHIVED","created":"2015","lastUpdated":"2017","lastActive":"no","area":72809.85182372954,"changesets":1497,"mappers":11,"roads":15434.8446280811,"buildings":2093,"edits":44958,"latest":"2017-01-15T15:34:43.000Z"},"geometry":{"type":"Point","coordinates":[13.1452261932847,11.8828046970682]}}],"totalArea":5921689.1063080635,"Russia":[{"type":"Feature","properties":{"id":5106,"title":"Tyumen, RU - Road Alignment","status":"PUBLISHED","created":"2018","lastUpdated":"2018","lastActive":"no","area":29.90850085590972,"changesets":47,"mappers":1,"roads":2.73852519030308,"buildings":8,"edits":368,"latest":"2018-10-24T15:51:05.000Z"},"geometry":{"type":"Point","coordinates":[68.2637832952442,56.3385442704502]}},{"type":"Feature","properties":{"id":5104,"title":"Sverdlovsk, RU - Road Alignment","status":"PUBLISHED","created":"2018","lastUpdated":"2018","lastActive":"no","area":17.833303273592076,"changesets":82,"mappers":1,"roads":1.41269675484537,"buildings":18,"edits":539,"latest":"2018-10-04T16:03:26.000Z"},"geometry":{"type":"Point","coordinates":[60.7296830055128,57.3551621895813]}},{"type":"Feature","properties":{"id":5112,"title":"Kemerovo, RU - Road Alignment","status":"PUBLISHED","created":"2018","lastUpdated":"2018","lastActive":"no","area":21.798294661428333,"changesets":45,"mappers":1,"roads":2.23533517272834,"buildings":3,"edits":261,"latest":"2018-10-28T12:56:04.000Z"},"geometry":{"type":"Point","coordinates":[86.6571581706989,54.816528983781]}},{"type":"Feature","properties":{"id":5086,"title":"Chechnya, RU - Road Alignment","status":"PUBLISHED","created":"2018","lastUpdated":"2018","lastActive":"no","area":28.795408595275685,"changesets":23,"mappers":1,"roads":1.74231355153121,"buildings":0,"edits":137,"latest":"2018-10-28T12:22:09.000Z"},"geometry":{"type":"Point","coordinates":[45.8158908939478,43.2733108142613]}},{"type":"Feature","properties":{"id":5090,"title":"Karachay-Cherkessia, RU - Road Alignment","status":"PUBLISHED","created":"2018","lastUpdated":"2018","lastActive":"no","area":4.740680221856723,"changesets":11,"mappers":1,"roads":0.140718881160977,"buildings":0,"edits":63,"latest":"2018-10-31T12:53:50.000Z"},"geometry":{"type":"Point","coordinates":[42.2305210915177,44.0364671504869]}},{"type":"Feature","properties":{"id":5049,"title":"Kaluga, RU - Road Alignment","status":"PUBLISHED","created":"2018","lastUpdated":"2018","lastActive":"no","area":10.587303562416615,"changesets":1,"mappers":1,"roads":0.159744480365076,"buildings":0,"edits":43,"latest":"2018-10-29T12:17:28.000Z"},"geometry":{"type":"Point","coordinates":[35.7221561476756,54.5927443769091]}},{"type":"Feature","properties":{"id":5118,"title":"Amur, RU - Road Alignment","status":"PUBLISHED","created":"2018","lastUpdated":"2018","lastActive":"no","area":19.385680339287482,"changesets":7,"mappers":1,"roads":5.53178454751479,"buildings":28,"edits":99,"latest":"2018-10-17T10:54:27.000Z"},"geometry":{"type":"Point","coordinates":[127.669291747133,51.1636667407178]}},{"type":"Feature","properties":{"id":5082,"title":"Mordovia, RU - Road Alignment","status":"PUBLISHED","created":"2018","lastUpdated":"2018","lastActive":"no","area":21.05104067660312,"changesets":26,"mappers":1,"roads":1.76891272292416,"buildings":13,"edits":455,"latest":"2018-11-18T18:15:46.000Z"},"geometry":{"type":"Point","coordinates":[44.471800865344,54.2889054581946]}},{"type":"Feature","properties":{"id":5047,"title":"Vologda, RU - Road Alignment","status":"PUBLISHED","created":"2018","lastUpdated":"2018","lastActive":"no","area":35.28516778928109,"changesets":0,"mappers":0,"roads":0,"buildings":0,"edits":0,"latest":null},"geometry":{"type":"Point","coordinates":[40.0393416965148,59.7751178689939]}},{"type":"Feature","properties":{"id":5039,"title":"Smolensk, RU - Road Alignment","status":"PUBLISHED","created":"2018","lastUpdated":"2018","lastActive":"no","area":28.43951608669756,"changesets":18,"mappers":1,"roads":13.5643616443056,"buildings":128,"edits":711,"latest":"2018-11-06T18:43:12.000Z"},"geometry":{"type":"Point","coordinates":[32.8547004619526,54.8764930805367]}},{"type":"Feature","properties":{"id":5035,"title":"St. Petersburg, RU - Road Alignment","status":"PUBLISHED","created":"2018","lastUpdated":"2018","lastActive":"no","area":8.561300785249289,"changesets":332,"mappers":1,"roads":19.7571350087767,"buildings":150,"edits":4218,"latest":"2018-11-24T13:02:54.000Z"},"geometry":{"type":"Point","coordinates":[30.23445185656,59.9410578806373]}},{"type":"Feature","properties":{"id":5120,"title":"JAO, RU - Road Alignment","status":"PUBLISHED","created":"2018","lastUpdated":"2018","lastActive":"no","area":5.488146548063193,"changesets":4,"mappers":1,"roads":0.0327054624556719,"buildings":1,"edits":20,"latest":"2018-10-24T16:47:52.000Z"},"geometry":{"type":"Point","coordinates":[132.011691687188,48.253714915435]}},{"type":"Feature","properties":{"id":5116,"title":"Buryatia, RU - Road Alignment","status":"PUBLISHED","created":"2018","lastUpdated":"2018","lastActive":"no","area":11.921423464616145,"changesets":7,"mappers":2,"roads":3.08056904568076,"buildings":19,"edits":104,"latest":"2018-10-19T08:54:02.000Z"},"geometry":{"type":"Point","coordinates":[107.505299618937,51.7364622992778]}},{"type":"Feature","properties":{"id":5110,"title":"Yamalia, RU - Road Alignment","status":"PUBLISHED","created":"2018","lastUpdated":"2018","lastActive":"no","area":8.273190558193892,"changesets":6,"mappers":3,"roads":8.28800679414206,"buildings":20,"edits":130,"latest":"2018-11-20T10:22:28.000Z"},"geometry":{"type":"Point","coordinates":[75.2427001306948,65.7007370208771]}},{"type":"Feature","properties":{"id":5074,"title":"Voronezh, RU - Road Alignment","status":"PUBLISHED","created":"2018","lastUpdated":"2018","lastActive":"no","area":51.88857016130644,"changesets":34,"mappers":1,"roads":0.812561863103931,"buildings":19,"edits":545,"latest":"2018-11-16T10:34:45.000Z"},"geometry":{"type":"Point","coordinates":[40.2695201655274,50.9627839626112]}},{"type":"Feature","properties":{"id":5108,"title":"Novosibirsk, RU - Road Alignment","status":"PUBLISHED","created":"2018","lastUpdated":"2018","lastActive":"no","area":42.469762848735236,"changesets":118,"mappers":1,"roads":3.0941878614093,"buildings":20,"edits":482,"latest":"2018-10-03T10:15:18.000Z"},"geometry":{"type":"Point","coordinates":[80.3670447235961,54.8613031461299]}},{"type":"Feature","properties":{"id":5096,"title":"Chuvashia, RU - Road Alignment","status":"PUBLISHED","created":"2018","lastUpdated":"2018","lastActive":"no","area":7.0000954431448505,"changesets":8,"mappers":1,"roads":0.192223935155805,"buildings":0,"edits":41,"latest":"2018-11-05T21:08:48.000Z"},"geometry":{"type":"Point","coordinates":[47.0169444267199,55.6395929732244]}},{"type":"Feature","properties":{"id":5084,"title":"Astrakhan, RU - Road Alignment","status":"PUBLISHED","created":"2018","lastUpdated":"2018","lastActive":"no","area":5.310775583716296,"changesets":6,"mappers":1,"roads":0.576440915991893,"buildings":4,"edits":39,"latest":"2018-10-09T13:35:52.000Z"},"geometry":{"type":"Point","coordinates":[47.1830142680223,46.8862236799227]}},{"type":"Feature","properties":{"id":5045,"title":"Nenetsia, RU - Road Alignment","status":"PUBLISHED","created":"2018","lastUpdated":"2018","lastActive":"no","area":1.271696291426983,"changesets":7,"mappers":2,"roads":8.39223990109274,"buildings":130,"edits":410,"latest":"2018-11-05T20:55:39.000Z"},"geometry":{"type":"Point","coordinates":[56.0799294668555,67.3851766016729]}},{"type":"Feature","properties":{"id":5041,"title":"Yaroslavl, RU - Road Alignment","status":"PUBLISHED","created":"2018","lastUpdated":"2018","lastActive":"no","area":4.819215675862653,"changesets":39,"mappers":1,"roads":2.74991066466789,"buildings":47,"edits":479,"latest":"2018-11-06T18:47:40.000Z"},"geometry":{"type":"Point","coordinates":[39.1443497130268,57.5982859823097]}},{"type":"Feature","properties":{"id":5080,"title":"Ryazan, RU - Road Alignment","status":"PUBLISHED","created":"2018","lastUpdated":"2018","lastActive":"no","area":28.47380571426955,"changesets":33,"mappers":1,"roads":1.42742427154212,"buildings":102,"edits":709,"latest":"2018-11-16T22:25:01.000Z"},"geometry":{"type":"Point","coordinates":[40.2725467479178,54.1247114552182]}},{"type":"Feature","properties":{"id":5037,"title":"Pskov, RU - Road Alignment","status":"PUBLISHED","created":"2018","lastUpdated":"2018","lastActive":"no","area":6.7397348411403035,"changesets":0,"mappers":0,"roads":0,"buildings":0,"edits":0,"latest":null},"geometry":{"type":"Point","coordinates":[28.7196206931114,57.4529744401669]}},{"type":"Feature","properties":{"id":5088,"title":"North Ossetia-Alania, RU - Road Alignment","status":"PUBLISHED","created":"2018","lastUpdated":"2018","lastActive":"no","area":14.537601490829601,"changesets":32,"mappers":1,"roads":0.783488296930156,"buildings":1,"edits":447,"latest":"2018-11-01T08:23:46.000Z"},"geometry":{"type":"Point","coordinates":[44.4413630478819,43.1296771004067]}},{"type":"Feature","properties":{"id":5033,"title":"Karelia, RU - Road Alignment","status":"PUBLISHED","created":"2018","lastUpdated":"2018","lastActive":"no","area":15.783143957120704,"changesets":0,"mappers":0,"roads":0,"buildings":0,"edits":0,"latest":null},"geometry":{"type":"Point","coordinates":[32.653970249643,63.1683112124834]}},{"type":"Feature","properties":{"id":5100,"title":"Tatarstan, RU - Road Alignment","status":"PUBLISHED","created":"2018","lastUpdated":"2018","lastActive":"no","area":38.441103871968686,"changesets":78,"mappers":1,"roads":9.18679789220927,"buildings":48,"edits":656,"latest":"2018-11-14T22:07:11.000Z"},"geometry":{"type":"Point","coordinates":[51.8502575724872,55.4741248014356]}},{"type":"Feature","properties":{"id":5076,"title":"Kostroma, RU - Road Alignment","status":"PUBLISHED","created":"2018","lastUpdated":"2018","lastActive":"no","area":16.55786446991269,"changesets":15,"mappers":1,"roads":5.17449485836067,"buildings":50,"edits":265,"latest":"2018-11-13T22:32:46.000Z"},"geometry":{"type":"Point","coordinates":[43.391536924522,58.3815490365323]}},{"type":"Feature","properties":{"id":5098,"title":"Kirov, RU - Road Alignment","status":"PUBLISHED","created":"2018","lastUpdated":"2018","lastActive":"no","area":15.917259356789708,"changesets":17,"mappers":1,"roads":36.6975410331902,"buildings":163,"edits":874,"latest":"2018-10-25T09:45:05.000Z"},"geometry":{"type":"Point","coordinates":[49.5005171491877,58.0035735138105]}},{"type":"Feature","properties":{"id":5068,"title":"Kursk, RU - Road Alignment","status":"PUBLISHED","created":"2018","lastUpdated":"2018","lastActive":"no","area":11.035515934842362,"changesets":8,"mappers":1,"roads":0.0390462728168895,"buildings":0,"edits":58,"latest":"2018-11-01T10:06:42.000Z"},"geometry":{"type":"Point","coordinates":[36.0226384904065,51.6480514245577]}},{"type":"Feature","properties":{"id":5092,"title":"Krasnodar, RU - Road Alignment","status":"PUBLISHED","created":"2018","lastUpdated":"2018","lastActive":"yes","area":65.77382796758191,"changesets":352,"mappers":2,"roads":48.8915244323611,"buildings":910,"edits":4340,"latest":"2018-11-26T19:18:37.000Z"},"geometry":{"type":"Point","coordinates":[39.4116507753946,45.4518856931549]}},{"type":"Feature","properties":{"id":5078,"title":"Vladmi, RU - Road Alignment","status":"PUBLISHED","created":"2018","lastUpdated":"2018","lastActive":"no","area":19.39018729280983,"changesets":11,"mappers":1,"roads":0.0993819937216351,"buildings":0,"edits":136,"latest":"2018-11-15T20:12:22.000Z"},"geometry":{"type":"Point","coordinates":[41.4000375718571,56.0011972964679]}},{"type":"Feature","properties":{"id":5071,"title":"Belgorad, RU - Road Alignment","status":"PUBLISHED","created":"2018","lastUpdated":"2018","lastActive":"no","area":38.115130732068074,"changesets":51,"mappers":1,"roads":20.7782732699154,"buildings":39,"edits":608,"latest":"2018-11-20T22:22:38.000Z"},"geometry":{"type":"Point","coordinates":[37.4150271811611,50.6657608441237]}},{"type":"Feature","properties":{"id":5094,"title":"Rostov, RU - Road Alignment","status":"PUBLISHED","created":"2018","lastUpdated":"2018","lastActive":"no","area":62.059436486990585,"changesets":18,"mappers":1,"roads":0.459103509151284,"buildings":1,"edits":86,"latest":"2018-10-09T12:50:48.000Z"},"geometry":{"type":"Point","coordinates":[40.7358927267966,47.7150064178919]}}],"Zambia":[{"type":"Feature","properties":{"id":4961,"title":"Priority Areas, North-Western Province, Zambia Mini Grids Project 08","status":"PUBLISHED","created":"2018","lastUpdated":"2018","lastActive":"no","area":62.42190994922546,"changesets":213,"mappers":31,"roads":0.0456716403757625,"buildings":4762,"edits":4784,"latest":"2018-08-14T07:27:41.000Z"},"geometry":{"type":"Point","coordinates":[23.7742274914027,-13.2667271386372]}},{"type":"Feature","properties":{"id":4878,"title":"Priority Areas, North-Western Province, Zambia Mini Grids Project 01","status":"PUBLISHED","created":"2018","lastUpdated":"2018","lastActive":"no","area":399.8496665284776,"changesets":786,"mappers":37,"roads":0.602086118438431,"buildings":22637,"edits":22686,"latest":"2018-08-17T08:56:25.000Z"},"geometry":{"type":"Point","coordinates":[24.9458996814174,-13.1418260604171]}},{"type":"Feature","properties":{"id":4903,"title":"Priority Areas, Muchinga Province, Zambia Mini Grids Project 08","status":"PUBLISHED","created":"2018","lastUpdated":"2018","lastActive":"no","area":195.32850196315457,"changesets":248,"mappers":34,"roads":0.915803661040848,"buildings":3822,"edits":3850,"latest":"2018-08-03T10:01:03.000Z"},"geometry":{"type":"Point","coordinates":[30.6259586514312,-12.2108577580289]}},{"type":"Feature","properties":{"id":4905,"title":"Priority Areas, Muchinga Province, Zambia Mini Grids Project 08","status":"PUBLISHED","created":"2018","lastUpdated":"2018","lastActive":"no","area":208.73494423756583,"changesets":342,"mappers":35,"roads":0.236453175417115,"buildings":7886,"edits":7919,"latest":"2018-08-03T12:15:28.000Z"},"geometry":{"type":"Point","coordinates":[30.4084611744672,-12.212950717318]}},{"type":"Feature","properties":{"id":4948,"title":"Priority Areas, Western Province, Zambia Mini Grids Project 07","status":"PUBLISHED","created":"2018","lastUpdated":"2018","lastActive":"no","area":52.856725257049014,"changesets":226,"mappers":40,"roads":0.00342610791336639,"buildings":6747,"edits":6753,"latest":"2018-08-06T11:58:58.000Z"},"geometry":{"type":"Point","coordinates":[22.6439986370809,-14.7876866673254]}},{"type":"Feature","properties":{"id":4820,"title":"Priority Areas, Southern Province, Zambia Mini Grids Project 03","status":"ARCHIVED","created":"2018","lastUpdated":"2018","lastActive":"no","area":1047.4559738575663,"changesets":651,"mappers":35,"roads":0.0143433118122065,"buildings":18881,"edits":18884,"latest":"2018-07-06T07:00:01.000Z"},"geometry":{"type":"Point","coordinates":[28.3420956132482,-16.3836257536732]}},{"type":"Feature","properties":{"id":4950,"title":"Priority Areas, Northern Province, Zambia Mini Grids Project 08","status":"PUBLISHED","created":"2018","lastUpdated":"2018","lastActive":"no","area":234.71948219941723,"changesets":170,"mappers":31,"roads":0.0258509204979465,"buildings":1546,"edits":1554,"latest":"2018-08-02T12:19:31.000Z"},"geometry":{"type":"Point","coordinates":[30.8061614223634,-10.7847189392756]}},{"type":"Feature","properties":{"id":4937,"title":"Priority Areas, Northern Province, Zambia Mini Grids Project 06","status":"PUBLISHED","created":"2018","lastUpdated":"2018","lastActive":"no","area":1185.5772857089414,"changesets":1333,"mappers":34,"roads":0.00506049116688987,"buildings":15523,"edits":15525,"latest":"2018-08-13T11:50:43.000Z"},"geometry":{"type":"Point","coordinates":[30.0872517008454,-10.3611567028287]}},{"type":"Feature","properties":{"id":2641,"title":"Missing Maps: Zambia Malaria Elimination 51","status":"ARCHIVED","created":"2017","lastUpdated":"2017","lastActive":"no","area":31.791115128426945,"changesets":394,"mappers":4,"roads":0.00966484763269278,"buildings":3001,"edits":3101,"latest":"2017-04-20T08:28:56.000Z"},"geometry":{"type":"Point","coordinates":[27.4001075890881,-16.7999763980603]}},{"type":"Feature","properties":{"id":4945,"title":"Priority Areas, Western Province, Zambia Mini Grids Project 04","status":"PUBLISHED","created":"2018","lastUpdated":"2018","lastActive":"no","area":804.0519879215597,"changesets":314,"mappers":40,"roads":0.00317335355418891,"buildings":3346,"edits":3349,"latest":"2018-08-07T08:31:00.000Z"},"geometry":{"type":"Point","coordinates":[23.1534648552369,-14.7914819377237]}},{"type":"Feature","properties":{"id":2613,"title":"Missing Maps: Zambia Malaria Elimination 42","status":"ARCHIVED","created":"2017","lastUpdated":"2017","lastActive":"no","area":34.20674904384274,"changesets":797,"mappers":58,"roads":69.4566018998316,"buildings":3701,"edits":3997,"latest":"2017-03-27T07:55:49.000Z"},"geometry":{"type":"Point","coordinates":[27.4023544901047,-16.5187437761834]}},{"type":"Feature","properties":{"id":4859,"title":"Priority Areas, Eastern Province, Zambia Mini Grids Project 01","status":"ARCHIVED","created":"2018","lastUpdated":"2018","lastActive":"no","area":1248.2305353046686,"changesets":1213,"mappers":29,"roads":0.0390268800056372,"buildings":50442,"edits":50454,"latest":"2018-07-13T09:25:13.000Z"},"geometry":{"type":"Point","coordinates":[32.7261623523745,-13.2437373001181]}},{"type":"Feature","properties":{"id":4815,"title":"Priority Areas, Southern Province, Zambia Mini Grids Project 01","status":"PUBLISHED","created":"2018","lastUpdated":"2018","lastActive":"no","area":2421.4759557891675,"changesets":3756,"mappers":40,"roads":0.0343579811795723,"buildings":66955,"edits":66966,"latest":"2018-07-16T14:03:50.000Z"},"geometry":{"type":"Point","coordinates":[26.5621274778074,-16.4445758757379]}},{"type":"Feature","properties":{"id":4844,"title":"Priority Areas, Muchinga Province, Zambia Mini Grids Project 02","status":"PUBLISHED","created":"2018","lastUpdated":"2018","lastActive":"no","area":117.96969471416107,"changesets":441,"mappers":34,"roads":27.9742743624376,"buildings":13541,"edits":13560,"latest":"2018-07-19T09:12:40.000Z"},"geometry":{"type":"Point","coordinates":[32.248068994447,-10.1170343784785]}},{"type":"Feature","properties":{"id":2633,"title":"Missing Maps: Zambia Malaria Elimination 48","status":"ARCHIVED","created":"2017","lastUpdated":"2017","lastActive":"no","area":32.57131581006427,"changesets":500,"mappers":35,"roads":2.44756255431118,"buildings":3279,"edits":3316,"latest":"2017-03-14T11:37:25.000Z"},"geometry":{"type":"Point","coordinates":[27.537414156998,-16.6966256500116]}},{"type":"Feature","properties":{"id":2605,"title":"Missing Maps: Zambia Malaria Elimination 36","status":"ARCHIVED","created":"2017","lastUpdated":"2017","lastActive":"no","area":44.753791671609655,"changesets":843,"mappers":108,"roads":446.771408867532,"buildings":5729,"edits":7002,"latest":"2017-03-25T11:28:00.000Z"},"geometry":{"type":"Point","coordinates":[27.161827481475,-16.4392560957868]}},{"type":"Feature","properties":{"id":2623,"title":"Missing Maps: Zambia Malaria Elimination 44","status":"ARCHIVED","created":"2017","lastUpdated":"2017","lastActive":"no","area":48.79156262885752,"changesets":716,"mappers":71,"roads":6.99278637098004,"buildings":3963,"edits":4037,"latest":"2017-07-11T19:02:08.000Z"},"geometry":{"type":"Point","coordinates":[27.5674841857883,-16.5988506403521]}},{"type":"Feature","properties":{"id":2543,"title":"Missing Maps: Kanyama, Lusaka, Zambia - Cholera Crisis - Buildings Only - Zone 4","status":"PUBLISHED","created":"2017","lastUpdated":"2017","lastActive":"no","area":0.9470639118601474,"changesets":520,"mappers":25,"roads":0.847052105657445,"buildings":10436,"edits":13972,"latest":"2017-04-14T08:01:31.000Z"},"geometry":{"type":"Point","coordinates":[28.2549772567581,-15.4283251911849]}},{"type":"Feature","properties":{"id":5231,"title":"Missing Maps - Zambia - Mongu centre2","status":"ARCHIVED","created":"2018","lastUpdated":"2018","lastActive":"no","area":8.07328076511913,"changesets":512,"mappers":48,"roads":43.1174108384455,"buildings":5945,"edits":6708,"latest":"2018-09-24T14:29:59.000Z"},"geometry":{"type":"Point","coordinates":[23.1451122969085,-15.2747772857719]}},{"type":"Feature","properties":{"id":1484,"title":"Mayukwayukwa Refugee Camp, Orientale Province, Zambia","status":"PUBLISHED","created":"2016","lastUpdated":"2017","lastActive":"no","area":79.68379557842741,"changesets":456,"mappers":54,"roads":494.708091818575,"buildings":2041,"edits":8445,"latest":"2017-01-17T13:21:46.000Z"},"geometry":{"type":"Point","coordinates":[24.1974973288105,-14.5525750273743]}},{"type":"Feature","properties":{"id":4922,"title":"Priority Areas, Northern Province, Zambia Mini Grids Project 02","status":"PUBLISHED","created":"2018","lastUpdated":"2018","lastActive":"no","area":267.4433204018853,"changesets":322,"mappers":35,"roads":0.00175040133063931,"buildings":5023,"edits":5023,"latest":"2018-08-07T12:28:55.000Z"},"geometry":{"type":"Point","coordinates":[30.2291389871152,-9.46386425129326]}},{"type":"Feature","properties":{"id":4933,"title":"Priority Areas, Northern Province, Zambia Mini Grids Project 05","status":"PUBLISHED","created":"2018","lastUpdated":"2018","lastActive":"no","area":1619.0724840432163,"changesets":1368,"mappers":37,"roads":0.00745079653607594,"buildings":20708,"edits":20715,"latest":"2018-08-10T11:22:25.000Z"},"geometry":{"type":"Point","coordinates":[30.3334124658576,-10.7284504545683]}},{"type":"Feature","properties":{"id":4883,"title":"Priority Areas, North-Western Province, Zambia Mini Grids Project 04","status":"PUBLISHED","created":"2018","lastUpdated":"2018","lastActive":"no","area":26.577579403472903,"changesets":84,"mappers":28,"roads":0.0327637665611748,"buildings":3703,"edits":3705,"latest":"2018-07-20T12:13:09.000Z"},"geometry":{"type":"Point","coordinates":[24.9483966190181,-13.596002453546]}},{"type":"Feature","properties":{"id":2589,"title":"Missing Maps: Zambia Malaria Elimination 28","status":"ARCHIVED","created":"2017","lastUpdated":"2017","lastActive":"no","area":48.38205996241602,"changesets":1278,"mappers":56,"roads":24.505756009633,"buildings":7465,"edits":7886,"latest":"2017-03-30T07:48:05.000Z"},"geometry":{"type":"Point","coordinates":[27.4374700656247,-16.150438096581]}},{"type":"Feature","properties":{"id":4973,"title":"Priority Areas, Northern Province, Zambia Mini Grids Project 10","status":"PUBLISHED","created":"2018","lastUpdated":"2018","lastActive":"no","area":1633.8093711185227,"changesets":1681,"mappers":30,"roads":6.41696979581537,"buildings":18945,"edits":19694,"latest":"2018-08-14T11:28:58.000Z"},"geometry":{"type":"Point","coordinates":[33.0320112059923,-9.68945187433094]}},{"type":"Feature","properties":{"id":4959,"title":"Priority Areas, Muchinga Province, Zambia Mini Grids Project 10","status":"PUBLISHED","created":"2018","lastUpdated":"2018","lastActive":"no","area":17.589736562807172,"changesets":1,"mappers":1,"roads":0,"buildings":0,"edits":0,"latest":"2018-08-06T11:16:25.000Z"},"geometry":{"type":"Point","coordinates":[30.6198102841667,-12.4054873343945]}},{"type":"Feature","properties":{"id":2596,"title":"Missing Maps: Zambia Malaria Elimination 34","status":"ARCHIVED","created":"2017","lastUpdated":"2017","lastActive":"no","area":41.75863317020604,"changesets":595,"mappers":57,"roads":69.4666263553352,"buildings":2590,"edits":2841,"latest":"2017-05-12T13:20:22.000Z"},"geometry":{"type":"Point","coordinates":[27.2748432297805,-16.343342308143]}},{"type":"Feature","properties":{"id":4954,"title":"Priority Areas, Muchinga Province, Zambia Mini Grids Project 09","status":"PUBLISHED","created":"2018","lastUpdated":"2018","lastActive":"no","area":1400.150703741115,"changesets":1440,"mappers":38,"roads":2.31439887632379,"buildings":45766,"edits":45968,"latest":"2018-08-09T11:42:10.000Z"},"geometry":{"type":"Point","coordinates":[33.3890547617494,-10.2793352264361]}},{"type":"Feature","properties":{"id":4942,"title":"Priority Areas, Western Province, Zambia Mini Grids Project 05","status":"PUBLISHED","created":"2018","lastUpdated":"2018","lastActive":"no","area":65.6747276055282,"changesets":271,"mappers":41,"roads":0,"buildings":9826,"edits":9826,"latest":"2018-08-07T09:56:48.000Z"},"geometry":{"type":"Point","coordinates":[23.6275817161252,-15.5580334747978]}},{"type":"Feature","properties":{"id":5200,"title":"Missing Maps - Zambia - Kalabo2 (south)","status":"ARCHIVED","created":"2018","lastUpdated":"2018","lastActive":"no","area":21.075537853372495,"changesets":210,"mappers":26,"roads":131.150734370826,"buildings":528,"edits":1258,"latest":"2018-10-19T13:20:46.000Z"},"geometry":{"type":"Point","coordinates":[22.6796429688639,-15.0431496521223]}},{"type":"Feature","properties":{"id":4994,"title":"Missing Maps - Zambia - Kalabo","status":"ARCHIVED","created":"2018","lastUpdated":"2018","lastActive":"no","area":42.40842194753424,"changesets":677,"mappers":36,"roads":407.521760117119,"buildings":4512,"edits":7041,"latest":"2018-10-29T14:39:36.000Z"},"geometry":{"type":"Point","coordinates":[22.6657569509904,-15.0166112347884]}},{"type":"Feature","properties":{"id":2757,"title":"Missing Maps: Zambia Malaria Elimination 72","status":"ARCHIVED","created":"2017","lastUpdated":"2017","lastActive":"no","area":30.78403487211502,"changesets":389,"mappers":28,"roads":0,"buildings":2146,"edits":2146,"latest":"2017-04-04T14:16:36.000Z"},"geometry":{"type":"Point","coordinates":[26.5256121601278,-17.2547069167342]}},{"type":"Feature","properties":{"id":2698,"title":"Missing Maps: Zambia Malaria Elimination 65","status":"ARCHIVED","created":"2017","lastUpdated":"2017","lastActive":"no","area":45.4940226768803,"changesets":553,"mappers":37,"roads":38.9228921104259,"buildings":3784,"edits":4078,"latest":"2017-03-27T10:25:14.000Z"},"geometry":{"type":"Point","coordinates":[26.7322447108227,-17.0359700650714]}},{"type":"Feature","properties":{"id":2660,"title":"Missing Maps: Zambia Malaria Elimination 54","status":"ARCHIVED","created":"2017","lastUpdated":"2017","lastActive":"no","area":48.31641609564321,"changesets":1065,"mappers":64,"roads":31.5395520056465,"buildings":3589,"edits":4007,"latest":"2017-04-26T20:37:39.000Z"},"geometry":{"type":"Point","coordinates":[26.8375310841676,-16.6741735625183]}},{"type":"Feature","properties":{"id":2730,"title":"Missing Maps: Zambia Malaria Elimination 67","status":"ARCHIVED","created":"2017","lastUpdated":"2017","lastActive":"no","area":56.33934549915492,"changesets":738,"mappers":86,"roads":373.243600699255,"buildings":3976,"edits":6044,"latest":"2017-03-30T14:10:52.000Z"},"geometry":{"type":"Point","coordinates":[27.0062720546434,-17.0350331230293]}},{"type":"Feature","properties":{"id":2694,"title":"Missing Maps: Zambia Malaria Elimination 61","status":"ARCHIVED","created":"2017","lastUpdated":"2017","lastActive":"no","area":52.12083766112771,"changesets":1071,"mappers":100,"roads":90.3137322450952,"buildings":4021,"edits":5009,"latest":"2017-08-31T14:06:38.000Z"},"geometry":{"type":"Point","coordinates":[27.1939724854381,-16.898602684166]}},{"type":"Feature","properties":{"id":1630,"title":"Meheba Refugee Camp, Orientale Province, Zambia","status":"PUBLISHED","created":"2016","lastUpdated":"2018","lastActive":"no","area":571.3092959181358,"changesets":1266,"mappers":46,"roads":1338.14496774085,"buildings":8517,"edits":18055,"latest":"2018-07-18T13:01:51.000Z"},"geometry":{"type":"Point","coordinates":[25.8799543120095,-12.4909479937957]}},{"type":"Feature","properties":{"id":1985,"title":"Livingstone District","status":"ARCHIVED","created":"2016","lastUpdated":"2017","lastActive":"no","area":1410.1440580372778,"changesets":2645,"mappers":115,"roads":898.550362927222,"buildings":62760,"edits":72734,"latest":"2016-11-05T05:45:24.000Z"},"geometry":{"type":"Point","coordinates":[25.9018638485985,-17.689744421582]}},{"type":"Feature","properties":{"id":2470,"title":"Missing Maps: Kanyama, Lusaka, Zambia - Cholera Crisis - Buildings Only","status":"ARCHIVED","created":"2017","lastUpdated":"2017","lastActive":"no","area":3.0479745782061567,"changesets":571,"mappers":64,"roads":285.227068966126,"buildings":13503,"edits":14555,"latest":"2017-02-20T00:46:35.000Z"},"geometry":{"type":"Point","coordinates":[28.2474062583554,-15.4340326583418]}},{"type":"Feature","properties":{"id":5172,"title":"Missing Maps - Zambia - Limulunga","status":"ARCHIVED","created":"2018","lastUpdated":"2018","lastActive":"no","area":12.712710414575804,"changesets":149,"mappers":18,"roads":39.4267387243411,"buildings":2634,"edits":3095,"latest":"2018-09-11T13:11:05.000Z"},"geometry":{"type":"Point","coordinates":[23.1467113223816,-15.1304589194704]}},{"type":"Feature","properties":{"id":3743,"title":"Mapping Chinsali Council, Muchinga Province, Zambia","status":"PUBLISHED","created":"2017","lastUpdated":"2018","lastActive":"no","area":18.90041308791517,"changesets":185,"mappers":12,"roads":115.037378693772,"buildings":4142,"edits":7226,"latest":"2018-01-11T15:23:55.000Z"},"geometry":{"type":"Point","coordinates":[32.0699920470507,-10.5493463883295]}},{"type":"Feature","properties":{"id":1850,"title":"Peace Corps Zambia -- Chongwe","status":"ARCHIVED","created":"2016","lastUpdated":"2016","lastActive":"no","area":15.78878457562414,"changesets":157,"mappers":33,"roads":24.2593874468821,"buildings":788,"edits":1127,"latest":"2016-06-21T19:38:32.000Z"},"geometry":{"type":"Point","coordinates":[28.6757137724548,-15.3323089385514]}},{"type":"Feature","properties":{"id":3992,"title":"Zambia Cholera Outbreak","status":"PUBLISHED","created":"2018","lastUpdated":"2018","lastActive":"no","area":4.036566110310592,"changesets":608,"mappers":32,"roads":29.2512963162562,"buildings":4494,"edits":5618,"latest":"2018-01-08T03:28:50.000Z"},"geometry":{"type":"Point","coordinates":[28.2443472716737,-15.4546130087783]}},{"type":"Feature","properties":{"id":4827,"title":"Priority Areas, Southern Province, Zambia Mini Grids Project 06","status":"PUBLISHED","created":"2018","lastUpdated":"2018","lastActive":"no","area":196.74034064721903,"changesets":304,"mappers":33,"roads":0.0373206177418661,"buildings":7085,"edits":7086,"latest":"2018-07-19T09:55:25.000Z"},"geometry":{"type":"Point","coordinates":[27.492882028221,-16.8368382203306]}},{"type":"Feature","properties":{"id":2473,"title":"Missing Maps: Kanyama, Lusaka, Zambia - Cholera Crisis - Buildings Only - Area 2","status":"ARCHIVED","created":"2017","lastUpdated":"2017","lastActive":"no","area":4.097444955118227,"changesets":960,"mappers":69,"roads":1.24701144334619,"buildings":14460,"edits":14939,"latest":"2017-02-02T00:10:35.000Z"},"geometry":{"type":"Point","coordinates":[28.2347584624704,-15.4362575093508]}},{"type":"Feature","properties":{"id":2539,"title":"Missing Maps: Zambia Malaria Elimination 3","status":"ARCHIVED","created":"2017","lastUpdated":"2017","lastActive":"no","area":47.85281626919188,"changesets":2132,"mappers":67,"roads":210.90010582889,"buildings":10376,"edits":11864,"latest":"2017-03-25T11:48:59.000Z"},"geometry":{"type":"Point","coordinates":[26.7206669822313,-15.482276061765]}},{"type":"Feature","properties":{"id":2554,"title":"Missing Maps: Zambia Malaria Elimination 9","status":"ARCHIVED","created":"2017","lastUpdated":"2017","lastActive":"no","area":46.63360623178158,"changesets":1400,"mappers":77,"roads":91.0983080137419,"buildings":11789,"edits":12218,"latest":"2017-03-24T12:08:48.000Z"},"geometry":{"type":"Point","coordinates":[27.9162150772687,-15.8650475722509]}},{"type":"Feature","properties":{"id":2568,"title":"Missing Maps: Zambia Malaria Elimination 16","status":"ARCHIVED","created":"2017","lastUpdated":"2017","lastActive":"no","area":33.45666280635502,"changesets":1374,"mappers":53,"roads":19.0981468558553,"buildings":9558,"edits":9838,"latest":"2017-03-24T19:33:24.000Z"},"geometry":{"type":"Point","coordinates":[27.8088598196124,-16.1509845533222]}},{"type":"Feature","properties":{"id":2564,"title":"Missing Maps: Zambia Malaria Elimination 13","status":"ARCHIVED","created":"2017","lastUpdated":"2017","lastActive":"no","area":56.69497094655045,"changesets":1658,"mappers":79,"roads":7.43757499480842,"buildings":13947,"edits":14009,"latest":"2017-03-27T02:04:28.000Z"},"geometry":{"type":"Point","coordinates":[28.1346276664275,-16.0665704523542]}},{"type":"Feature","properties":{"id":2570,"title":"Missing Maps: Zambia Malaria Elimination 18","status":"ARCHIVED","created":"2017","lastUpdated":"2017","lastActive":"no","area":40.265860179426525,"changesets":1259,"mappers":53,"roads":11.0265424356229,"buildings":9511,"edits":9739,"latest":"2017-03-23T04:33:37.000Z"},"geometry":{"type":"Point","coordinates":[27.7552911263455,-16.2151912459413]}},{"type":"Feature","properties":{"id":2581,"title":"Missing Maps: Zambia Malaria Elimination 20","status":"ARCHIVED","created":"2017","lastUpdated":"2017","lastActive":"no","area":38.16669959165131,"changesets":1058,"mappers":54,"roads":22.504826579566,"buildings":5525,"edits":6767,"latest":"2017-03-27T07:54:59.000Z"},"geometry":{"type":"Point","coordinates":[27.641978536512,-16.123850659574]}},{"type":"Feature","properties":{"id":2765,"title":"Mistake Do Not Use","status":"ARCHIVED","created":"2017","lastUpdated":"2017","lastActive":"no","area":27.331276133688156,"changesets":0,"mappers":0,"roads":0,"buildings":0,"edits":0,"latest":null},"geometry":{"type":"Point","coordinates":[27.9848791243,-16.0892558881978]}},{"type":"Feature","properties":{"id":1223,"title":"Peace Corps Zambia -- Mukonchi","status":"PUBLISHED","created":"2015","lastUpdated":"2016","lastActive":"no","area":4.289717557054117,"changesets":240,"mappers":4,"roads":72.5224569621769,"buildings":1197,"edits":1885,"latest":"2016-01-18T18:14:54.000Z"},"geometry":{"type":"Point","coordinates":[28.8208715196713,-14.2669367060573]}},{"type":"Feature","properties":{"id":2585,"title":"Missing Maps: Zambia Malaria Elimination 24","status":"ARCHIVED","created":"2017","lastUpdated":"2017","lastActive":"no","area":45.640231042502336,"changesets":1130,"mappers":58,"roads":3.23377267316928,"buildings":7223,"edits":7383,"latest":"2017-03-29T02:58:36.000Z"},"geometry":{"type":"Point","coordinates":[27.5837411428749,-16.3334845054347]}},{"type":"Feature","properties":{"id":2566,"title":"Missing Maps: Zambia Malaria Elimination 14","status":"ARCHIVED","created":"2017","lastUpdated":"2017","lastActive":"no","area":57.65449460173831,"changesets":1552,"mappers":63,"roads":2.83580702588112,"buildings":16749,"edits":16926,"latest":"2017-04-07T12:01:50.000Z"},"geometry":{"type":"Point","coordinates":[28.122352304328,-16.2042708842274]}},{"type":"Feature","properties":{"id":2587,"title":"Missing Maps: Zambia Malaria Elimination 26","status":"ARCHIVED","created":"2017","lastUpdated":"2017","lastActive":"no","area":48.47737778370312,"changesets":1359,"mappers":51,"roads":14.6576054579623,"buildings":9391,"edits":9515,"latest":"2017-03-28T13:22:21.000Z"},"geometry":{"type":"Point","coordinates":[28.1794821130395,-15.8658428913252]}},{"type":"Feature","properties":{"id":2547,"title":"Missing Maps: Zambia Malaria Elimination 7","status":"ARCHIVED","created":"2017","lastUpdated":"2017","lastActive":"no","area":52.427783564638844,"changesets":1886,"mappers":75,"roads":65.5101126680653,"buildings":12773,"edits":13399,"latest":"2017-07-13T01:59:29.000Z"},"geometry":{"type":"Point","coordinates":[26.4802715979837,-15.780440516558]}},{"type":"Feature","properties":{"id":2549,"title":"Zambia14","status":"ARCHIVED","created":"2017","lastUpdated":"2017","lastActive":"no","area":30.905717274348312,"changesets":0,"mappers":0,"roads":0,"buildings":0,"edits":0,"latest":null},"geometry":{"type":"Point","coordinates":[26.8995524285374,-15.9672565612992]}},{"type":"Feature","properties":{"id":2562,"title":"Missing Maps: Zambia Malaria Elimination 11","status":"ARCHIVED","created":"2017","lastUpdated":"2017","lastActive":"no","area":35.92752078925789,"changesets":651,"mappers":65,"roads":1.58523798925695,"buildings":5055,"edits":5085,"latest":"2017-03-24T06:14:13.000Z"},"geometry":{"type":"Point","coordinates":[28.1010543332572,-15.9357645571568]}},{"type":"Feature","properties":{"id":2545,"title":"Missing Maps: Zambia Malaria Elimination 5","status":"ARCHIVED","created":"2017","lastUpdated":"2017","lastActive":"no","area":29.240261299687603,"changesets":2462,"mappers":63,"roads":59.6692415195899,"buildings":19056,"edits":19476,"latest":"2017-07-21T09:55:23.000Z"},"geometry":{"type":"Point","coordinates":[26.0720422320165,-15.9727674891682]}},{"type":"Feature","properties":{"id":5064,"title":"Zambia-Sinda Residential Buildings Mapping","status":"PUBLISHED","created":"2018","lastUpdated":"2018","lastActive":"no","area":4029.788113014448,"changesets":1591,"mappers":66,"roads":104.501620490992,"buildings":90390,"edits":90736,"latest":"2018-11-05T21:07:46.000Z"},"geometry":{"type":"Point","coordinates":[31.7262927407117,-14.2579734458589]}},{"type":"Feature","properties":{"id":2583,"title":"Missing Maps: Zambia Malaria Elimination 22","status":"ARCHIVED","created":"2017","lastUpdated":"2017","lastActive":"no","area":34.18059431752515,"changesets":771,"mappers":42,"roads":0.996544975341289,"buildings":5804,"edits":5856,"latest":"2017-03-31T12:29:12.000Z"},"geometry":{"type":"Point","coordinates":[27.6589125365533,-16.2620039900826]}},{"type":"Feature","properties":{"id":2592,"title":"Missing Maps: Zambia Malaria Elimination 30","status":"ARCHIVED","created":"2017","lastUpdated":"2017","lastActive":"no","area":48.89367966790246,"changesets":929,"mappers":62,"roads":8.39795410362155,"buildings":5011,"edits":5076,"latest":"2017-04-27T22:45:51.000Z"},"geometry":{"type":"Point","coordinates":[27.1605308545981,-16.179257781807]}},{"type":"Feature","properties":{"id":2594,"title":"Missing Maps: Zambia Malaria Elimination 32","status":"ARCHIVED","created":"2017","lastUpdated":"2017","lastActive":"no","area":43.26936567615261,"changesets":1273,"mappers":70,"roads":18.9927893029869,"buildings":7488,"edits":7992,"latest":"2017-04-08T00:18:09.000Z"},"geometry":{"type":"Point","coordinates":[27.3457489157097,-16.2479875735404]}},{"type":"Feature","properties":{"id":2611,"title":"Missing Maps: Zambia Malaria Elimination 40","status":"ARCHIVED","created":"2017","lastUpdated":"2017","lastActive":"no","area":46.032921401337944,"changesets":1214,"mappers":68,"roads":93.1964349675993,"buildings":9730,"edits":11380,"latest":"2017-04-10T00:49:03.000Z"},"geometry":{"type":"Point","coordinates":[27.5760387640245,-16.4560598833974]}},{"type":"Feature","properties":{"id":2607,"title":"Missing Maps: Zambia Malaria Elimination 38","status":"ARCHIVED","created":"2017","lastUpdated":"2017","lastActive":"no","area":39.885067149317884,"changesets":2853,"mappers":69,"roads":32.2568933614399,"buildings":16567,"edits":17223,"latest":"2017-06-10T16:37:04.000Z"},"geometry":{"type":"Point","coordinates":[27.3140013351165,-16.4411592545615]}},{"type":"Feature","properties":{"id":2639,"title":"Missing Maps: Zambia Malaria Elimination 49","status":"ARCHIVED","created":"2017","lastUpdated":"2017","lastActive":"no","area":52.814073050735566,"changesets":852,"mappers":67,"roads":23.8160874785416,"buildings":5854,"edits":6222,"latest":"2017-03-28T13:32:47.000Z"},"geometry":{"type":"Point","coordinates":[27.2697037774623,-16.746202197447]}},{"type":"Feature","properties":{"id":2631,"title":"Missing Maps: Zambia Malaria Elimination 46","status":"ARCHIVED","created":"2017","lastUpdated":"2017","lastActive":"no","area":39.983921412768375,"changesets":491,"mappers":67,"roads":73.66628039145,"buildings":1499,"edits":1809,"latest":"2017-03-17T14:59:40.000Z"},"geometry":{"type":"Point","coordinates":[27.2661845406609,-16.5416785036011]}},{"type":"Feature","properties":{"id":2671,"title":"Missing Maps: Zambia Malaria Elimination 59","status":"ARCHIVED","created":"2017","lastUpdated":"2017","lastActive":"no","area":53.983168673328294,"changesets":606,"mappers":52,"roads":55.5653175535778,"buildings":3293,"edits":3585,"latest":"2017-04-10T07:33:21.000Z"},"geometry":{"type":"Point","coordinates":[26.7801556416528,-16.868925492807]}},{"type":"Feature","properties":{"id":2696,"title":"Missing Maps: Zambia Malaria Elimination 63","status":"ARCHIVED","created":"2017","lastUpdated":"2017","lastActive":"no","area":40.00701214726156,"changesets":730,"mappers":113,"roads":80.1397702085043,"buildings":2948,"edits":3980,"latest":"2017-03-25T15:14:51.000Z"},"geometry":{"type":"Point","coordinates":[26.3263061356791,-17.0723213651034]}},{"type":"Feature","properties":{"id":2662,"title":"Missing Maps: Zambia Malaria Elimination 56","status":"ARCHIVED","created":"2017","lastUpdated":"2017","lastActive":"no","area":41.22931300255509,"changesets":473,"mappers":34,"roads":34.9486193133669,"buildings":2297,"edits":2676,"latest":"2017-04-07T14:52:29.000Z"},"geometry":{"type":"Point","coordinates":[26.5769400034605,-16.7034656687689]}},{"type":"Feature","properties":{"id":2669,"title":"Missing Maps: Zambia Malaria Elimination 57","status":"ARCHIVED","created":"2017","lastUpdated":"2017","lastActive":"no","area":55.88803814252673,"changesets":1112,"mappers":52,"roads":69.3347912659,"buildings":5338,"edits":5892,"latest":"2017-04-09T11:12:22.000Z"},"geometry":{"type":"Point","coordinates":[26.5525450023961,-16.8546851465236]}},{"type":"Feature","properties":{"id":2737,"title":"Mistake Do Not Use","status":"ARCHIVED","created":"2017","lastUpdated":"2017","lastActive":"no","area":52.427783564638844,"changesets":0,"mappers":0,"roads":0,"buildings":0,"edits":0,"latest":null},"geometry":{"type":"Point","coordinates":[26.4802715979837,-15.780440516558]}},{"type":"Feature","properties":{"id":2735,"title":"Missing Maps: Zambia Malaria Elimination 69","status":"ARCHIVED","created":"2017","lastUpdated":"2017","lastActive":"no","area":54.456940297073714,"changesets":818,"mappers":41,"roads":829.338060121107,"buildings":8209,"edits":12361,"latest":"2017-04-18T19:55:15.000Z"},"geometry":{"type":"Point","coordinates":[27.0614325223308,-17.1644080663634]}},{"type":"Feature","properties":{"id":2756,"title":"Missing Maps: Zambia Malaria Elimination 71","status":"ARCHIVED","created":"2017","lastUpdated":"2017","lastActive":"no","area":54.93276423403359,"changesets":730,"mappers":27,"roads":0.461838445395334,"buildings":4170,"edits":4174,"latest":"2017-04-22T12:51:29.000Z"},"geometry":{"type":"Point","coordinates":[26.7128319576413,-17.2332150949172]}},{"type":"Feature","properties":{"id":2764,"title":"Mistake Do Not Use","status":"ARCHIVED","created":"2017","lastUpdated":"2017","lastActive":"no","area":35.92752078925789,"changesets":0,"mappers":0,"roads":0,"buildings":0,"edits":0,"latest":null},"geometry":{"type":"Point","coordinates":[28.1010543332572,-15.9357645571568]}},{"type":"Feature","properties":{"id":1236,"title":"Peace Corps Zambia- Kagunda Area","status":"PUBLISHED","created":"2015","lastUpdated":"2017","lastActive":"no","area":16.40709299151716,"changesets":131,"mappers":11,"roads":101.257164895652,"buildings":990,"edits":1987,"latest":"2018-01-23T13:38:54.000Z"},"geometry":{"type":"Point","coordinates":[32.6028885808639,-13.710229156854]}},{"type":"Feature","properties":{"id":2772,"title":"Missing Maps: Zambia Malaria Elimination 75","status":"ARCHIVED","created":"2017","lastUpdated":"2017","lastActive":"no","area":33.231101952285634,"changesets":341,"mappers":28,"roads":0.297108756357538,"buildings":2085,"edits":2088,"latest":"2017-04-28T08:57:01.000Z"},"geometry":{"type":"Point","coordinates":[26.4695046091455,-17.4157749584222]}},{"type":"Feature","properties":{"id":2760,"title":"Missing Maps: Zambia Malaria Elimination 73","status":"ARCHIVED","created":"2017","lastUpdated":"2017","lastActive":"no","area":41.93487676992502,"changesets":658,"mappers":48,"roads":102.893213904753,"buildings":3482,"edits":4158,"latest":"2017-06-22T12:17:31.000Z"},"geometry":{"type":"Point","coordinates":[26.6851468246255,-17.3534718940058]}},{"type":"Feature","properties":{"id":2778,"title":"Missing Maps: Zambia Malaria Elimination 77","status":"ARCHIVED","created":"2017","lastUpdated":"2017","lastActive":"no","area":42.26158786311957,"changesets":561,"mappers":33,"roads":2.15378939549018,"buildings":3404,"edits":3418,"latest":"2017-04-10T14:45:32.000Z"},"geometry":{"type":"Point","coordinates":[26.0331956739105,-17.2965993386355]}}],"Bangladesh":[{"type":"Feature","properties":{"id":4198,"title":"Bangladesh Refugee Crisis - tracing roads","status":"PUBLISHED","created":"2018","lastUpdated":"2018","lastActive":"no","area":26.01173793152424,"changesets":34,"mappers":7,"roads":11.6076130874848,"buildings":241,"edits":741,"latest":"2018-10-14T12:54:12.000Z"},"geometry":{"type":"Point","coordinates":[92.1507868454089,21.197199696541]}},{"type":"Feature","properties":{"id":5478,"title":"Missing Maps: Teknaf, Cox's Bazar, Bangladesh (2)","status":"PUBLISHED","created":"2018","lastUpdated":"2018","lastActive":"yes","area":29.654833641202238,"changesets":368,"mappers":54,"roads":44.0934944924569,"buildings":1299,"edits":1939,"latest":"2018-11-26T21:04:20.000Z"},"geometry":{"type":"Point","coordinates":[92.3060051117919,20.8144810746799]}},{"type":"Feature","properties":{"id":4009,"title":"Bangladesh Refugee Crisis - Kutupalong camp shelters (new area 1)","status":"ARCHIVED","created":"2018","lastUpdated":"2018","lastActive":"no","area":0.8950801094137826,"changesets":1219,"mappers":78,"roads":8.13770653298807,"buildings":11106,"edits":11348,"latest":"2018-01-24T11:15:14.000Z"},"geometry":{"type":"Point","coordinates":[92.1530673585344,21.1817077832931]}},{"type":"Feature","properties":{"id":3939,"title":"Bangladesh Population Movement - Kutupalong camp and surrounding settlements","status":"ARCHIVED","created":"2017","lastUpdated":"2018","lastActive":"no","area":1.3753135755901653,"changesets":851,"mappers":65,"roads":54.4662760182813,"buildings":14696,"edits":18516,"latest":"2017-12-21T10:21:14.000Z"},"geometry":{"type":"Point","coordinates":[92.1498699040256,21.1895559391536]}},{"type":"Feature","properties":{"id":4145,"title":"Bangladesh Refugee Crisis - Kutupalong camp shelters (new area 14)","status":"ARCHIVED","created":"2018","lastUpdated":"2018","lastActive":"no","area":0.6770310679773668,"changesets":478,"mappers":56,"roads":4.79389392618713,"buildings":11076,"edits":11710,"latest":"2018-02-21T02:42:17.000Z"},"geometry":{"type":"Point","coordinates":[92.1561954122302,21.1903851920751]}},{"type":"Feature","properties":{"id":845,"title":"MissingMaps: Moghbazar, Dhaka","status":"ARCHIVED","created":"2015","lastUpdated":"2017","lastActive":"no","area":2.2870781056501044,"changesets":431,"mappers":35,"roads":13.1378265731026,"buildings":3871,"edits":4588,"latest":"2015-11-23T19:17:57.000Z"},"geometry":{"type":"Point","coordinates":[90.4127142101335,23.758732094763]}},{"type":"Feature","properties":{"id":4797,"title":"Bangladesh Refugee Crisis camp mapping - NW of megacamp 2 Update","status":"ARCHIVED","created":"2018","lastUpdated":"2018","lastActive":"no","area":0.22455568991710326,"changesets":338,"mappers":36,"roads":18.9723021238568,"buildings":1545,"edits":2749,"latest":"2018-07-03T14:31:24.000Z"},"geometry":{"type":"Point","coordinates":[92.1421345434211,21.2064290590785]}},{"type":"Feature","properties":{"id":4473,"title":"Bangladesh Refugee Crisis - Kutupalong camp shelters (new area 18)","status":"ARCHIVED","created":"2018","lastUpdated":"2018","lastActive":"no","area":2.007783828831955,"changesets":622,"mappers":91,"roads":28.4368366133859,"buildings":6510,"edits":8396,"latest":"2018-05-27T17:52:35.000Z"},"geometry":{"type":"Point","coordinates":[92.1420695382031,21.1932191290579]}},{"type":"Feature","properties":{"id":4651,"title":"Bangladesh Refugee Crisis - Teknaf camp shelters (new area 21)","status":"ARCHIVED","created":"2018","lastUpdated":"2018","lastActive":"no","area":0.338285962560821,"changesets":276,"mappers":18,"roads":6.52330328892298,"buildings":2044,"edits":2286,"latest":"2018-06-07T11:51:31.000Z"},"geometry":{"type":"Point","coordinates":[92.2537198202293,20.9585820642033]}},{"type":"Feature","properties":{"id":4605,"title":"Bangladesh Refugee Crisis camp mapping - Charkmarkul camp","status":"ARCHIVED","created":"2018","lastUpdated":"2018","lastActive":"no","area":38.2691530955905,"changesets":981,"mappers":44,"roads":96.5154776252042,"buildings":13624,"edits":16111,"latest":"2018-07-10T20:46:08.000Z"},"geometry":{"type":"Point","coordinates":[92.1719303368657,21.1287523168181]}},{"type":"Feature","properties":{"id":4146,"title":"Bangladesh Refugee Crisis - Kutupalong camp shelters (new area 15)","status":"ARCHIVED","created":"2018","lastUpdated":"2018","lastActive":"no","area":1.1711380424532771,"changesets":828,"mappers":98,"roads":11.4060399496943,"buildings":9940,"edits":10857,"latest":"2018-02-13T14:03:16.000Z"},"geometry":{"type":"Point","coordinates":[92.1643718910906,21.1924972954646]}},{"type":"Feature","properties":{"id":4143,"title":"Bangladesh Refugee Crisis - Kutupalong camp shelters (new area 13)","status":"ARCHIVED","created":"2018","lastUpdated":"2018","lastActive":"no","area":0.43804531230520205,"changesets":299,"mappers":37,"roads":3.29874808660354,"buildings":5835,"edits":6433,"latest":"2018-02-05T03:53:17.000Z"},"geometry":{"type":"Point","coordinates":[92.1628945486189,21.2069335354152]}},{"type":"Feature","properties":{"id":4040,"title":"Bangladesh Refugee Crisis - Kutupalong camp shelters (new area 4)","status":"ARCHIVED","created":"2018","lastUpdated":"2018","lastActive":"no","area":0.6259929529305098,"changesets":430,"mappers":52,"roads":1.88416159791042,"buildings":9476,"edits":9830,"latest":"2018-01-24T09:33:40.000Z"},"geometry":{"type":"Point","coordinates":[92.1554038558946,21.205509142876]}},{"type":"Feature","properties":{"id":4063,"title":"Bangladesh Refugee Crisis - Kutupalong camp shelters (new area 6)","status":"ARCHIVED","created":"2018","lastUpdated":"2018","lastActive":"no","area":0.6557090054624053,"changesets":663,"mappers":45,"roads":2.84719413861605,"buildings":3972,"edits":4289,"latest":"2018-01-25T11:10:53.000Z"},"geometry":{"type":"Point","coordinates":[92.1473609876732,21.201114668552]}},{"type":"Feature","properties":{"id":4067,"title":"Bangladesh Refugee Crisis - Kutupalong camp shelters (new area 8)","status":"ARCHIVED","created":"2018","lastUpdated":"2018","lastActive":"no","area":1.8199746017972194,"changesets":771,"mappers":81,"roads":12.2703185613898,"buildings":11463,"edits":12641,"latest":"2018-01-27T16:19:38.000Z"},"geometry":{"type":"Point","coordinates":[92.1410262715345,21.1807598113435]}},{"type":"Feature","properties":{"id":4101,"title":"Bangladesh Refugee Crisis - Kutupalong camp shelters (new area 10)","status":"ARCHIVED","created":"2018","lastUpdated":"2018","lastActive":"no","area":2.725485656539492,"changesets":1719,"mappers":124,"roads":9.25662480329568,"buildings":28026,"edits":29793,"latest":"2018-02-02T07:58:57.000Z"},"geometry":{"type":"Point","coordinates":[92.1449948161645,21.1617641787275]}},{"type":"Feature","properties":{"id":4117,"title":"Bangladesh Refugee Crisis - Kutupalong camp shelters (new area 11)","status":"ARCHIVED","created":"2018","lastUpdated":"2018","lastActive":"no","area":0.7890758538219015,"changesets":555,"mappers":66,"roads":2.88641338019215,"buildings":6688,"edits":7640,"latest":"2018-02-03T15:57:22.000Z"},"geometry":{"type":"Point","coordinates":[92.1682255424455,21.2040223577882]}},{"type":"Feature","properties":{"id":4030,"title":"Bangladesh Refugee Crisis - Kutupalong camp shelters (area 2)","status":"ARCHIVED","created":"2018","lastUpdated":"2018","lastActive":"no","area":0.2723513470762284,"changesets":500,"mappers":50,"roads":10.7746943143898,"buildings":4248,"edits":4380,"latest":"2018-01-17T20:58:43.000Z"},"geometry":{"type":"Point","coordinates":[92.1526544026047,21.208510937612]}},{"type":"Feature","properties":{"id":4578,"title":"Bangladesh Refugee Crisis - Teknaf camp shelters (new area 20)","status":"ARCHIVED","created":"2018","lastUpdated":"2018","lastActive":"no","area":1.7077918888633548,"changesets":360,"mappers":21,"roads":16.5980527629591,"buildings":5289,"edits":5748,"latest":"2018-06-03T21:25:53.000Z"},"geometry":{"type":"Point","coordinates":[92.2602092870735,20.9381257997458]}},{"type":"Feature","properties":{"id":4006,"title":"Bangladesh Refugee Crisis - Kutupalong camp roads (global update)","status":"ARCHIVED","created":"2018","lastUpdated":"2018","lastActive":"no","area":37.58708302411728,"changesets":1462,"mappers":88,"roads":855.744077342015,"buildings":15897,"edits":56880,"latest":"2018-01-31T15:39:32.000Z"},"geometry":{"type":"Point","coordinates":[92.1512344720882,21.1911921601746]}},{"type":"Feature","properties":{"id":3636,"title":"Bangladesh Floods: Birampur, Dinajpur","status":"ARCHIVED","created":"2017","lastUpdated":"2017","lastActive":"no","area":214.00709510313644,"changesets":1025,"mappers":79,"roads":1085.94805721375,"buildings":1332,"edits":14801,"latest":"2018-01-03T00:04:00.000Z"},"geometry":{"type":"Point","coordinates":[88.9633234339553,25.3798285622054]}},{"type":"Feature","properties":{"id":3730,"title":"Bangladesh Population Movement - Kutupalong camp and surrounding settlements","status":"ARCHIVED","created":"2017","lastUpdated":"2018","lastActive":"no","area":16.438765314744483,"changesets":2307,"mappers":235,"roads":245.627656963081,"buildings":55037,"edits":64568,"latest":"2017-11-28T07:56:59.000Z"},"geometry":{"type":"Point","coordinates":[92.1537221740418,21.1930919498782]}},{"type":"Feature","properties":{"id":4331,"title":"Solidarit International, refugees crisis, Bandarban (Bengladesh)","status":"PUBLISHED","created":"2018","lastUpdated":"2018","lastActive":"no","area":145.63066042938559,"changesets":802,"mappers":104,"roads":510.870436294131,"buildings":11649,"edits":14335,"latest":"2018-11-20T22:08:45.000Z"},"geometry":{"type":"Point","coordinates":[92.1970987244855,21.3889549752086]}},{"type":"Feature","properties":{"id":3653,"title":"Mapping Flood Affected Communities in Bangladesh - Boalkhali, Chittagong","status":"PUBLISHED","created":"2017","lastUpdated":"2018","lastActive":"no","area":47.30207112961803,"changesets":1069,"mappers":142,"roads":136.299331779558,"buildings":8080,"edits":9911,"latest":"2018-04-13T12:57:34.000Z"},"geometry":{"type":"Point","coordinates":[91.9937489746527,22.4186995329624]}},{"type":"Feature","properties":{"id":3580,"title":"Bangladesh Floods: Ghoraghat, Dinajpur","status":"ARCHIVED","created":"2017","lastUpdated":"2017","lastActive":"no","area":151.14083195125795,"changesets":916,"mappers":71,"roads":716.853596077042,"buildings":780,"edits":8986,"latest":"2017-09-20T11:39:52.000Z"},"geometry":{"type":"Point","coordinates":[89.2142113441278,25.2864946936718]}},{"type":"Feature","properties":{"id":3581,"title":"Bangladesh Floods: Fulbaria, Dinajpur","status":"ARCHIVED","created":"2017","lastUpdated":"2017","lastActive":"no","area":232.80544420464676,"changesets":793,"mappers":96,"roads":921.645112246394,"buildings":285,"edits":8930,"latest":"2017-09-23T09:53:59.000Z"},"geometry":{"type":"Point","coordinates":[88.900685426883,25.4700758033858]}},{"type":"Feature","properties":{"id":4609,"title":"Bangladesh Refugee Crisis camp mapping - Shamlapur camp","status":"ARCHIVED","created":"2018","lastUpdated":"2018","lastActive":"no","area":10.655696364982774,"changesets":255,"mappers":24,"roads":16.5129615330416,"buildings":5320,"edits":5725,"latest":"2018-07-10T20:18:41.000Z"},"geometry":{"type":"Point","coordinates":[92.1436713031273,21.07621360468]}},{"type":"Feature","properties":{"id":4891,"title":"Bangladesh Refugee Crisis camp mapping - NW of megacamp 3 Update","status":"ARCHIVED","created":"2018","lastUpdated":"2018","lastActive":"no","area":0.4833315559159053,"changesets":125,"mappers":15,"roads":17.3371883879362,"buildings":5254,"edits":6040,"latest":"2018-08-09T09:18:16.000Z"},"geometry":{"type":"Point","coordinates":[92.1428704148335,21.2111616930025]}},{"type":"Feature","properties":{"id":4796,"title":"Bangladesh Refugee Crisis camp mapping - NW of megacamp 1 Update","status":"ARCHIVED","created":"2018","lastUpdated":"2018","lastActive":"no","area":0.21214589831320188,"changesets":167,"mappers":29,"roads":13.9014035246205,"buildings":288,"edits":651,"latest":"2018-06-27T09:06:10.000Z"},"geometry":{"type":"Point","coordinates":[92.1381699557021,21.2124977008707]}},{"type":"Feature","properties":{"id":1186,"title":"Gandaria, Dhaka, Bangladesh","status":"ARCHIVED","created":"2015","lastUpdated":"2016","lastActive":"no","area":12.929189077024681,"changesets":1836,"mappers":22,"roads":16.1306031406695,"buildings":1570,"edits":3295,"latest":"2016-03-12T03:44:37.000Z"},"geometry":{"type":"Point","coordinates":[90.4252406437414,23.7030670404877]}},{"type":"Feature","properties":{"id":1391,"title":"MissingMaps: Moghbazar, Dhaka","status":"ARCHIVED","created":"2015","lastUpdated":"2017","lastActive":"no","area":2.2813570680395547,"changesets":7585,"mappers":47,"roads":44.2176428236436,"buildings":12365,"edits":14341,"latest":"2016-08-12T06:50:29.000Z"},"geometry":{"type":"Point","coordinates":[90.4122977792349,23.7578339833056]}},{"type":"Feature","properties":{"id":858,"title":"Please delete","status":"ARCHIVED","created":"2015","lastUpdated":"2015","lastActive":"no","area":646.3372716796978,"changesets":0,"mappers":0,"roads":0,"buildings":0,"edits":0,"latest":null},"geometry":{"type":"Point","coordinates":[89.5043857138991,22.3230261323766]}},{"type":"Feature","properties":{"id":831,"title":"Missing Maps: Kamrangirchar and Hazaribagh, Dhaka, Bangladesh","status":"ARCHIVED","created":"2015","lastUpdated":"2016","lastActive":"no","area":9.444893351319813,"changesets":473,"mappers":48,"roads":140.876673458345,"buildings":4298,"edits":6093,"latest":"2016-10-03T13:39:47.000Z"},"geometry":{"type":"Point","coordinates":[90.3586571881007,23.7342736288968]}},{"type":"Feature","properties":{"id":934,"title":"Khulna Northeast - GWU & USAID Mapping Exercise (Area 2)","status":"ARCHIVED","created":"2015","lastUpdated":"2017","lastActive":"no","area":269.6635364274935,"changesets":3556,"mappers":79,"roads":210.327172939665,"buildings":11808,"edits":13220,"latest":"2017-04-14T03:10:52.000Z"},"geometry":{"type":"Point","coordinates":[89.6996332636041,22.7518781864227]}},{"type":"Feature","properties":{"id":1816,"title":"Missing Maps : DRR programs in Ghogadaha Union, Kurigram Sadar Upazila, Kurigram District, Bangladesh","status":"PUBLISHED","created":"2016","lastUpdated":"2018","lastActive":"no","area":27.648976927740403,"changesets":216,"mappers":31,"roads":171.663545429675,"buildings":203,"edits":1404,"latest":"2016-05-24T20:15:04.000Z"},"geometry":{"type":"Point","coordinates":[89.7237127548791,25.8446123283085]}},{"type":"Feature","properties":{"id":1817,"title":"Missing Maps : DRR programs in Ramna Union, Chilmari Upazila, Kurigram District, Bangladesh","status":"PUBLISHED","created":"2016","lastUpdated":"2018","lastActive":"no","area":20.940577932128985,"changesets":195,"mappers":19,"roads":67.2539227013279,"buildings":320,"edits":814,"latest":"2016-12-15T14:09:11.000Z"},"geometry":{"type":"Point","coordinates":[89.6693223415741,25.5589109172546]}},{"type":"Feature","properties":{"id":3439,"title":"Mapping Flood Affected Community in Bangladesh (Kajla and Kamalpur district) - additional data","status":"PUBLISHED","created":"2017","lastUpdated":"2017","lastActive":"no","area":89.3773764699791,"changesets":218,"mappers":52,"roads":168.93574156142,"buildings":5049,"edits":6999,"latest":"2017-09-10T19:43:46.000Z"},"geometry":{"type":"Point","coordinates":[89.628360802902,24.8883441744202]}},{"type":"Feature","properties":{"id":4196,"title":"Bangladesh Refugee Crisis - Kutupalong camp shelters (new area 16)","status":"ARCHIVED","created":"2018","lastUpdated":"2018","lastActive":"no","area":0.7464430169477224,"changesets":440,"mappers":52,"roads":5.55095267577989,"buildings":3293,"edits":3607,"latest":"2018-02-23T20:45:26.000Z"},"geometry":{"type":"Point","coordinates":[92.142771220254,21.2026621791434]}},{"type":"Feature","properties":{"id":4065,"title":"Bangladesh Refugee Crisis - Kutupalong camp shelters (new area 7)","status":"ARCHIVED","created":"2018","lastUpdated":"2018","lastActive":"no","area":1.3987481281993837,"changesets":895,"mappers":68,"roads":8.85247761594677,"buildings":14980,"edits":15882,"latest":"2018-01-25T22:46:08.000Z"},"geometry":{"type":"Point","coordinates":[92.1541334888666,21.21485865551]}},{"type":"Feature","properties":{"id":5275,"title":"Bangladesh Refugee Crisis camp mapping - Update (4)","status":"ARCHIVED","created":"2018","lastUpdated":"2018","lastActive":"no","area":0.034184560501277717,"changesets":42,"mappers":4,"roads":0.979128562991105,"buildings":364,"edits":466,"latest":"2018-10-01T05:59:13.000Z"},"geometry":{"type":"Point","coordinates":[92.16360926092,21.205985895755]}},{"type":"Feature","properties":{"id":1674,"title":"Data 4 Action - Missing Maps - Dhaka","status":"ARCHIVED","created":"2016","lastUpdated":"2017","lastActive":"no","area":14.46712453939816,"changesets":1660,"mappers":12,"roads":10.6054293173411,"buildings":1712,"edits":3448,"latest":"2016-06-17T11:49:57.000Z"},"geometry":{"type":"Point","coordinates":[90.4123898726437,23.7583003276125]}},{"type":"Feature","properties":{"id":4573,"title":"Bangladesh Refugee Crisis - Teknaf camp shelters (new area 19)","status":"ARCHIVED","created":"2018","lastUpdated":"2018","lastActive":"no","area":0.34956551761876054,"changesets":139,"mappers":12,"roads":0.00197602296146943,"buildings":2300,"edits":2355,"latest":"2018-05-24T09:54:10.000Z"},"geometry":{"type":"Point","coordinates":[92.252873870817,20.9455177795897]}},{"type":"Feature","properties":{"id":967,"title":"Madan Upazila, Bangladesh Health Workers Map","status":"ARCHIVED","created":"2015","lastUpdated":"2015","lastActive":"no","area":231.32183096890685,"changesets":0,"mappers":0,"roads":0,"buildings":0,"edits":0,"latest":null},"geometry":{"type":"Point","coordinates":[90.9670769266166,24.6775284129275]}},{"type":"Feature","properties":{"id":838,"title":"Missing Maps: Hazaribagh, Dhaka, Bangladesh (task 2)","status":"ARCHIVED","created":"2015","lastUpdated":"2015","lastActive":"no","area":1.9328032687990448,"changesets":203,"mappers":31,"roads":8.09611190447652,"buildings":1516,"edits":2103,"latest":"2015-02-10T11:05:10.000Z"},"geometry":{"type":"Point","coordinates":[90.3645895718481,23.7468044934751]}},{"type":"Feature","properties":{"id":3630,"title":"Mapping Flood Affected Communities in Bangladesh (Panchagarh, Rangpur)","status":"PUBLISHED","created":"2017","lastUpdated":"2018","lastActive":"no","area":1368.7065038384933,"changesets":24508,"mappers":1109,"roads":18093.9565792255,"buildings":976050,"edits":1117277,"latest":"2018-11-13T01:32:14.000Z"},"geometry":{"type":"Point","coordinates":[88.5754590338312,26.2851291051997]}},{"type":"Feature","properties":{"id":3651,"title":"can be deleted","status":"ARCHIVED","created":"2017","lastUpdated":"2017","lastActive":"no","area":4472.115634364655,"changesets":0,"mappers":0,"roads":0,"buildings":0,"edits":0,"latest":null},"geometry":{"type":"Point","coordinates":[91.8343689213137,22.4432644673298]}},{"type":"Feature","properties":{"id":3855,"title":"Bangladesh Population Movement - Kutupalong camp and surrounding settlements","status":"ARCHIVED","created":"2017","lastUpdated":"2018","lastActive":"no","area":2.0582964664952064,"changesets":370,"mappers":43,"roads":9.47258219955097,"buildings":8408,"edits":8951,"latest":"2017-12-03T17:58:08.000Z"},"geometry":{"type":"Point","coordinates":[92.151789631083,21.1625446907998]}},{"type":"Feature","properties":{"id":4170,"title":"Mirzapur, Bangladesh: Typhoid Burden Assessment","status":"PUBLISHED","created":"2018","lastUpdated":"2018","lastActive":"no","area":218.91877670477695,"changesets":1175,"mappers":78,"roads":771.443533008432,"buildings":95805,"edits":98475,"latest":"2018-06-05T11:08:04.000Z"},"geometry":{"type":"Point","coordinates":[90.1027374467937,24.0936633181173]}},{"type":"Feature","properties":{"id":373,"title":"Mapping in Sirajganj, Bangladesh - SA activities","status":"PUBLISHED","created":"2013","lastUpdated":"2016","lastActive":"no","area":12.233787905206839,"changesets":0,"mappers":0,"roads":0,"buildings":0,"edits":0,"latest":null},"geometry":{"type":"Point","coordinates":[89.7053138751845,24.4584878337345]}},{"type":"Feature","properties":{"id":379,"title":"Mapping in Jamalpur City, Jamalpur District, Bangladesh - SA activities","status":"PUBLISHED","created":"2013","lastUpdated":"2017","lastActive":"no","area":11.305254865523564,"changesets":0,"mappers":0,"roads":0,"buildings":0,"edits":0,"latest":null},"geometry":{"type":"Point","coordinates":[89.9456457469483,24.9206035422861]}},{"type":"Feature","properties":{"id":3429,"title":"Mapping Flood Affected Community in Bangladesh (Kajla and Kamalpur district)","status":"ARCHIVED","created":"2017","lastUpdated":"2017","lastActive":"no","area":89.3773764699791,"changesets":938,"mappers":82,"roads":370.252896871297,"buildings":11280,"edits":16020,"latest":"2017-09-09T12:42:15.000Z"},"geometry":{"type":"Point","coordinates":[89.628360802902,24.8883441744202]}},{"type":"Feature","properties":{"id":1093,"title":"Missing Maps: Durgapur Upazila, Bangladesh (a Y Care Int DRR & Health Project)","status":"ARCHIVED","created":"2015","lastUpdated":"2015","lastActive":"no","area":194.38095483799592,"changesets":551,"mappers":30,"roads":253.66175562413,"buildings":314,"edits":1888,"latest":"2015-09-09T05:35:00.000Z"},"geometry":{"type":"Point","coordinates":[90.6737194443905,25.0866424174674]}},{"type":"Feature","properties":{"id":901,"title":"Kendua, Bangladesh Health Workers Map","status":"PUBLISHED","created":"2015","lastUpdated":"2018","lastActive":"no","area":313.91353811096394,"changesets":5707,"mappers":60,"roads":1544.70863005798,"buildings":92996,"edits":102428,"latest":"2018-10-13T06:14:50.000Z"},"geometry":{"type":"Point","coordinates":[90.8017298707623,24.6774559089141]}}],"Sri Lanka":[{"type":"Feature","properties":{"id":5002,"title":"Sri Lanka Flood Response 2018 Project 6a","status":"ARCHIVED","created":"2018","lastUpdated":"2018","lastActive":"no","area":273.98265695086076,"changesets":4745,"mappers":363,"roads":326.951544947589,"buildings":66946,"edits":69598,"latest":"2018-09-18T01:26:38.000Z"},"geometry":{"type":"Point","coordinates":[80.1062369105081,7.48849236869336]}},{"type":"Feature","properties":{"id":4840,"title":"Sri Lanka Flood Response 2018 Project 4","status":"ARCHIVED","created":"2018","lastUpdated":"2018","lastActive":"no","area":597.8616558006948,"changesets":5007,"mappers":345,"roads":888.524929288393,"buildings":55918,"edits":60566,"latest":"2018-08-12T16:09:02.000Z"},"geometry":{"type":"Point","coordinates":[80.0806153944357,7.78809405408543]}},{"type":"Feature","properties":{"id":5345,"title":"ACAD_Anuradhapuram_OSM_Training","status":"PUBLISHED","created":"2018","lastUpdated":"2018","lastActive":"no","area":8.385345313903311,"changesets":232,"mappers":15,"roads":8.02743406108708,"buildings":1810,"edits":1988,"latest":"2018-10-22T11:58:36.000Z"},"geometry":{"type":"Point","coordinates":[80.3904751281149,8.35500216391257]}},{"type":"Feature","properties":{"id":332,"title":"Diyatalawa City Mapping - OSM Training, ISM Diyatalawa Nov 2013","status":"PUBLISHED","created":"2013","lastUpdated":"2017","lastActive":"no","area":7.288178889261445,"changesets":0,"mappers":0,"roads":0,"buildings":0,"edits":0,"latest":null},"geometry":{"type":"Point","coordinates":[80.9625900273405,6.80056904210767]}},{"type":"Feature","properties":{"id":4610,"title":"Sri Lanka Flood Response 2018 Project 1","status":"ARCHIVED","created":"2018","lastUpdated":"2018","lastActive":"no","area":549.6199022718898,"changesets":3560,"mappers":289,"roads":687.990132679942,"buildings":42584,"edits":45687,"latest":"2018-08-08T14:11:26.000Z"},"geometry":{"type":"Point","coordinates":[79.882178112672,7.74770970309366]}},{"type":"Feature","properties":{"id":1340,"title":"Sri Lanka - Mapping Road and Infrastructures for Disaster Preparedness and Resilience Part 3","status":"PUBLISHED","created":"2015","lastUpdated":"2018","lastActive":"no","area":154.98951855942363,"changesets":308,"mappers":75,"roads":94.8980256383843,"buildings":13310,"edits":14594,"latest":"2018-10-17T18:04:10.000Z"},"geometry":{"type":"Point","coordinates":[80.1100401065444,7.11460370833294]}},{"type":"Feature","properties":{"id":1411,"title":"EWB / IUG - Rose Villa, Uduvil, Jaffna ","status":"ARCHIVED","created":"2015","lastUpdated":"2016","lastActive":"no","area":18.23079530652106,"changesets":222,"mappers":28,"roads":117.316272323212,"buildings":6093,"edits":8177,"latest":"2016-05-17T16:59:35.000Z"},"geometry":{"type":"Point","coordinates":[80.0155004840121,9.73027033623049]}},{"type":"Feature","properties":{"id":5404,"title":"ACAD_CSIAP_Anuradhapura","status":"PUBLISHED","created":"2018","lastUpdated":"2018","lastActive":"yes","area":399.6231271330612,"changesets":148,"mappers":35,"roads":191.265547497207,"buildings":1249,"edits":1843,"latest":"2018-11-26T12:18:45.000Z"},"geometry":{"type":"Point","coordinates":[80.8028884410021,8.36854310592587]}},{"type":"Feature","properties":{"id":3708,"title":"Households Affected by the Rehabilitation of the Kelani Valley Railway Line in Sri Lanka (Phase I)","status":"PUBLISHED","created":"2017","lastUpdated":"2018","lastActive":"no","area":5.995576025848344,"changesets":2301,"mappers":513,"roads":41.6006303231262,"buildings":23738,"edits":26639,"latest":"2018-11-25T22:31:14.000Z"},"geometry":{"type":"Point","coordinates":[79.9209105034567,6.87211966062466]}},{"type":"Feature","properties":{"id":3094,"title":"2017 Sri Lanka Floods: Mapping Road Network in Matara District, Southern Province (1/4)","status":"ARCHIVED","created":"2017","lastUpdated":"2017","lastActive":"no","area":57.82051916752654,"changesets":189,"mappers":32,"roads":228.347644818034,"buildings":1705,"edits":6497,"latest":"2017-11-07T16:32:25.000Z"},"geometry":{"type":"Point","coordinates":[80.5617580088427,5.96275227535477]}},{"type":"Feature","properties":{"id":4936,"title":"Mathugama Pradeshiya Sabha boundary for create Development Plan","status":"PUBLISHED","created":"2018","lastUpdated":"2018","lastActive":"no","area":135.28280540726848,"changesets":154,"mappers":12,"roads":7.02333566861575,"buildings":718,"edits":849,"latest":"2018-10-25T15:54:52.000Z"},"geometry":{"type":"Point","coordinates":[80.0888283437966,6.48763196162689]}},{"type":"Feature","properties":{"id":5144,"title":"ACAD_CSIAP_Killinochchi","status":"PUBLISHED","created":"2018","lastUpdated":"2018","lastActive":"no","area":193.3228121457643,"changesets":125,"mappers":8,"roads":133.165143248202,"buildings":3082,"edits":3395,"latest":"2018-11-13T08:30:16.000Z"},"geometry":{"type":"Point","coordinates":[80.2054912817065,9.37264837619135]}},{"type":"Feature","properties":{"id":1704,"title":"Sri Lanka Survey Department Task 1","status":"PUBLISHED","created":"2016","lastUpdated":"2018","lastActive":"no","area":1.013363862848424,"changesets":7,"mappers":3,"roads":0.0863833152163373,"buildings":33,"edits":36,"latest":"2018-11-14T11:30:11.000Z"},"geometry":{"type":"Point","coordinates":[79.8733520507812,6.89258355603988]}},{"type":"Feature","properties":{"id":1914,"title":"Sri Lanka Floods: Central Kelani River Basin ","status":"ARCHIVED","created":"2016","lastUpdated":"2016","lastActive":"no","area":55.654706466764075,"changesets":1949,"mappers":156,"roads":359.431394213726,"buildings":51517,"edits":63311,"latest":"2016-07-19T10:41:50.000Z"},"geometry":{"type":"Point","coordinates":[79.9938729302159,6.92473802544413]}},{"type":"Feature","properties":{"id":1923,"title":"Sri Lanka: Mapping Road and Infrastructures for Disaster Preparedness and Resilience Part 4","status":"ARCHIVED","created":"2016","lastUpdated":"2017","lastActive":"no","area":134.09126087468601,"changesets":5364,"mappers":113,"roads":599.507412787948,"buildings":65038,"edits":80938,"latest":"2016-11-03T00:54:26.000Z"},"geometry":{"type":"Point","coordinates":[79.9790091904922,7.15468759943429]}},{"type":"Feature","properties":{"id":1676,"title":"Manmunai West -- Batticaloa District Training","status":"ARCHIVED","created":"2016","lastUpdated":"2017","lastActive":"no","area":291.61525696151733,"changesets":2656,"mappers":50,"roads":887.902622248487,"buildings":14424,"edits":23907,"latest":"2017-06-02T09:09:57.000Z"},"geometry":{"type":"Point","coordinates":[81.598405286445,7.63164585257703]}},{"type":"Feature","properties":{"id":5388,"title":"Vavuniya_North_DS","status":"PUBLISHED","created":"2018","lastUpdated":"2018","lastActive":"no","area":658.7962746926382,"changesets":45,"mappers":16,"roads":124.951938436114,"buildings":969,"edits":1715,"latest":"2018-11-16T17:02:12.000Z"},"geometry":{"type":"Point","coordinates":[80.5687869329996,9.00735565572628]}},{"type":"Feature","properties":{"id":2372,"title":"Manmunai_South_West","status":"ARCHIVED","created":"2016","lastUpdated":"2016","lastActive":"no","area":142.50295080867124,"changesets":1362,"mappers":27,"roads":502.287474069319,"buildings":12785,"edits":19181,"latest":"2016-12-06T11:00:10.000Z"},"geometry":{"type":"Point","coordinates":[81.6552565570545,7.5638182429826]}},{"type":"Feature","properties":{"id":2357,"title":"Porativu_Pattu","status":"ARCHIVED","created":"2016","lastUpdated":"2017","lastActive":"no","area":165.9777097638617,"changesets":2530,"mappers":32,"roads":1063.64901979218,"buildings":23226,"edits":35412,"latest":"2016-12-05T06:02:49.000Z"},"geometry":{"type":"Point","coordinates":[81.7067615486679,7.49965821716783]}},{"type":"Feature","properties":{"id":291,"title":"Colombo Training Tasks August 14-15","status":"ARCHIVED","created":"2013","lastUpdated":"2014","lastActive":"no","area":0.6142599677602866,"changesets":776,"mappers":22,"roads":820.126369521277,"buildings":407,"edits":8133,"latest":"2018-02-08T09:33:41.000Z"},"geometry":{"type":"Point","coordinates":[79.86747992742,6.91231626986856]}},{"type":"Feature","properties":{"id":2502,"title":"Koralai Pattu Central ","status":"PUBLISHED","created":"2017","lastUpdated":"2017","lastActive":"no","area":205.46381684851346,"changesets":823,"mappers":11,"roads":208.035920050261,"buildings":2405,"edits":7280,"latest":"2017-10-29T14:52:46.000Z"},"geometry":{"type":"Point","coordinates":[81.5438353235841,7.93430184522799]}},{"type":"Feature","properties":{"id":2039,"title":"Sri Lanka: Mapping Road and Infrastructures for Disaster Preparedness and Resilience Part 5","status":"ARCHIVED","created":"2016","lastUpdated":"2017","lastActive":"no","area":1.3020853104475527,"changesets":85,"mappers":15,"roads":0.63917575763412,"buildings":742,"edits":780,"latest":"2016-08-03T06:18:25.000Z"},"geometry":{"type":"Point","coordinates":[79.8695816723527,6.90095151426009]}},{"type":"Feature","properties":{"id":2302,"title":"Koralai Pattu South","status":"PUBLISHED","created":"2016","lastUpdated":"2017","lastActive":"no","area":602.096628738705,"changesets":2064,"mappers":39,"roads":1295.66568223946,"buildings":22701,"edits":33728,"latest":"2016-12-05T09:30:53.000Z"},"geometry":{"type":"Point","coordinates":[81.3767367605589,7.86157208029671]}},{"type":"Feature","properties":{"id":1382,"title":"Sri Lanka - Mapping Road and Infrastructures for Disaster Preparedness and Resilience","status":"PUBLISHED","created":"2015","lastUpdated":"2018","lastActive":"no","area":91.6697241373826,"changesets":659,"mappers":15,"roads":377.168854961005,"buildings":4557,"edits":13187,"latest":"2018-05-02T14:59:41.000Z"},"geometry":{"type":"Point","coordinates":[79.9933363199441,7.07099461235604]}},{"type":"Feature","properties":{"id":1915,"title":"Sri Lanka Floods: Eastern Kelani River Basin ","status":"ARCHIVED","created":"2016","lastUpdated":"2017","lastActive":"no","area":59.888759762112365,"changesets":1108,"mappers":89,"roads":322.748928984902,"buildings":18157,"edits":22831,"latest":"2016-07-06T09:04:11.000Z"},"geometry":{"type":"Point","coordinates":[80.11932745338,6.9479771989806]}},{"type":"Feature","properties":{"id":1920,"title":"Sri Lanka Floods: Aranayake Landslide Area","status":"ARCHIVED","created":"2016","lastUpdated":"2016","lastActive":"no","area":2.461558194887652,"changesets":52,"mappers":14,"roads":43.6192516680412,"buildings":1379,"edits":1782,"latest":"2016-05-24T20:20:29.000Z"},"geometry":{"type":"Point","coordinates":[80.4345710558472,7.16244406789406]}},{"type":"Feature","properties":{"id":1913,"title":"Sri Lanka Floods: Western Kelani River Basin ","status":"ARCHIVED","created":"2016","lastUpdated":"2016","lastActive":"no","area":23.059058528392796,"changesets":2344,"mappers":203,"roads":135.372524192739,"buildings":62222,"edits":71497,"latest":"2016-07-19T09:11:19.000Z"},"geometry":{"type":"Point","coordinates":[79.9072588993895,6.95420045476413]}},{"type":"Feature","properties":{"id":1934,"title":"Sri Lanka Floods: Unmapped flooded areas","status":"ARCHIVED","created":"2016","lastUpdated":"2016","lastActive":"no","area":8.04553254550048,"changesets":711,"mappers":72,"roads":74.5249447468393,"buildings":17422,"edits":20149,"latest":"2016-08-02T09:59:47.000Z"},"geometry":{"type":"Point","coordinates":[80.0045910763456,6.95163143355929]}},{"type":"Feature","properties":{"id":313,"title":"SAS Step3 Mini Project - Sri Lanka : OSM Training","status":"ARCHIVED","created":"2013","lastUpdated":"2017","lastActive":"no","area":48.0807668557531,"changesets":0,"mappers":0,"roads":0,"buildings":0,"edits":0,"latest":null},"geometry":{"type":"Point","coordinates":[79.9690480025353,6.6242133251257]}},{"type":"Feature","properties":{"id":290,"title":"UDA Mapping","status":"ARCHIVED","created":"2013","lastUpdated":"2014","lastActive":"no","area":1.0271436149189255,"changesets":781,"mappers":23,"roads":621.189411965347,"buildings":832,"edits":15284,"latest":"2018-02-08T04:39:32.000Z"},"geometry":{"type":"Point","coordinates":[79.9187876349264,6.90596257462093]}},{"type":"Feature","properties":{"id":282,"title":"Example Colombo Task","status":"ARCHIVED","created":"2014","lastUpdated":"2014","lastActive":"no","area":3.6398289875433663,"changesets":875,"mappers":22,"roads":1969.58320509788,"buildings":1555,"edits":23799,"latest":"2018-01-31T07:19:33.000Z"},"geometry":{"type":"Point","coordinates":[80.6379219426056,7.29416489948222]}},{"type":"Feature","properties":{"id":2603,"title":"Exposure_Mapping_Training for IUCN","status":"ARCHIVED","created":"2017","lastUpdated":"2017","lastActive":"no","area":0.16378336140160482,"changesets":0,"mappers":0,"roads":0,"buildings":0,"edits":0,"latest":null},"geometry":{"type":"Point","coordinates":[79.8701437334011,6.9107966298213]}},{"type":"Feature","properties":{"id":1706,"title":"Survey Department Training Task","status":"PUBLISHED","created":"2016","lastUpdated":"2017","lastActive":"no","area":0.29902540214274553,"changesets":72,"mappers":11,"roads":1.23540183349306,"buildings":314,"edits":416,"latest":"2017-12-11T22:38:32.000Z"},"geometry":{"type":"Point","coordinates":[79.8733520507812,6.89258355603989]}},{"type":"Feature","properties":{"id":2289,"title":"Eravur Pattu-Batticaloa ","status":"PUBLISHED","created":"2016","lastUpdated":"2016","lastActive":"no","area":612.1522617694706,"changesets":1638,"mappers":30,"roads":869.866514314418,"buildings":22373,"edits":31875,"latest":"2016-12-20T09:22:15.000Z"},"geometry":{"type":"Point","coordinates":[81.4678098651883,7.7096844283444]}},{"type":"Feature","properties":{"id":5222,"title":"Vavuniya_DS_Division","status":"PUBLISHED","created":"2018","lastUpdated":"2018","lastActive":"no","area":620.7932164546746,"changesets":349,"mappers":38,"roads":93.3078472570484,"buildings":7925,"edits":8329,"latest":"2018-10-17T06:36:23.000Z"},"geometry":{"type":"Point","coordinates":[80.4565357171172,8.83371638580543]}}],"Peru":[{"type":"Feature","properties":{"id":1849,"title":"Missing Maps: Santa Rosa de Yanaque","status":"ARCHIVED","created":"2016","lastUpdated":"2017","lastActive":"no","area":2.529816195010315,"changesets":142,"mappers":18,"roads":7.60184024134493,"buildings":2721,"edits":2897,"latest":"2016-05-11T23:50:43.000Z"},"geometry":{"type":"Point","coordinates":[-69.6978064846752,-15.906633894375]}},{"type":"Feature","properties":{"id":2679,"title":"Peru Flood Support 4: Huarmey","status":"PUBLISHED","created":"2017","lastUpdated":"2017","lastActive":"no","area":26.19131548841877,"changesets":398,"mappers":76,"roads":124.370578824888,"buildings":7721,"edits":9553,"latest":"2017-11-23T22:12:17.000Z"},"geometry":{"type":"Point","coordinates":[-78.1508425099967,-10.0751715133225]}},{"type":"Feature","properties":{"id":4432,"title":"Llacallaca Area, Peru Flooding 2018 / rea de Llacallaca, Per Inundaciones 2018","status":"PUBLISHED","created":"2018","lastUpdated":"2018","lastActive":"no","area":15.480704371655271,"changesets":240,"mappers":11,"roads":86.3984896880416,"buildings":1458,"edits":1902,"latest":"2018-04-17T19:11:43.000Z"},"geometry":{"type":"Point","coordinates":[-76.5092663708183,-12.3099006152132]}},{"type":"Feature","properties":{"id":2677,"title":"Peru Flood Support 2:  Cayma","status":"ARCHIVED","created":"2017","lastUpdated":"2017","lastActive":"no","area":19.368224690899037,"changesets":579,"mappers":95,"roads":191.718151936455,"buildings":12862,"edits":16772,"latest":"2017-06-10T17:30:31.000Z"},"geometry":{"type":"Point","coordinates":[-71.5294637473371,-16.3026735492748]}},{"type":"Feature","properties":{"id":4023,"title":"Quicacha, Peru Area - Earthquake","status":"ARCHIVED","created":"2018","lastUpdated":"2018","lastActive":"no","area":0.47202221856955584,"changesets":267,"mappers":9,"roads":16.6693129128698,"buildings":878,"edits":1102,"latest":"2018-01-29T21:10:06.000Z"},"geometry":{"type":"Point","coordinates":[-73.794428865797,-15.61966544271]}},{"type":"Feature","properties":{"id":4398,"title":"Misti Volcano USAID and USGS (low risk areas)","status":"PUBLISHED","created":"2018","lastUpdated":"2018","lastActive":"no","area":90.37484410688204,"changesets":50,"mappers":33,"roads":18.9122486814785,"buildings":1690,"edits":1832,"latest":"2018-10-09T00:42:17.000Z"},"geometry":{"type":"Point","coordinates":[-71.5460755310606,-16.409540596372]}},{"type":"Feature","properties":{"id":2721,"title":"Peru Flood Support - ANPE Carapongo","status":"PUBLISHED","created":"2017","lastUpdated":"2017","lastActive":"no","area":2.3897474078506047,"changesets":81,"mappers":12,"roads":1.40428618234097,"buildings":179,"edits":191,"latest":"2018-03-07T00:13:52.000Z"},"geometry":{"type":"Point","coordinates":[-76.8607038560964,-12.0056549690758]}},