{"totalEdits":45228868,"totalBuildings":37736281,"totalRoads":947810.908768668,"mappersOnline":78,"totalTasksMapped":1797424,"totalMappers":155395,"totalProjects":4337,"Russia":[{"type":"Feature","properties":{"id":5101,"title":"Orenburg, RU - Road Alignment","status":"PUBLISHED","created":"2018","lastUpdated":"2018","lastActive":"no","area":62.971849944699215,"changesets":22,"mappers":1,"roads":3.45699288107569,"buildings":53,"edits":181,"latest":"2018-10-24T08:43:40.000Z"},"geometry":{"type":"Point","coordinates":[54.8065548783445,52.0610390047715]}},{"type":"Feature","properties":{"id":5109,"title":"Khantia-Mansia, RU - Road Alignment","status":"PUBLISHED","created":"2018","lastUpdated":"2018","lastActive":"no","area":30.253087893790546,"changesets":15,"mappers":1,"roads":4.51497994941806,"buildings":10,"edits":99,"latest":"2018-11-06T07:57:43.000Z"},"geometry":{"type":"Point","coordinates":[71.975901037221,61.2624729564418]}},{"type":"Feature","properties":{"id":5115,"title":"Krasnoyarsk, RU - Road Alignment","status":"PUBLISHED","created":"2018","lastUpdated":"2018","lastActive":"no","area":22.824888459707374,"changesets":78,"mappers":1,"roads":15.4802476295007,"buildings":108,"edits":630,"latest":"2018-10-20T05:40:12.000Z"},"geometry":{"type":"Point","coordinates":[93.4116099617817,57.0117959504218]}},{"type":"Feature","properties":{"id":5119,"title":"Sakha, RU - Road Alignment","status":"PUBLISHED","created":"2018","lastUpdated":"2018","lastActive":"no","area":33.426355275199285,"changesets":0,"mappers":0,"roads":0,"buildings":0,"edits":0,"latest":null},"geometry":{"type":"Point","coordinates":[124.725706215512,61.3401873829566]}},{"type":"Feature","properties":{"id":5093,"title":"Stavropol, RU - Road Alignment","status":"PUBLISHED","created":"2018","lastUpdated":"2018","lastActive":"no","area":39.278249308473754,"changesets":9,"mappers":1,"roads":0.142855842145349,"buildings":0,"edits":56,"latest":"2018-11-01T06:46:47.000Z"},"geometry":{"type":"Point","coordinates":[42.9341936478082,44.7607848987624]}},{"type":"Feature","properties":{"id":5032,"title":"Murmansk, RU - Road Alignment","status":"PUBLISHED","created":"2018","lastUpdated":"2019","lastActive":"no","area":6.135141048257239,"changesets":17,"mappers":7,"roads":0.986079398050086,"buildings":0,"edits":59,"latest":"2019-01-29T23:13:44.000Z"},"geometry":{"type":"Point","coordinates":[32.1535937499972,68.1519441236096]}},{"type":"Feature","properties":{"id":5045,"title":"Nenetsia, RU - Road Alignment","status":"PUBLISHED","created":"2018","lastUpdated":"2018","lastActive":"no","area":1.271696291426983,"changesets":7,"mappers":2,"roads":8.39223990109274,"buildings":130,"edits":410,"latest":"2018-11-05T20:55:39.000Z"},"geometry":{"type":"Point","coordinates":[56.0799294668555,67.3851766016729]}},{"type":"Feature","properties":{"id":5100,"title":"Tatarstan, RU - Road Alignment","status":"PUBLISHED","created":"2018","lastUpdated":"2018","lastActive":"no","area":38.441103871968686,"changesets":78,"mappers":1,"roads":9.18679789220927,"buildings":48,"edits":656,"latest":"2018-11-14T22:07:11.000Z"},"geometry":{"type":"Point","coordinates":[51.8502575724872,55.4741248014356]}},{"type":"Feature","properties":{"id":5118,"title":"Amur, RU - Road Alignment","status":"PUBLISHED","created":"2018","lastUpdated":"2018","lastActive":"no","area":19.385680339287482,"changesets":7,"mappers":1,"roads":5.53178454751479,"buildings":28,"edits":99,"latest":"2018-10-17T10:54:27.000Z"},"geometry":{"type":"Point","coordinates":[127.669291747133,51.1636667407178]}},{"type":"Feature","properties":{"id":5076,"title":"Kostroma, RU - Road Alignment","status":"PUBLISHED","created":"2018","lastUpdated":"2018","lastActive":"no","area":16.55786446991269,"changesets":15,"mappers":1,"roads":5.17449485836067,"buildings":50,"edits":265,"latest":"2018-11-13T22:32:46.000Z"},"geometry":{"type":"Point","coordinates":[43.391536924522,58.3815490365323]}},{"type":"Feature","properties":{"id":5049,"title":"Kaluga, RU - Road Alignment","status":"PUBLISHED","created":"2018","lastUpdated":"2018","lastActive":"no","area":10.587303562416615,"changesets":1,"mappers":1,"roads":0.159744480365076,"buildings":0,"edits":43,"latest":"2018-10-29T12:17:28.000Z"},"geometry":{"type":"Point","coordinates":[35.7221561476756,54.5927443769091]}},{"type":"Feature","properties":{"id":5037,"title":"Pskov, RU - Road Alignment","status":"PUBLISHED","created":"2018","lastUpdated":"2019","lastActive":"no","area":6.7397348411403035,"changesets":15,"mappers":1,"roads":2.01909158639126,"buildings":0,"edits":58,"latest":"2019-01-21T09:27:33.000Z"},"geometry":{"type":"Point","coordinates":[28.7196206931114,57.4529744401669]}},{"type":"Feature","properties":{"id":5074,"title":"Voronezh, RU - Road Alignment","status":"PUBLISHED","created":"2018","lastUpdated":"2018","lastActive":"no","area":51.88857016130644,"changesets":35,"mappers":2,"roads":1.27753682271313,"buildings":19,"edits":549,"latest":"2019-01-02T20:39:43.000Z"},"geometry":{"type":"Point","coordinates":[40.2695201655274,50.9627839626112]}},{"type":"Feature","properties":{"id":5080,"title":"Ryazan, RU - Road Alignment","status":"PUBLISHED","created":"2018","lastUpdated":"2018","lastActive":"no","area":28.47380571426955,"changesets":33,"mappers":1,"roads":1.42742427154212,"buildings":102,"edits":709,"latest":"2018-11-16T22:25:01.000Z"},"geometry":{"type":"Point","coordinates":[40.2725467479178,54.1247114552182]}},{"type":"Feature","properties":{"id":5068,"title":"Kursk, RU - Road Alignment","status":"PUBLISHED","created":"2018","lastUpdated":"2018","lastActive":"no","area":11.035515934842362,"changesets":8,"mappers":1,"roads":0.0390462728168895,"buildings":0,"edits":58,"latest":"2018-11-01T10:06:42.000Z"},"geometry":{"type":"Point","coordinates":[36.0226384904065,51.6480514245577]}},{"type":"Feature","properties":{"id":5082,"title":"Mordovia, RU - Road Alignment","status":"PUBLISHED","created":"2018","lastUpdated":"2018","lastActive":"no","area":21.05104067660312,"changesets":26,"mappers":1,"roads":1.76891272292416,"buildings":13,"edits":455,"latest":"2018-11-18T18:15:46.000Z"},"geometry":{"type":"Point","coordinates":[44.471800865344,54.2889054581946]}},{"type":"Feature","properties":{"id":5047,"title":"Vologda, RU - Road Alignment","status":"PUBLISHED","created":"2018","lastUpdated":"2018","lastActive":"no","area":35.28516778928109,"changesets":0,"mappers":0,"roads":0,"buildings":0,"edits":0,"latest":null},"geometry":{"type":"Point","coordinates":[40.0393416965148,59.7751178689939]}},{"type":"Feature","properties":{"id":5078,"title":"Vladmi, RU - Road Alignment","status":"PUBLISHED","created":"2018","lastUpdated":"2018","lastActive":"no","area":19.39018729280983,"changesets":11,"mappers":1,"roads":0.0993819937216351,"buildings":0,"edits":136,"latest":"2018-11-15T20:12:22.000Z"},"geometry":{"type":"Point","coordinates":[41.4000375718571,56.0011972964679]}},{"type":"Feature","properties":{"id":5098,"title":"Kirov, RU - Road Alignment","status":"PUBLISHED","created":"2018","lastUpdated":"2018","lastActive":"no","area":15.917259356789708,"changesets":17,"mappers":1,"roads":36.6975410331902,"buildings":163,"edits":874,"latest":"2018-10-25T09:45:05.000Z"},"geometry":{"type":"Point","coordinates":[49.5005171491877,58.0035735138105]}},{"type":"Feature","properties":{"id":5071,"title":"Belgorad, RU - Road Alignment","status":"PUBLISHED","created":"2018","lastUpdated":"2018","lastActive":"no","area":38.115130732068074,"changesets":51,"mappers":1,"roads":20.7782732699154,"buildings":39,"edits":608,"latest":"2018-11-20T22:22:38.000Z"},"geometry":{"type":"Point","coordinates":[37.4150271811611,50.6657608441237]}},{"type":"Feature","properties":{"id":5116,"title":"Buryatia, RU - Road Alignment","status":"PUBLISHED","created":"2018","lastUpdated":"2018","lastActive":"no","area":11.921423464616145,"changesets":7,"mappers":2,"roads":3.08056904568076,"buildings":19,"edits":104,"latest":"2018-10-19T08:54:02.000Z"},"geometry":{"type":"Point","coordinates":[107.505299618937,51.7364622992778]}},{"type":"Feature","properties":{"id":5094,"title":"Rostov, RU - Road Alignment","status":"PUBLISHED","created":"2018","lastUpdated":"2018","lastActive":"no","area":62.059436486990585,"changesets":18,"mappers":1,"roads":0.459103509151284,"buildings":1,"edits":86,"latest":"2018-10-09T12:50:48.000Z"},"geometry":{"type":"Point","coordinates":[40.7358927267966,47.7150064178919]}},{"type":"Feature","properties":{"id":5092,"title":"Krasnodar, RU - Road Alignment","status":"PUBLISHED","created":"2018","lastUpdated":"2018","lastActive":"no","area":65.77382796758191,"changesets":924,"mappers":2,"roads":102.053933053736,"buildings":4010,"edits":11187,"latest":"2018-12-13T20:57:54.000Z"},"geometry":{"type":"Point","coordinates":[39.4116507753946,45.4518856931549]}},{"type":"Feature","properties":{"id":5108,"title":"Novosibirsk, RU - Road Alignment","status":"PUBLISHED","created":"2018","lastUpdated":"2018","lastActive":"no","area":42.469762848735236,"changesets":173,"mappers":2,"roads":3.64613396752743,"buildings":69,"edits":670,"latest":"2018-12-11T02:56:30.000Z"},"geometry":{"type":"Point","coordinates":[80.3670447235961,54.8613031461299]}},{"type":"Feature","properties":{"id":5120,"title":"JAO, RU - Road Alignment","status":"PUBLISHED","created":"2018","lastUpdated":"2018","lastActive":"no","area":5.488146548063193,"changesets":4,"mappers":1,"roads":0.0327054624556719,"buildings":1,"edits":20,"latest":"2018-10-24T16:47:52.000Z"},"geometry":{"type":"Point","coordinates":[132.011691687188,48.253714915435]}},{"type":"Feature","properties":{"id":5122,"title":"Khabarovsk, RU - Road Alignment","status":"PUBLISHED","created":"2018","lastUpdated":"2018","lastActive":"no","area":11.161541130978934,"changesets":42,"mappers":1,"roads":24.3213672545452,"buildings":19,"edits":928,"latest":"2018-11-12T19:15:17.000Z"},"geometry":{"type":"Point","coordinates":[138.396774935942,51.8199623333501]}},{"type":"Feature","properties":{"id":5114,"title":"Tuva, RU - Road Alignment","status":"PUBLISHED","created":"2018","lastUpdated":"2018","lastActive":"no","area":2.5382251706946253,"changesets":11,"mappers":1,"roads":0.699784508480752,"buildings":20,"edits":104,"latest":"2018-10-19T10:22:55.000Z"},"geometry":{"type":"Point","coordinates":[94.0463114123556,51.781508254766]}},{"type":"Feature","properties":{"id":5110,"title":"Yamalia, RU - Road Alignment","status":"PUBLISHED","created":"2018","lastUpdated":"2018","lastActive":"no","area":8.273190558193892,"changesets":6,"mappers":3,"roads":8.28800679414206,"buildings":20,"edits":130,"latest":"2018-11-20T10:22:28.000Z"},"geometry":{"type":"Point","coordinates":[75.2427001306948,65.7007370208771]}},{"type":"Feature","properties":{"id":5096,"title":"Chuvashia, RU - Road Alignment","status":"PUBLISHED","created":"2018","lastUpdated":"2018","lastActive":"no","area":7.0000954431448505,"changesets":8,"mappers":1,"roads":0.192223935155805,"buildings":0,"edits":41,"latest":"2018-11-05T21:08:48.000Z"},"geometry":{"type":"Point","coordinates":[47.0169444267199,55.6395929732244]}},{"type":"Feature","properties":{"id":5084,"title":"Astrakhan, RU - Road Alignment","status":"PUBLISHED","created":"2018","lastUpdated":"2018","lastActive":"no","area":5.310775583716296,"changesets":6,"mappers":1,"roads":0.576440915991893,"buildings":4,"edits":39,"latest":"2018-10-09T13:35:52.000Z"},"geometry":{"type":"Point","coordinates":[47.1830142680223,46.8862236799227]}},{"type":"Feature","properties":{"id":5102,"title":"Udmurtia, RU - Road Alignment","status":"PUBLISHED","created":"2018","lastUpdated":"2018","lastActive":"no","area":15.013904617904839,"changesets":11,"mappers":1,"roads":0.256342391628613,"buildings":1,"edits":279,"latest":"2018-10-24T15:26:13.000Z"},"geometry":{"type":"Point","coordinates":[53.1292263202367,56.6504098059281]}},{"type":"Feature","properties":{"id":5106,"title":"Tyumen, RU - Road Alignment","status":"PUBLISHED","created":"2018","lastUpdated":"2018","lastActive":"no","area":29.90850085590972,"changesets":47,"mappers":1,"roads":2.73852519030308,"buildings":8,"edits":368,"latest":"2018-10-24T15:51:05.000Z"},"geometry":{"type":"Point","coordinates":[68.2637832952442,56.3385442704502]}},{"type":"Feature","properties":{"id":5041,"title":"Yaroslavl, RU - Road Alignment","status":"PUBLISHED","created":"2018","lastUpdated":"2018","lastActive":"no","area":4.819215675862653,"changesets":155,"mappers":2,"roads":3.05788891442387,"buildings":74,"edits":691,"latest":"2018-12-02T21:43:27.000Z"},"geometry":{"type":"Point","coordinates":[39.1443497130268,57.5982859823097]}},{"type":"Feature","properties":{"id":5088,"title":"North Ossetia-Alania, RU - Road Alignment","status":"PUBLISHED","created":"2018","lastUpdated":"2018","lastActive":"no","area":14.537601490829601,"changesets":32,"mappers":1,"roads":0.783488296930156,"buildings":1,"edits":447,"latest":"2018-11-01T08:23:46.000Z"},"geometry":{"type":"Point","coordinates":[44.4413630478819,43.1296771004067]}},{"type":"Feature","properties":{"id":5086,"title":"Chechnya, RU - Road Alignment","status":"PUBLISHED","created":"2018","lastUpdated":"2018","lastActive":"no","area":28.795408595275685,"changesets":23,"mappers":1,"roads":1.74231355153121,"buildings":0,"edits":137,"latest":"2018-10-28T12:22:09.000Z"},"geometry":{"type":"Point","coordinates":[45.8158908939478,43.2733108142613]}},{"type":"Feature","properties":{"id":5090,"title":"Karachay-Cherkessia, RU - Road Alignment","status":"PUBLISHED","created":"2018","lastUpdated":"2018","lastActive":"no","area":4.740680221856723,"changesets":11,"mappers":1,"roads":0.140718881160977,"buildings":0,"edits":63,"latest":"2018-10-31T12:53:50.000Z"},"geometry":{"type":"Point","coordinates":[42.2305210915177,44.0364671504869]}},{"type":"Feature","properties":{"id":5033,"title":"Karelia, RU - Road Alignment","status":"PUBLISHED","created":"2018","lastUpdated":"2018","lastActive":"no","area":15.783143957120704,"changesets":0,"mappers":0,"roads":0,"buildings":0,"edits":0,"latest":null},"geometry":{"type":"Point","coordinates":[32.653970249643,63.1683112124834]}},{"type":"Feature","properties":{"id":5039,"title":"Smolensk, RU - Road Alignment","status":"PUBLISHED","created":"2018","lastUpdated":"2018","lastActive":"no","area":28.43951608669756,"changesets":18,"mappers":1,"roads":13.5643616443056,"buildings":128,"edits":711,"latest":"2018-11-06T18:43:12.000Z"},"geometry":{"type":"Point","coordinates":[32.8547004619526,54.8764930805367]}},{"type":"Feature","properties":{"id":5112,"title":"Kemerovo, RU - Road Alignment","status":"PUBLISHED","created":"2018","lastUpdated":"2018","lastActive":"no","area":21.798294661428333,"changesets":45,"mappers":1,"roads":2.23533517272834,"buildings":3,"edits":261,"latest":"2018-10-28T12:56:04.000Z"},"geometry":{"type":"Point","coordinates":[86.6571581706989,54.816528983781]}},{"type":"Feature","properties":{"id":5035,"title":"St. Petersburg, RU - Road Alignment","status":"ARCHIVED","created":"2018","lastUpdated":"2018","lastActive":"no","area":8.561300785249289,"changesets":332,"mappers":1,"roads":19.7571350087767,"buildings":150,"edits":4218,"latest":"2018-11-24T13:02:54.000Z"},"geometry":{"type":"Point","coordinates":[30.23445185656,59.9410578806373]}},{"type":"Feature","properties":{"id":5104,"title":"Sverdlovsk, RU - Road Alignment","status":"PUBLISHED","created":"2018","lastUpdated":"2018","lastActive":"no","area":17.833303273592076,"changesets":82,"mappers":1,"roads":1.41269675484537,"buildings":18,"edits":539,"latest":"2018-10-04T16:03:26.000Z"},"geometry":{"type":"Point","coordinates":[60.7296830055128,57.3551621895813]}}],"totalArea":2404005259.7389913,"Zimbabwe":[{"type":"Feature","properties":{"id":3890,"title":"Road network Zimbabwe (2)","status":"ARCHIVED","created":"2017","lastUpdated":"2018","lastActive":"no","area":994.1777468745335,"changesets":975,"mappers":107,"roads":4228.79707078348,"buildings":1284,"edits":20601,"latest":"2018-06-11T14:27:49.000Z"},"geometry":{"type":"Point","coordinates":[30.8705074219935,-19.4741958029124]}},{"type":"Feature","properties":{"id":3189,"title":"Missing Maps: Zimbabwe Malaria Elimination 204","status":"ARCHIVED","created":"2017","lastUpdated":"2017","lastActive":"no","area":267.99099634459486,"changesets":1732,"mappers":104,"roads":24.0467210278181,"buildings":76847,"edits":78714,"latest":"2017-08-05T07:25:43.000Z"},"geometry":{"type":"Point","coordinates":[28.4980941923943,-20.1103746431931]}},{"type":"Feature","properties":{"id":3181,"title":"Missing Maps: Zimbabwe Malaria Elimination 201","status":"ARCHIVED","created":"2017","lastUpdated":"2017","lastActive":"no","area":661.7838460823825,"changesets":1329,"mappers":23,"roads":7.75477338741387,"buildings":14098,"edits":14160,"latest":"2017-06-19T13:26:28.000Z"},"geometry":{"type":"Point","coordinates":[30.4716410849186,-18.4571559203651]}},{"type":"Feature","properties":{"id":4467,"title":"Missing Maps: West Harare, Zimbabwe 2/5","status":"ARCHIVED","created":"2018","lastUpdated":"2018","lastActive":"no","area":4.219669061118951,"changesets":104,"mappers":22,"roads":23.515697663126,"buildings":1282,"edits":1511,"latest":"2018-04-29T11:25:01.000Z"},"geometry":{"type":"Point","coordinates":[30.9351296047106,-17.919704092956]}},{"type":"Feature","properties":{"id":4469,"title":"Missing Maps: West Harare, Zimbabwe 4/5","status":"ARCHIVED","created":"2018","lastUpdated":"2018","lastActive":"no","area":10.239595712615673,"changesets":275,"mappers":41,"roads":5.39085425039512,"buildings":7400,"edits":7522,"latest":"2018-05-08T12:48:19.000Z"},"geometry":{"type":"Point","coordinates":[30.9505247033697,-17.9029029929578]}},{"type":"Feature","properties":{"id":5643,"title":"Harare STI prevention: CHIEDZA project 2","status":"PUBLISHED","created":"2018","lastUpdated":"2019","lastActive":"no","area":4.13652118996159,"changesets":209,"mappers":14,"roads":8.18914039354725,"buildings":5375,"edits":5485,"latest":"2019-01-20T21:08:52.000Z"},"geometry":{"type":"Point","coordinates":[31.1056581303077,-17.6912468951822]}},{"type":"Feature","properties":{"id":5674,"title":"Harare STI prevention: CHIEDZA project 4","status":"PUBLISHED","created":"2019","lastUpdated":"2019","lastActive":"yes","area":6.54289488626679,"changesets":134,"mappers":14,"roads":0.407385704849688,"buildings":1218,"edits":1224,"latest":"2019-02-01T14:16:32.000Z"},"geometry":{"type":"Point","coordinates":[31.1889190680788,-17.8378098689109]}},{"type":"Feature","properties":{"id":2976,"title":"Missing Maps: Zimbabwe Malaria Elimination 132","status":"ARCHIVED","created":"2017","lastUpdated":"2017","lastActive":"no","area":350.88029239505295,"changesets":1179,"mappers":37,"roads":0.0216834195097381,"buildings":16707,"edits":16717,"latest":"2017-05-15T04:27:38.000Z"},"geometry":{"type":"Point","coordinates":[29.4876286195405,-19.3114923056629]}},{"type":"Feature","properties":{"id":2996,"title":"Missing Maps: Zimbabwe Malaria Elimination 138","status":"ARCHIVED","created":"2017","lastUpdated":"2017","lastActive":"no","area":1339.950620889106,"changesets":1064,"mappers":25,"roads":14.9056884598634,"buildings":12527,"edits":12561,"latest":"2017-05-18T08:28:47.000Z"},"geometry":{"type":"Point","coordinates":[29.798937961672,-19.7751057981346]}},{"type":"Feature","properties":{"id":2969,"title":"Missing Maps: Zimbabwe Malaria Elimination 129","status":"ARCHIVED","created":"2017","lastUpdated":"2017","lastActive":"no","area":645.5616655371582,"changesets":1333,"mappers":47,"roads":7.92276066058569,"buildings":16174,"edits":16334,"latest":"2017-05-11T19:43:14.000Z"},"geometry":{"type":"Point","coordinates":[29.1598266459534,-19.118248825991]}},{"type":"Feature","properties":{"id":2998,"title":"Missing Maps: Zimbabwe Malaria Elimination 140","status":"ARCHIVED","created":"2017","lastUpdated":"2017","lastActive":"no","area":804.7792095461232,"changesets":1621,"mappers":63,"roads":3.63328116795482,"buildings":17755,"edits":17838,"latest":"2017-05-22T12:48:12.000Z"},"geometry":{"type":"Point","coordinates":[30.5531221656975,-19.4738085007803]}},{"type":"Feature","properties":{"id":2978,"title":"Missing Maps: Zimbabwe Malaria Elimination 134","status":"ARCHIVED","created":"2017","lastUpdated":"2017","lastActive":"no","area":648.606231114088,"changesets":1367,"mappers":28,"roads":3.67012790478405,"buildings":15800,"edits":15852,"latest":"2017-05-22T12:05:04.000Z"},"geometry":{"type":"Point","coordinates":[30.0307774930051,-19.1823834935955]}},{"type":"Feature","properties":{"id":3015,"title":"Missing Maps: Zimbabwe Malaria Elimination 144","status":"ARCHIVED","created":"2017","lastUpdated":"2017","lastActive":"no","area":792.5148279888792,"changesets":1883,"mappers":52,"roads":36.7819791267178,"buildings":18172,"edits":18328,"latest":"2017-05-24T14:28:42.000Z"},"geometry":{"type":"Point","coordinates":[30.2063325087928,-19.9151332695338]}},{"type":"Feature","properties":{"id":3050,"title":"Missing Maps: Zimbabwe Malaria Elimination 149","status":"ARCHIVED","created":"2017","lastUpdated":"2017","lastActive":"no","area":711.2869446833417,"changesets":1533,"mappers":25,"roads":2.22176492898854,"buildings":19530,"edits":19637,"latest":"2017-05-24T10:28:16.000Z"},"geometry":{"type":"Point","coordinates":[30.2340375658384,-20.6299023127838]}},{"type":"Feature","properties":{"id":3042,"title":"Missing Maps: Zimbabwe Malaria Elimination 146","status":"ARCHIVED","created":"2017","lastUpdated":"2017","lastActive":"no","area":620.367888492036,"changesets":1205,"mappers":37,"roads":1.58015881348076,"buildings":22591,"edits":22822,"latest":"2017-05-23T06:07:42.000Z"},"geometry":{"type":"Point","coordinates":[30.0515324417814,-20.2578473669188]}},{"type":"Feature","properties":{"id":3013,"title":"Missing Maps: Zimbabwe Malaria Elimination 142","status":"ARCHIVED","created":"2017","lastUpdated":"2017","lastActive":"no","area":951.5267715664739,"changesets":2005,"mappers":114,"roads":220.788374419228,"buildings":22053,"edits":22760,"latest":"2017-05-31T22:07:57.000Z"},"geometry":{"type":"Point","coordinates":[30.37435373283,-19.6945231476376]}},{"type":"Feature","properties":{"id":3045,"title":"Missing Maps: Zimbabwe Malaria Elimination 148","status":"ARCHIVED","created":"2017","lastUpdated":"2017","lastActive":"no","area":867.2229440148042,"changesets":1674,"mappers":66,"roads":8.86745854044668,"buildings":18308,"edits":18434,"latest":"2017-05-24T20:51:53.000Z"},"geometry":{"type":"Point","coordinates":[30.240926217747,-20.4529750744059]}},{"type":"Feature","properties":{"id":3071,"title":"Missing Maps: Zimbabwe Malaria Elimination 155","status":"ARCHIVED","created":"2017","lastUpdated":"2017","lastActive":"no","area":297.93289844155726,"changesets":681,"mappers":35,"roads":0.00867063057797776,"buildings":7041,"edits":7060,"latest":"2017-05-26T07:04:36.000Z"},"geometry":{"type":"Point","coordinates":[29.5981877099749,-20.9785071979843]}},{"type":"Feature","properties":{"id":3053,"title":"Missing Maps: Zimbabwe Malaria Elimination 151","status":"ARCHIVED","created":"2017","lastUpdated":"2017","lastActive":"no","area":875.8937238085917,"changesets":1235,"mappers":19,"roads":0.227654127303031,"buildings":20834,"edits":20850,"latest":"2017-05-25T06:17:26.000Z"},"geometry":{"type":"Point","coordinates":[30.2144691694134,-20.8988687739626]}},{"type":"Feature","properties":{"id":3068,"title":"Missing Maps: Zimbabwe Malaria Elimination 153","status":"ARCHIVED","created":"2017","lastUpdated":"2017","lastActive":"no","area":592.4423664590373,"changesets":1434,"mappers":54,"roads":6.01945431741486,"buildings":16741,"edits":16893,"latest":"2017-07-25T18:26:15.000Z"},"geometry":{"type":"Point","coordinates":[29.7659596352043,-20.7737949898472]}},{"type":"Feature","properties":{"id":3073,"title":"Missing Maps: Zimbabwe Malaria Elimination 157","status":"ARCHIVED","created":"2017","lastUpdated":"2017","lastActive":"no","area":695.9857392539496,"changesets":1569,"mappers":41,"roads":10.026616043723,"buildings":16773,"edits":16888,"latest":"2017-05-26T21:44:35.000Z"},"geometry":{"type":"Point","coordinates":[29.5445331729926,-16.2765169906273]}},{"type":"Feature","properties":{"id":3081,"title":"Missing Maps: Zimbabwe Malaria Elimination 159","status":"ARCHIVED","created":"2017","lastUpdated":"2017","lastActive":"no","area":1105.2207315128408,"changesets":1539,"mappers":57,"roads":2.39488549326567,"buildings":18080,"edits":18138,"latest":"2017-05-31T21:05:43.000Z"},"geometry":{"type":"Point","coordinates":[29.5302487752657,-16.5568250517425]}},{"type":"Feature","properties":{"id":3090,"title":"Missing Maps: Zimbabwe Malaria Elimination 164","status":"ARCHIVED","created":"2017","lastUpdated":"2017","lastActive":"no","area":695.4404602105835,"changesets":1488,"mappers":52,"roads":34.5802897131935,"buildings":18422,"edits":18762,"latest":"2017-05-31T05:39:01.000Z"},"geometry":{"type":"Point","coordinates":[29.4899067439033,-16.82291675645]}},{"type":"Feature","properties":{"id":3083,"title":"Missing Maps: Zimbabwe Malaria Elimination 161","status":"ARCHIVED","created":"2017","lastUpdated":"2017","lastActive":"no","area":418.27615191492544,"changesets":978,"mappers":23,"roads":0.22986936573625,"buildings":13987,"edits":14017,"latest":"2017-06-16T13:15:40.000Z"},"geometry":{"type":"Point","coordinates":[29.814936851077,-16.6117395086801]}},{"type":"Feature","properties":{"id":3091,"title":"Missing Maps: Zimbabwe Malaria Elimination 165","status":"ARCHIVED","created":"2017","lastUpdated":"2017","lastActive":"no","area":636.1436044775421,"changesets":933,"mappers":22,"roads":0.480242074978502,"buildings":21711,"edits":21756,"latest":"2017-05-31T05:48:57.000Z"},"geometry":{"type":"Point","coordinates":[29.7405924072834,-16.7766913522357]}},{"type":"Feature","properties":{"id":3106,"title":"Missing Maps: Zimbabwe Malaria Elimination 168","status":"ARCHIVED","created":"2017","lastUpdated":"2017","lastActive":"no","area":469.9584882252969,"changesets":1526,"mappers":40,"roads":23.3282361852767,"buildings":13386,"edits":13594,"latest":"2017-06-02T02:22:14.000Z"},"geometry":{"type":"Point","coordinates":[29.1250398260031,-17.05399059154]}},{"type":"Feature","properties":{"id":3133,"title":"Missing Maps: Zimbabwe Malaria Elimination 186","status":"ARCHIVED","created":"2017","lastUpdated":"2017","lastActive":"no","area":408.5777626013577,"changesets":1510,"mappers":28,"roads":2.10027285288437,"buildings":14938,"edits":14974,"latest":"2017-06-08T18:44:16.000Z"},"geometry":{"type":"Point","coordinates":[30.2883779535857,-17.7232869543712]}},{"type":"Feature","properties":{"id":3108,"title":"Missing Maps: Zimbabwe Malaria Elimination 170","status":"ARCHIVED","created":"2017","lastUpdated":"2017","lastActive":"no","area":676.920547502407,"changesets":1253,"mappers":30,"roads":5.17000710472129,"buildings":16606,"edits":16638,"latest":"2017-06-03T23:37:43.000Z"},"geometry":{"type":"Point","coordinates":[29.5572194014236,-17.0132555109317]}},{"type":"Feature","properties":{"id":3124,"title":"Missing Maps: Zimbabwe Malaria Elimination 179","status":"ARCHIVED","created":"2017","lastUpdated":"2017","lastActive":"no","area":442.9310925398836,"changesets":1796,"mappers":59,"roads":28.5635242317219,"buildings":11421,"edits":11819,"latest":"2017-06-06T13:34:47.000Z"},"geometry":{"type":"Point","coordinates":[29.6806633888192,-17.4236796149417]}},{"type":"Feature","properties":{"id":3119,"title":"Missing Maps: Zimbabwe Malaria Elimination 175","status":"ARCHIVED","created":"2017","lastUpdated":"2017","lastActive":"no","area":930.6776345634797,"changesets":1830,"mappers":28,"roads":0.67807207985852,"buildings":20626,"edits":20658,"latest":"2017-07-19T05:59:02.000Z"},"geometry":{"type":"Point","coordinates":[29.6893301142335,-17.2297557534568]}},{"type":"Feature","properties":{"id":3111,"title":"Missing Maps: Zimbabwe Malaria Elimination 171","status":"ARCHIVED","created":"2017","lastUpdated":"2017","lastActive":"no","area":1190.1669798875268,"changesets":1595,"mappers":36,"roads":11.7322879915586,"buildings":22240,"edits":22286,"latest":"2017-07-14T11:30:37.000Z"},"geometry":{"type":"Point","coordinates":[29.9113257369465,-17.0079121058246]}},{"type":"Feature","properties":{"id":3122,"title":"Missing Maps: Zimbabwe Malaria Elimination 177","status":"ARCHIVED","created":"2017","lastUpdated":"2017","lastActive":"no","area":1207.6629834989033,"changesets":1414,"mappers":30,"roads":21.7976038065419,"buildings":16649,"edits":16870,"latest":"2017-06-04T01:56:19.000Z"},"geometry":{"type":"Point","coordinates":[30.5290536728974,-17.3173297116304]}},{"type":"Feature","properties":{"id":3131,"title":"Missing Maps: Zimbabwe Malaria Elimination 184","status":"ARCHIVED","created":"2017","lastUpdated":"2017","lastActive":"no","area":490.2411132356081,"changesets":1949,"mappers":87,"roads":33.4056516437662,"buildings":17317,"edits":17625,"latest":"2017-06-14T18:33:33.000Z"},"geometry":{"type":"Point","coordinates":[30.088842103874,-17.6987363647752]}},{"type":"Feature","properties":{"id":3129,"title":"Missing Maps: Zimbabwe Malaria Elimination 182","status":"ARCHIVED","created":"2017","lastUpdated":"2017","lastActive":"no","area":1379.482828223931,"changesets":1234,"mappers":62,"roads":60.4317199019563,"buildings":12853,"edits":13346,"latest":"2017-06-19T14:38:07.000Z"},"geometry":{"type":"Point","coordinates":[29.5613293847061,-17.6740871337562]}},{"type":"Feature","properties":{"id":3142,"title":"Missing Maps: Zimbabwe Malaria Elimination 188","status":"ARCHIVED","created":"2017","lastUpdated":"2017","lastActive":"no","area":669.7436797243276,"changesets":1339,"mappers":47,"roads":9.15404996402167,"buildings":29278,"edits":29755,"latest":"2017-06-10T13:53:36.000Z"},"geometry":{"type":"Point","coordinates":[30.8057572135393,-17.7276544994894]}},{"type":"Feature","properties":{"id":2853,"title":"Missing Maps: Zimbabwe Malaria Elimination 63","status":"ARCHIVED","created":"2017","lastUpdated":"2017","lastActive":"no","area":916.6075134002016,"changesets":1990,"mappers":63,"roads":4.03984666550672,"buildings":19449,"edits":19577,"latest":"2017-04-25T20:25:19.000Z"},"geometry":{"type":"Point","coordinates":[28.7789580707398,-20.0465723050696]}},{"type":"Feature","properties":{"id":2846,"title":"Missing Maps: Zimbabwe Malaria Elimination 58","status":"ARCHIVED","created":"2017","lastUpdated":"2017","lastActive":"no","area":903.2056705079176,"changesets":1701,"mappers":72,"roads":11.5105254369568,"buildings":17463,"edits":17771,"latest":"2017-04-29T09:29:00.000Z"},"geometry":{"type":"Point","coordinates":[27.6525824119396,-19.5605607324227]}},{"type":"Feature","properties":{"id":3912,"title":"Road network Zimbabwe (4)","status":"ARCHIVED","created":"2017","lastUpdated":"2018","lastActive":"no","area":1677.6794478491497,"changesets":2085,"mappers":108,"roads":6862.01144656864,"buildings":4646,"edits":47550,"latest":"2018-06-11T12:52:10.000Z"},"geometry":{"type":"Point","coordinates":[31.662859106183,-19.6829027180726]}},{"type":"Feature","properties":{"id":2868,"title":"Missing Maps: Zimbabwe Malaria Elimination 76","status":"ARCHIVED","created":"2017","lastUpdated":"2017","lastActive":"no","area":961.7217263278618,"changesets":2196,"mappers":88,"roads":99.7714136406292,"buildings":19598,"edits":20563,"latest":"2017-08-08T17:14:41.000Z"},"geometry":{"type":"Point","coordinates":[29.1541389349112,-20.5310944058819]}},{"type":"Feature","properties":{"id":2911,"title":"Do Not Use, Replaced","status":"ARCHIVED","created":"2017","lastUpdated":"2017","lastActive":"no","area":1007.2709701767525,"changesets":0,"mappers":0,"roads":0,"buildings":0,"edits":0,"latest":null},"geometry":{"type":"Point","coordinates":[29.1354017671059,-17.4077822101653]}},{"type":"Feature","properties":{"id":2880,"title":"Missing Maps: Zimbabwe Malaria Elimination 84","status":"ARCHIVED","created":"2017","lastUpdated":"2017","lastActive":"no","area":849.839614543162,"changesets":1549,"mappers":53,"roads":0.0206834947756005,"buildings":18205,"edits":18264,"latest":"2017-05-12T07:17:44.000Z"},"geometry":{"type":"Point","coordinates":[28.5014200992884,-21.2166957370388]}},{"type":"Feature","properties":{"id":2918,"title":"Missing Maps: Zimbabwe Malaria Elimination 102","status":"ARCHIVED","created":"2017","lastUpdated":"2017","lastActive":"no","area":758.7826664438055,"changesets":1659,"mappers":61,"roads":0.714509695886348,"buildings":20229,"edits":20252,"latest":"2017-08-16T05:56:53.000Z"},"geometry":{"type":"Point","coordinates":[28.9147179183597,-17.78132167437]}},{"type":"Feature","properties":{"id":2946,"title":"Missing Maps: Zimbabwe Malaria Elimination 118","status":"ARCHIVED","created":"2017","lastUpdated":"2017","lastActive":"no","area":1014.6572139193219,"changesets":1368,"mappers":19,"roads":0.495611215276909,"buildings":16692,"edits":16734,"latest":"2017-05-05T20:02:40.000Z"},"geometry":{"type":"Point","coordinates":[29.5554679434188,-18.79509627157]}},{"type":"Feature","properties":{"id":2860,"title":"Missing Maps: Zimbabwe Malaria Elimination 70","status":"ARCHIVED","created":"2017","lastUpdated":"2017","lastActive":"no","area":600.7456201464605,"changesets":2044,"mappers":81,"roads":29.7641093903686,"buildings":16025,"edits":16077,"latest":"2017-07-19T14:34:55.000Z"},"geometry":{"type":"Point","coordinates":[28.0097009406958,-21.2532876901318]}},{"type":"Feature","properties":{"id":2863,"title":"Missing Maps: Zimbabwe Malaria Elimination 72","status":"ARCHIVED","created":"2017","lastUpdated":"2017","lastActive":"no","area":886.7826033634965,"changesets":1469,"mappers":43,"roads":3.17020973521512,"buildings":17848,"edits":17870,"latest":"2017-08-01T14:08:01.000Z"},"geometry":{"type":"Point","coordinates":[29.6958098200894,-20.1075434199308]}},{"type":"Feature","properties":{"id":2858,"title":"Missing Maps: Zimbabwe Malaria Elimination 68","status":"ARCHIVED","created":"2017","lastUpdated":"2017","lastActive":"no","area":670.5467522568063,"changesets":1713,"mappers":50,"roads":30.5299813651658,"buildings":21623,"edits":21784,"latest":"2017-08-07T23:28:32.000Z"},"geometry":{"type":"Point","coordinates":[27.8300125726206,-20.9690565655556]}},{"type":"Feature","properties":{"id":2872,"title":"Missing Maps: Zimbabwe Malaria Elimination 80","status":"ARCHIVED","created":"2017","lastUpdated":"2017","lastActive":"no","area":702.2646735088541,"changesets":1777,"mappers":24,"roads":12.6657902833175,"buildings":19669,"edits":19727,"latest":"2017-04-26T22:43:17.000Z"},"geometry":{"type":"Point","coordinates":[29.5265799328361,-20.7810852288175]}},{"type":"Feature","properties":{"id":2870,"title":"Missing Maps: Zimbabwe Malaria Elimination 78","status":"ARCHIVED","created":"2017","lastUpdated":"2017","lastActive":"no","area":826.6994036996933,"changesets":1362,"mappers":59,"roads":50.3545425528962,"buildings":13002,"edits":13227,"latest":"2017-04-25T17:44:11.000Z"},"geometry":{"type":"Point","coordinates":[28.9559069145901,-20.7415598912591]}},{"type":"Feature","properties":{"id":2886,"title":"Missing Maps: Zimbabwe Malaria Elimination 87","status":"ARCHIVED","created":"2017","lastUpdated":"2017","lastActive":"no","area":834.6885291880953,"changesets":1893,"mappers":89,"roads":16.1005093871448,"buildings":12618,"edits":12702,"latest":"2017-05-22T06:40:07.000Z"},"geometry":{"type":"Point","coordinates":[28.7660519971267,-21.4601801859268]}},{"type":"Feature","properties":{"id":2847,"title":"Missing Maps: Zimbabwe Malaria Elimination 59","status":"ARCHIVED","created":"2017","lastUpdated":"2017","lastActive":"no","area":829.220245941652,"changesets":1963,"mappers":59,"roads":2.53297070449732,"buildings":23460,"edits":23544,"latest":"2017-04-30T22:21:05.000Z"},"geometry":{"type":"Point","coordinates":[27.6656707349427,-19.8497886574977]}},{"type":"Feature","properties":{"id":2856,"title":"Missing Maps: Zimbabwe Malaria Elimination 66","status":"ARCHIVED","created":"2017","lastUpdated":"2017","lastActive":"no","area":885.6906814881532,"changesets":1623,"mappers":107,"roads":108.711686765107,"buildings":11072,"edits":11388,"latest":"2017-06-27T19:43:01.000Z"},"geometry":{"type":"Point","coordinates":[27.9649328281125,-20.2588016279664]}},{"type":"Feature","properties":{"id":2898,"title":"Missing Maps: Zimbabwe Malaria Elimination 92","status":"ARCHIVED","created":"2017","lastUpdated":"2017","lastActive":"no","area":656.9522364499987,"changesets":1866,"mappers":95,"roads":9.6831566369035,"buildings":19914,"edits":20043,"latest":"2017-08-06T02:03:52.000Z"},"geometry":{"type":"Point","coordinates":[30.0164254826459,-22.0586825780552]}},{"type":"Feature","properties":{"id":2888,"title":"Missing Maps: Zimbabwe Malaria Elimination 89","status":"ARCHIVED","created":"2017","lastUpdated":"2017","lastActive":"no","area":751.2995980735323,"changesets":1750,"mappers":65,"roads":13.2047755888788,"buildings":11022,"edits":11151,"latest":"2017-05-02T01:47:41.000Z"},"geometry":{"type":"Point","coordinates":[29.0666860293344,-21.6378048707465]}},{"type":"Feature","properties":{"id":2900,"title":"Missing Maps: Zimbabwe Malaria Elimination 94","status":"ARCHIVED","created":"2017","lastUpdated":"2017","lastActive":"no","area":1108.7641464450846,"changesets":1663,"mappers":55,"roads":19.691640370056,"buildings":15599,"edits":15693,"latest":"2017-08-11T15:59:08.000Z"},"geometry":{"type":"Point","coordinates":[28.7851345739144,-17.3112158229841]}},{"type":"Feature","properties":{"id":2878,"title":"Missing Maps: Zimbabwe Malaria Elimination 82","status":"ARCHIVED","created":"2017","lastUpdated":"2017","lastActive":"no","area":800.079583441679,"changesets":2026,"mappers":42,"roads":0.449452477470892,"buildings":20672,"edits":20894,"latest":"2017-05-12T07:04:04.000Z"},"geometry":{"type":"Point","coordinates":[28.2880657983173,-21.4679016200147]}},{"type":"Feature","properties":{"id":2920,"title":"Missing Maps: Zimbabwe Malaria Elimination 104","status":"ARCHIVED","created":"2017","lastUpdated":"2017","lastActive":"no","area":774.3019207499435,"changesets":1749,"mappers":61,"roads":306.699091496953,"buildings":21011,"edits":21514,"latest":"2017-05-24T14:44:58.000Z"},"geometry":{"type":"Point","coordinates":[28.698674320355,-18.0005625482025]}},{"type":"Feature","properties":{"id":2930,"title":"Missing Maps: Zimbabwe Malaria Elimination 110","status":"ARCHIVED","created":"2017","lastUpdated":"2017","lastActive":"no","area":678.7600348417029,"changesets":1522,"mappers":15,"roads":0.0151922955693008,"buildings":16664,"edits":16674,"latest":"2017-05-27T01:56:43.000Z"},"geometry":{"type":"Point","coordinates":[28.8533761401118,-18.232939711933]}},{"type":"Feature","properties":{"id":2916,"title":"Missing Maps: Zimbabwe Malaria Elimination 100","status":"ARCHIVED","created":"2017","lastUpdated":"2017","lastActive":"no","area":1398.0254294858028,"changesets":1659,"mappers":40,"roads":98.3396528561587,"buildings":19366,"edits":19500,"latest":"2017-05-13T00:52:35.000Z"},"geometry":{"type":"Point","coordinates":[29.1850918222668,-17.6837638975717]}},{"type":"Feature","properties":{"id":2928,"title":"Missing Maps: Zimbabwe Malaria Elimination 108","status":"ARCHIVED","created":"2017","lastUpdated":"2017","lastActive":"no","area":634.819969515313,"changesets":1841,"mappers":45,"roads":2.52194463667579,"buildings":23871,"edits":23967,"latest":"2017-05-10T11:19:22.000Z"},"geometry":{"type":"Point","coordinates":[28.6599626882398,-18.4905906736488]}},{"type":"Feature","properties":{"id":2943,"title":"Missing Maps: Zimbabwe Malaria Elimination 116","status":"ARCHIVED","created":"2017","lastUpdated":"2017","lastActive":"no","area":663.1540269615123,"changesets":2078,"mappers":107,"roads":6.09972445031809,"buildings":18717,"edits":18848,"latest":"2017-05-05T06:37:06.000Z"},"geometry":{"type":"Point","coordinates":[29.0797990850103,-18.9353270820932]}},{"type":"Feature","properties":{"id":2958,"title":"Missing Maps: Zimbabwe Malaria Elimination 123","status":"ARCHIVED","created":"2017","lastUpdated":"2017","lastActive":"no","area":493.0496413377599,"changesets":2062,"mappers":74,"roads":0.318310026732813,"buildings":16286,"edits":16314,"latest":"2017-07-19T17:49:45.000Z"},"geometry":{"type":"Point","coordinates":[31.491969543418,-18.9734607361612]}},{"type":"Feature","properties":{"id":2949,"title":"Missing Maps: Zimbabwe Malaria Elimination 120","status":"ARCHIVED","created":"2017","lastUpdated":"2017","lastActive":"no","area":1404.8127933253527,"changesets":1781,"mappers":95,"roads":30.2994533953136,"buildings":11885,"edits":12233,"latest":"2017-05-11T07:36:13.000Z"},"geometry":{"type":"Point","coordinates":[30.5920731524007,-18.9055060637847]}},{"type":"Feature","properties":{"id":2933,"title":"Missing Maps: Zimbabwe Malaria Elimination 112","status":"ARCHIVED","created":"2017","lastUpdated":"2017","lastActive":"no","area":691.0423465045619,"changesets":1872,"mappers":72,"roads":139.142328439926,"buildings":20623,"edits":21151,"latest":"2017-05-09T08:28:05.000Z"},"geometry":{"type":"Point","coordinates":[29.2341535198336,-18.3230460200127]}},{"type":"Feature","properties":{"id":2835,"title":"Missing Maps: Zimbabwe Malaria Elimination 52","status":"ARCHIVED","created":"2017","lastUpdated":"2017","lastActive":"no","area":804.5864386206475,"changesets":1539,"mappers":45,"roads":91.9291082130766,"buildings":11486,"edits":11516,"latest":"2017-04-20T16:08:57.000Z"},"geometry":{"type":"Point","coordinates":[28.2970824747795,-18.6888542511341]}},{"type":"Feature","properties":{"id":2941,"title":"Missing Maps: Zimbabwe Malaria Elimination 114","status":"ARCHIVED","created":"2017","lastUpdated":"2017","lastActive":"no","area":836.3498563796146,"changesets":1818,"mappers":72,"roads":20.1361360377823,"buildings":21309,"edits":21537,"latest":"2017-08-17T10:26:46.000Z"},"geometry":{"type":"Point","coordinates":[29.222457298371,-18.5487700719139]}},{"type":"Feature","properties":{"id":2984,"title":"Missing Maps: Zimbabwe Malaria Elimination 136","status":"ARCHIVED","created":"2017","lastUpdated":"2017","lastActive":"no","area":528.0589309701272,"changesets":1690,"mappers":53,"roads":287.876740021899,"buildings":51378,"edits":52480,"latest":"2017-07-04T19:14:06.000Z"},"geometry":{"type":"Point","coordinates":[29.8279400623691,-19.4270967634773]}},{"type":"Feature","properties":{"id":2851,"title":"Missing Maps: Zimbabwe Malaria Elimination 62","status":"ARCHIVED","created":"2017","lastUpdated":"2017","lastActive":"no","area":1581.0960909738353,"changesets":1632,"mappers":47,"roads":0.701317044790455,"buildings":17571,"edits":17770,"latest":"2017-04-20T06:05:18.000Z"},"geometry":{"type":"Point","coordinates":[28.4689805413047,-19.9788253620067]}},{"type":"Feature","properties":{"id":2866,"title":"Missing Maps: Zimbabwe Malaria Elimination 74","status":"ARCHIVED","created":"2017","lastUpdated":"2017","lastActive":"no","area":1643.9582078357225,"changesets":1979,"mappers":51,"roads":0.0273826366802114,"buildings":15621,"edits":15775,"latest":"2017-04-30T19:19:31.000Z"},"geometry":{"type":"Point","coordinates":[29.4129168854387,-20.3312634291515]}},{"type":"Feature","properties":{"id":2854,"title":"Missing Maps: Zimbabwe Malaria Elimination 64","status":"ARCHIVED","created":"2017","lastUpdated":"2017","lastActive":"no","area":1765.992534945832,"changesets":1445,"mappers":55,"roads":0.389146803883084,"buildings":17327,"edits":17366,"latest":"2017-04-25T04:45:02.000Z"},"geometry":{"type":"Point","coordinates":[28.8219773317838,-19.5909436929353]}},{"type":"Feature","properties":{"id":2884,"title":"Missing Maps: Zimbabwe Malaria Elimination 85","status":"ARCHIVED","created":"2017","lastUpdated":"2017","lastActive":"no","area":1248.4453657272625,"changesets":1836,"mappers":77,"roads":327.843837306853,"buildings":16627,"edits":17142,"latest":"2017-04-26T00:09:08.000Z"},"geometry":{"type":"Point","coordinates":[28.849777251612,-21.1215069717201]}},{"type":"Feature","properties":{"id":2796,"title":"Missing Maps: Zimbabwe Malaria Elimination 25","status":"ARCHIVED","created":"2017","lastUpdated":"2017","lastActive":"no","area":45.85638042435993,"changesets":482,"mappers":33,"roads":1.22833834371314,"buildings":5227,"edits":5249,"latest":"2017-08-08T14:59:25.000Z"},"geometry":{"type":"Point","coordinates":[28.2540239676393,-18.9750709551126]}},{"type":"Feature","properties":{"id":3114,"title":"Missing Maps: Zimbabwe Malaria Elimination 174","status":"ARCHIVED","created":"2017","lastUpdated":"2017","lastActive":"no","area":464.3670595776729,"changesets":1107,"mappers":19,"roads":0.121977359004775,"buildings":16773,"edits":16794,"latest":"2017-06-02T09:17:01.000Z"},"geometry":{"type":"Point","coordinates":[29.4309662406615,-17.1695322087636]}},{"type":"Feature","properties":{"id":3155,"title":"Missing Maps: Zimbabwe Malaria Elimination 191","status":"ARCHIVED","created":"2017","lastUpdated":"2017","lastActive":"no","area":964.2729539737234,"changesets":1510,"mappers":59,"roads":150.065367623053,"buildings":16180,"edits":16516,"latest":"2017-08-12T19:49:32.000Z"},"geometry":{"type":"Point","coordinates":[29.9504400616746,-17.972561015247]}},{"type":"Feature","properties":{"id":2901,"title":"Missing Maps: Zimbabwe Malaria Elimination 95","status":"ARCHIVED","created":"2017","lastUpdated":"2017","lastActive":"no","area":697.7038069284434,"changesets":1779,"mappers":81,"roads":6.34251981669185,"buildings":23414,"edits":23707,"latest":"2017-08-03T13:13:36.000Z"},"geometry":{"type":"Point","coordinates":[28.2609273300009,-17.6409991828592]}},{"type":"Feature","properties":{"id":3165,"title":"Missing Maps: Zimbabwe Malaria Elimination 198","status":"ARCHIVED","created":"2017","lastUpdated":"2017","lastActive":"no","area":620.9539460421306,"changesets":1453,"mappers":71,"roads":2.90486820180499,"buildings":16627,"edits":16718,"latest":"2017-08-11T22:47:19.000Z"},"geometry":{"type":"Point","coordinates":[30.6288525474591,-18.1079653772967]}},{"type":"Feature","properties":{"id":2929,"title":"Missing Maps: Zimbabwe Malaria Elimination 109","status":"ARCHIVED","created":"2017","lastUpdated":"2017","lastActive":"no","area":837.2719289478891,"changesets":1935,"mappers":89,"roads":9.67332483342754,"buildings":15887,"edits":16143,"latest":"2017-05-03T08:47:19.000Z"},"geometry":{"type":"Point","coordinates":[28.6203641270436,-18.2633423580766]}},{"type":"Feature","properties":{"id":3190,"title":"Missing Maps: Zimbabwe Malaria Elimination 205","status":"ARCHIVED","created":"2017","lastUpdated":"2017","lastActive":"no","area":175.78590806693822,"changesets":1285,"mappers":38,"roads":34.3096475562587,"buildings":56885,"edits":59658,"latest":"2017-08-08T10:52:53.000Z"},"geometry":{"type":"Point","coordinates":[28.5525554958836,-20.1804660797694]}},{"type":"Feature","properties":{"id":2977,"title":"Missing Maps: Zimbabwe Malaria Elimination 133","status":"ARCHIVED","created":"2017","lastUpdated":"2017","lastActive":"no","area":1298.2639222085209,"changesets":1897,"mappers":50,"roads":56.2391750390663,"buildings":18400,"edits":19049,"latest":"2017-05-22T14:17:18.000Z"},"geometry":{"type":"Point","coordinates":[29.7472186257855,-19.1646576638594]}},{"type":"Feature","properties":{"id":2286,"title":"Missing Maps: Mwezeni District, Zimbabwe (roads and settlements)","status":"PUBLISHED","created":"2016","lastUpdated":"2018","lastActive":"no","area":13275.258682859241,"changesets":4131,"mappers":371,"roads":12590.212089941,"buildings":12704,"edits":42335,"latest":"2018-12-05T12:09:09.000Z"},"geometry":{"type":"Point","coordinates":[30.6917474873179,-21.3654288722803]}},{"type":"Feature","properties":{"id":3112,"title":"Missing Maps: Zimbabwe Malaria Elimination 172","status":"ARCHIVED","created":"2017","lastUpdated":"2017","lastActive":"no","area":1006.0724006084519,"changesets":1557,"mappers":36,"roads":2.76289938483387e-10,"buildings":16682,"edits":16684,"latest":"2017-06-02T18:52:56.000Z"},"geometry":{"type":"Point","coordinates":[30.3895493605516,-17.0163503413041]}},{"type":"Feature","properties":{"id":2917,"title":"Missing Maps: Zimbabwe Malaria Elimination 101","status":"ARCHIVED","created":"2017","lastUpdated":"2017","lastActive":"no","area":692.3243795675879,"changesets":1816,"mappers":67,"roads":0.998756208485761,"buildings":23867,"edits":23903,"latest":"2017-04-30T17:22:39.000Z"},"geometry":{"type":"Point","coordinates":[28.60810532847,-17.7918358638133]}},{"type":"Feature","properties":{"id":1669,"title":"Missing Maps: East Harare, Zimbabwe - Step 2 (Roads)","status":"ARCHIVED","created":"2016","lastUpdated":"2016","lastActive":"no","area":93.59195553967234,"changesets":298,"mappers":47,"roads":518.700705944354,"buildings":1286,"edits":9001,"latest":"2016-04-16T20:11:19.000Z"},"geometry":{"type":"Point","coordinates":[31.2254495959293,-17.8468300136206]}},{"type":"Feature","properties":{"id":5521,"title":"Harare STI prevention: CHEIDZA project 1","status":"PUBLISHED","created":"2018","lastUpdated":"2018","lastActive":"no","area":10.021200083164546,"changesets":737,"mappers":23,"roads":55.605372734895,"buildings":22978,"edits":24211,"latest":"2018-12-22T00:58:20.000Z"},"geometry":{"type":"Point","coordinates":[30.9975580340305,-17.937825347822]}},{"type":"Feature","properties":{"id":3889,"title":"Road network Zimbabwe (1)","status":"ARCHIVED","created":"2017","lastUpdated":"2018","lastActive":"no","area":1245.9465836749403,"changesets":1196,"mappers":156,"roads":4457.27905970679,"buildings":728,"edits":25266,"latest":"2018-03-06T20:27:20.000Z"},"geometry":{"type":"Point","coordinates":[31.1223739425421,-19.5591192978281]}},{"type":"Feature","properties":{"id":2940,"title":"Missing Maps: Zimbabwe Malaria Elimination 113","status":"ARCHIVED","created":"2017","lastUpdated":"2017","lastActive":"no","area":458.81632472751903,"changesets":1597,"mappers":43,"roads":1.16431329860546,"buildings":15602,"edits":15620,"latest":"2017-05-05T00:07:24.000Z"},"geometry":{"type":"Point","coordinates":[29.4606452436797,-18.4174447332206]}},{"type":"Feature","properties":{"id":2909,"title":"Missing Maps: Zimbabwe Malaria Elimination 98","status":"ARCHIVED","created":"2017","lastUpdated":"2017","lastActive":"no","area":930.3437964879708,"changesets":1753,"mappers":62,"roads":1.38370864374093,"buildings":24803,"edits":24891,"latest":"2017-07-13T13:01:52.000Z"},"geometry":{"type":"Point","coordinates":[28.5844763352432,-17.5654675366985]}},{"type":"Feature","properties":{"id":2912,"title":"Missing Maps: Zimbabwe Malaria Elimination 99","status":"ARCHIVED","created":"2017","lastUpdated":"2017","lastActive":"no","area":752.3867996468049,"changesets":1471,"mappers":86,"roads":23.4409919983663,"buildings":12236,"edits":12370,"latest":"2017-04-30T05:19:50.000Z"},"geometry":{"type":"Point","coordinates":[28.8961700290039,-17.5683520141566]}},{"type":"Feature","properties":{"id":5690,"title":"Harare STI prevention: CHEIDZA project 7","status":"PUBLISHED","created":"2019","lastUpdated":"2019","lastActive":"no","area":14.462179382224633,"changesets":66,"mappers":17,"roads":15.8273995923242,"buildings":1829,"edits":1906,"latest":"2019-01-30T14:30:52.000Z"},"geometry":{"type":"Point","coordinates":[31.2395085467994,-17.906347390732]}},{"type":"Feature","properties":{"id":3128,"title":"Missing Maps: Zimbabwe Malaria Elimination 181","status":"ARCHIVED","created":"2017","lastUpdated":"2017","lastActive":"no","area":849.1741037896288,"changesets":1573,"mappers":26,"roads":1.79313770493157,"buildings":33429,"edits":33567,"latest":"2017-06-06T12:26:47.000Z"},"geometry":{"type":"Point","coordinates":[30.2752128859154,-17.4769524882532]}},{"type":"Feature","properties":{"id":2855,"title":"Missing Maps: Zimbabwe Malaria Elimination 65","status":"ARCHIVED","created":"2017","lastUpdated":"2017","lastActive":"no","area":649.7565993265312,"changesets":1757,"mappers":64,"roads":101.519456459127,"buildings":12955,"edits":13139,"latest":"2017-04-29T12:09:34.000Z"},"geometry":{"type":"Point","coordinates":[27.6955871777414,-20.3257327571769]}},{"type":"Feature","properties":{"id":3125,"title":"Missing Maps: Zimbabwe Malaria Elimination 180","status":"ARCHIVED","created":"2017","lastUpdated":"2017","lastActive":"no","area":915.8677064310008,"changesets":1213,"mappers":22,"roads":1.20535631330813,"buildings":23100,"edits":23148,"latest":"2017-08-13T14:55:02.000Z"},"geometry":{"type":"Point","coordinates":[29.9664359926279,-17.4272110054248]}},{"type":"Feature","properties":{"id":2850,"title":"Missing Maps: Zimbabwe Malaria Elimination 61","status":"ARCHIVED","created":"2017","lastUpdated":"2017","lastActive":"no","area":1083.2215509427663,"changesets":2040,"mappers":43,"roads":0.015445127234251,"buildings":31271,"edits":31299,"latest":"2017-08-08T09:31:21.000Z"},"geometry":{"type":"Point","coordinates":[27.9979419050158,-19.9960632094299]}},{"type":"Feature","properties":{"id":2899,"title":"Missing Maps: Zimbabwe Malaria Elimination 93","status":"ARCHIVED","created":"2017","lastUpdated":"2017","lastActive":"no","area":1369.4229320461334,"changesets":1287,"mappers":61,"roads":2.86122463236616,"buildings":10533,"edits":10601,"latest":"2017-08-08T03:04:29.000Z"},"geometry":{"type":"Point","coordinates":[30.405209827638,-22.0564788032049]}},{"type":"Feature","properties":{"id":2802,"title":"Missing Maps: Zimbabwe Malaria Elimination 31","status":"ARCHIVED","created":"2017","lastUpdated":"2017","lastActive":"no","area":44.24206343560368,"changesets":822,"mappers":51,"roads":7.71612793662579,"buildings":9834,"edits":9936,"latest":"2017-04-13T22:29:00.000Z"},"geometry":{"type":"Point","coordinates":[28.0875686261313,-17.3224101956608]}},{"type":"Feature","properties":{"id":2790,"title":"Mistake do not use: Missing Maps: Zimbabwe Malaria Elimination 23","status":"ARCHIVED","created":"2017","lastUpdated":"2017","lastActive":"no","area":36.94075909056327,"changesets":69,"mappers":4,"roads":0,"buildings":1266,"edits":1266,"latest":"2017-04-12T16:06:23.000Z"},"geometry":{"type":"Point","coordinates":[28.6405023421389,-19.0733476465878]}},{"type":"Feature","properties":{"id":3157,"title":"Missing Maps: Zimbabwe Malaria Elimination 193","status":"ARCHIVED","created":"2017","lastUpdated":"2017","lastActive":"no","area":1638.7871221789394,"changesets":1448,"mappers":34,"roads":20.4373159067063,"buildings":25817,"edits":25881,"latest":"2017-06-13T19:34:32.000Z"},"geometry":{"type":"Point","coordinates":[29.553853713302,-18.2552908745385]}},{"type":"Feature","properties":{"id":2781,"title":"Missing Maps: Zimbabwe Malaria Elimination 16","status":"ARCHIVED","created":"2017","lastUpdated":"2017","lastActive":"no","area":54.524228200349675,"changesets":655,"mappers":28,"roads":8.12802604316382,"buildings":8114,"edits":8140,"latest":"2017-05-07T19:27:38.000Z"},"geometry":{"type":"Point","coordinates":[28.1720460436227,-19.1659467860027]}},{"type":"Feature","properties":{"id":2950,"title":"Missing Maps: Zimbabwe Malaria Elimination 121","status":"ARCHIVED","created":"2017","lastUpdated":"2017","lastActive":"no","area":1599.3243256366436,"changesets":1262,"mappers":27,"roads":3.42289645611292,"buildings":13390,"edits":13416,"latest":"2017-05-08T16:32:43.000Z"},"geometry":{"type":"Point","coordinates":[31.1030224567102,-18.6721252058521]}},{"type":"Feature","properties":{"id":1671,"title":"Missing Maps: West Harare, Zimbabwe","status":"ARCHIVED","created":"2016","lastUpdated":"2018","lastActive":"no","area":438.3666414047299,"changesets":3908,"mappers":262,"roads":1253.95999584563,"buildings":60915,"edits":79582,"latest":"2018-04-12T01:03:29.000Z"},"geometry":{"type":"Point","coordinates":[30.9969911778421,-17.8468731630286]}},{"type":"Feature","properties":{"id":506,"title":"Harare, Zimbabwe (GWU Mapathon)","status":"ARCHIVED","created":"2014","lastUpdated":"2015","lastActive":"no","area":51.66353701728344,"changesets":0,"mappers":0,"roads":0,"buildings":0,"edits":0,"latest":null},"geometry":{"type":"Point","coordinates":[31.0555926597735,-17.8190302780837]}},{"type":"Feature","properties":{"id":2839,"title":"Missing Maps: Zimbabwe Malaria Elimination 54","status":"ARCHIVED","created":"2017","lastUpdated":"2017","lastActive":"no","area":815.85996589587,"changesets":1111,"mappers":33,"roads":3.93318396762469,"buildings":6601,"edits":6711,"latest":"2017-04-18T02:57:54.000Z"},"geometry":{"type":"Point","coordinates":[28.3379642994802,-18.9554518337328]}},{"type":"Feature","properties":{"id":2831,"title":"Missing Maps: Zimbabwe Malaria Elimination 48","status":"ARCHIVED","created":"2017","lastUpdated":"2017","lastActive":"no","area":471.2661218654948,"changesets":1051,"mappers":55,"roads":64.3146237916789,"buildings":10856,"edits":11096,"latest":"2017-04-18T09:11:18.000Z"},"geometry":{"type":"Point","coordinates":[27.5096988758797,-19.9887778886155]}},{"type":"Feature","properties":{"id":2812,"title":"Mistake Do Not Use","status":"ARCHIVED","created":"2017","lastUpdated":"2017","lastActive":"no","area":45.3934103521741,"changesets":0,"mappers":0,"roads":0,"buildings":0,"edits":0,"latest":null},"geometry":{"type":"Point","coordinates":[27.2865359736849,-18.089567727614]}},{"type":"Feature","properties":{"id":2887,"title":"Missing Maps: Zimbabwe Malaria Elimination 88","status":"ARCHIVED","created":"2017","lastUpdated":"2017","lastActive":"no","area":818.4326874075956,"changesets":1963,"mappers":79,"roads":0.190873883336577,"buildings":14033,"edits":14106,"latest":"2017-05-22T12:54:38.000Z"},"geometry":{"type":"Point","coordinates":[29.1173433099057,-21.4074470113152]}},{"type":"Feature","properties":{"id":2862,"title":"Missing Maps: Zimbabwe Malaria Elimination 71","status":"ARCHIVED","created":"2017","lastUpdated":"2017","lastActive":"no","area":1808.533577225679,"changesets":2045,"mappers":67,"roads":18.8668282308748,"buildings":23963,"edits":24132,"latest":"2017-07-25T14:24:02.000Z"},"geometry":{"type":"Point","coordinates":[29.2120512683079,-19.9256899887822]}},{"type":"Feature","properties":{"id":2740,"title":"Missing Maps: Zimbabwe Malaria Elimination 8","status":"ARCHIVED","created":"2017","lastUpdated":"2017","lastActive":"no","area":53.976540311217235,"changesets":852,"mappers":55,"roads":40.8068893936693,"buildings":6356,"edits":6604,"latest":"2017-08-07T20:20:44.000Z"},"geometry":{"type":"Point","coordinates":[26.9619813827096,-18.4768455596947]}},{"type":"Feature","properties":{"id":2816,"title":"Missing Maps: Zimbabwe Malaria Elimination 40","status":"ARCHIVED","created":"2017","lastUpdated":"2017","lastActive":"no","area":51.4248306400692,"changesets":706,"mappers":39,"roads":0.19982778328813,"buildings":6980,"edits":7641,"latest":"2017-04-17T07:51:50.000Z"},"geometry":{"type":"Point","coordinates":[27.937381281095,-18.0801972687255]}},{"type":"Feature","properties":{"id":3178,"title":"Missing Maps: Zimbabwe Malaria Elimination 199","status":"ARCHIVED","created":"2017","lastUpdated":"2017","lastActive":"no","area":576.8361020165468,"changesets":1797,"mappers":61,"roads":30.4338955415223,"buildings":16408,"edits":16578,"latest":"2017-08-11T22:12:30.000Z"},"geometry":{"type":"Point","coordinates":[30.6308046236137,-18.2753330386397]}},{"type":"Feature","properties":{"id":3130,"title":"Missing Maps: Zimbabwe Malaria Elimination 183","status":"ARCHIVED","created":"2017","lastUpdated":"2017","lastActive":"no","area":992.522657083943,"changesets":1340,"mappers":21,"roads":0.0389479538495962,"buildings":14675,"edits":14679,"latest":"2017-06-07T18:17:03.000Z"},"geometry":{"type":"Point","coordinates":[29.9090212806279,-17.7018306176114]}},{"type":"Feature","properties":{"id":3180,"title":"Missing Maps: Zimbabwe Malaria Elimination 200","status":"ARCHIVED","created":"2017","lastUpdated":"2017","lastActive":"no","area":468.90085785512247,"changesets":1393,"mappers":52,"roads":24.3441886432429,"buildings":11759,"edits":11941,"latest":"2017-08-11T12:17:42.000Z"},"geometry":{"type":"Point","coordinates":[30.6918659774459,-18.4794704160666]}},{"type":"Feature","properties":{"id":3179,"title":"Mistake Do Not Use","status":"ARCHIVED","created":"2017","lastUpdated":"2017","lastActive":"no","area":576.8361020165468,"changesets":1,"mappers":1,"roads":0,"buildings":2,"edits":2,"latest":"2017-06-30T12:36:31.000Z"},"geometry":{"type":"Point","coordinates":[30.6308046236138,-18.2753330386397]}},{"type":"Feature","properties":{"id":3123,"title":"Missing Maps: Zimbabwe Malaria Elimination 178","status":"ARCHIVED","created":"2017","lastUpdated":"2017","lastActive":"no","area":790.3199370619063,"changesets":1660,"mappers":97,"roads":69.8934878162085,"buildings":11148,"edits":11668,"latest":"2017-06-06T20:53:17.000Z"},"geometry":{"type":"Point","coordinates":[29.4310090859417,-17.4049557658444]}},{"type":"Feature","properties":{"id":3120,"title":"Missing Maps: Zimbabwe Malaria Elimination 176","status":"ARCHIVED","created":"2017","lastUpdated":"2017","lastActive":"no","area":1257.4567440233968,"changesets":1195,"mappers":44,"roads":0.523042462547464,"buildings":22389,"edits":22451,"latest":"2017-08-07T07:55:28.000Z"},"geometry":{"type":"Point","coordinates":[30.1595738805706,-17.2286568696035]}},{"type":"Feature","properties":{"id":3162,"title":"Missing Maps: Zimbabwe Malaria Elimination 195","status":"ARCHIVED","created":"2017","lastUpdated":"2017","lastActive":"no","area":1174.7572055922467,"changesets":1383,"mappers":52,"roads":3.59011559839763,"buildings":12306,"edits":12336,"latest":"2017-06-16T06:41:18.000Z"},"geometry":{"type":"Point","coordinates":[30.0527956897123,-18.5294466417876]}},{"type":"Feature","properties":{"id":3156,"title":"Missing Maps: Zimbabwe Malaria Elimination 192","status":"ARCHIVED","created":"2017","lastUpdated":"2017","lastActive":"no","area":694.1504036837471,"changesets":2133,"mappers":82,"roads":96.6153843452903,"buildings":19793,"edits":20622,"latest":"2017-06-15T00:40:42.000Z"},"geometry":{"type":"Point","coordinates":[29.3944796089884,-17.9199571439981]}},{"type":"Feature","properties":{"id":3163,"title":"Missing Maps: Zimbabwe Malaria Elimination 196","status":"ARCHIVED","created":"2017","lastUpdated":"2017","lastActive":"no","area":809.8330367264507,"changesets":1214,"mappers":21,"roads":0.30153705934123,"buildings":22795,"edits":22841,"latest":"2017-06-15T06:59:00.000Z"},"geometry":{"type":"Point","coordinates":[30.1223474762561,-18.2441226620402]}},{"type":"Feature","properties":{"id":3158,"title":"Missing Maps: Zimbabwe Malaria Elimination 194","status":"ARCHIVED","created":"2017","lastUpdated":"2017","lastActive":"no","area":943.6261001263152,"changesets":1554,"mappers":49,"roads":1.47608241892859,"buildings":29809,"edits":29918,"latest":"2017-06-14T12:40:05.000Z"},"geometry":{"type":"Point","coordinates":[29.8945115144606,-18.2341155758634]}},{"type":"Feature","properties":{"id":3144,"title":"Missing Maps: Zimbabwe Malaria Elimination 190","status":"ARCHIVED","created":"2017","lastUpdated":"2017","lastActive":"no","area":855.9145938032663,"changesets":1373,"mappers":23,"roads":9.05247437350637,"buildings":13589,"edits":13665,"latest":"2017-06-11T11:32:09.000Z"},"geometry":{"type":"Point","coordinates":[30.3152845077154,-17.9355292419046]}},{"type":"Feature","properties":{"id":766,"title":"Missing Maps: Harare","status":"ARCHIVED","created":"2014","lastUpdated":"2017","lastActive":"no","area":66.16353342571773,"changesets":0,"mappers":0,"roads":0,"buildings":0,"edits":0,"latest":null},"geometry":{"type":"Point","coordinates":[30.9558677643983,-17.8322506203324]}},{"type":"Feature","properties":{"id":1041,"title":"Mana Pools National Park","status":"PUBLISHED","created":"2015","lastUpdated":"2016","lastActive":"no","area":3529.1711488545197,"changesets":32,"mappers":2,"roads":82.3485720188739,"buildings":182,"edits":387,"latest":"2018-01-01T07:39:53.000Z"},"geometry":{"type":"Point","coordinates":[29.5515707124025,-15.9166126189793]}},{"type":"Feature","properties":{"id":1649,"title":"Missing Maps : WASH - Harare, capital of Zimbabwe","status":"ARCHIVED","created":"2016","lastUpdated":"2016","lastActive":"no","area":531.9585969444056,"changesets":158,"mappers":16,"roads":76.0245950202549,"buildings":2710,"edits":3771,"latest":"2016-03-13T23:26:41.000Z"},"geometry":{"type":"Point","coordinates":[31.0371859105437,-17.8468655713673]}},{"type":"Feature","properties":{"id":498,"title":"Dzivarasekwa, Harare Red Cross Urban Assessment","status":"PUBLISHED","created":"2014","lastUpdated":"2016","lastActive":"no","area":4.426575999055722,"changesets":0,"mappers":0,"roads":0,"buildings":0,"edits":0,"latest":null},"geometry":{"type":"Point","coordinates":[30.9281383044936,-17.8066500027631]}}],"Tanzania":[{"type":"Feature","properties":{"id":4260,"title":"Lindi - Mini Grids","status":"PUBLISHED","created":"2018","lastUpdated":"2019","lastActive":"no","area":235.67207484051517,"changesets":220,"mappers":25,"roads":23.0772655825376,"buildings":7159,"edits":7581,"latest":"2019-02-01T11:48:05.000Z"},"geometry":{"type":"Point","coordinates":[39.1930035755225,-10.7075182203544]}},{"type":"Feature","properties":{"id":5474,"title":"Tanzania missing buildings Harang District, Manyara Region","status":"PUBLISHED","created":"2018","lastUpdated":"2018","lastActive":"no","area":310.80393427101467,"changesets":822,"mappers":90,"roads":32.463450597918,"buildings":3412,"edits":3652,"latest":"2018-12-09T15:47:56.000Z"},"geometry":{"type":"Point","coordinates":[35.3330397028835,-4.60695096355219]}},{"type":"Feature","properties":{"id":1345,"title":"Missing Maps: Dar es Salaam - Ramani Huria","status":"ARCHIVED","created":"2015","lastUpdated":"2016","lastActive":"no","area":63.31340932588144,"changesets":746,"mappers":45,"roads":180.370881866659,"buildings":19330,"edits":21659,"latest":"2016-03-11T13:01:38.000Z"},"geometry":{"type":"Point","coordinates":[39.3369691595477,-6.86498300600152]}},{"type":"Feature","properties":{"id":1256,"title":"MSD & JSI/USAID Tanzania Road Import - West Ruvuma region","status":"PUBLISHED","created":"2015","lastUpdated":"2016","lastActive":"no","area":10512.14514732082,"changesets":39,"mappers":4,"roads":5476.97375385643,"buildings":7,"edits":9471,"latest":"2016-04-04T16:27:27.000Z"},"geometry":{"type":"Point","coordinates":[35.4090779040358,-10.7330492383707]}},{"type":"Feature","properties":{"id":4326,"title":"Tanzania Development Trust: Chamchuzi Karagwe Community Mapping Project","status":"ARCHIVED","created":"2018","lastUpdated":"2018","lastActive":"no","area":14.620352225319428,"changesets":96,"mappers":13,"roads":118.753544967722,"buildings":625,"edits":1031,"latest":"2018-03-18T21:53:31.000Z"},"geometry":{"type":"Point","coordinates":[30.8657918691606,-1.79784583007795]}},{"type":"Feature","properties":{"id":4334,"title":"Tanzania Development Trust: Ihemi Iringa Community Mapping Project","status":"ARCHIVED","created":"2018","lastUpdated":"2018","lastActive":"no","area":17.979652120471023,"changesets":138,"mappers":17,"roads":162.956597880068,"buildings":1531,"edits":2481,"latest":"2018-03-20T18:15:43.000Z"},"geometry":{"type":"Point","coordinates":[35.5059379677161,-8.01149565167227]}},{"type":"Feature","properties":{"id":4294,"title":"Tanzania Development Trust: Mubunda Muleba Community Mapping Project","status":"ARCHIVED","created":"2018","lastUpdated":"2018","lastActive":"no","area":7.587230914571072,"changesets":306,"mappers":43,"roads":177.651635751973,"buildings":1516,"edits":2786,"latest":"2018-03-16T04:45:19.000Z"},"geometry":{"type":"Point","coordinates":[31.5148740880789,-1.94608709963417]}},{"type":"Feature","properties":{"id":4292,"title":"Tanzania Development Trust: Nyaishozi Karagwe Community Mapping Project","status":"ARCHIVED","created":"2018","lastUpdated":"2018","lastActive":"no","area":34.276689435879305,"changesets":399,"mappers":36,"roads":474.815969390101,"buildings":2973,"edits":4948,"latest":"2018-03-18T21:40:04.000Z"},"geometry":{"type":"Point","coordinates":[31.1192616184384,-1.74718623175017]}},{"type":"Feature","properties":{"id":1194,"title":"MSD & JSI/USAID Tanzania Road Import - Mtwara & Lindi Regions + Tunduru District","status":"PUBLISHED","created":"2015","lastUpdated":"2016","lastActive":"no","area":59075.33727007736,"changesets":95,"mappers":14,"roads":8427.25928271959,"buildings":232,"edits":9140,"latest":"2015-09-27T16:09:33.000Z"},"geometry":{"type":"Point","coordinates":[38.6918770231749,-10.1588297147212]}},{"type":"Feature","properties":{"id":4440,"title":"Tanzania Development Trust: Kihurio Community Mapping Project","status":"ARCHIVED","created":"2018","lastUpdated":"2018","lastActive":"no","area":25.149218397883203,"changesets":424,"mappers":67,"roads":255.735874916018,"buildings":3520,"edits":4623,"latest":"2018-04-21T23:10:25.000Z"},"geometry":{"type":"Point","coordinates":[38.0710346364441,-4.47694510234758]}},{"type":"Feature","properties":{"id":4368,"title":"Tanzania Development Trust: Morogoro Community Mapping Project","status":"ARCHIVED","created":"2018","lastUpdated":"2018","lastActive":"no","area":6.725652855463129,"changesets":1281,"mappers":89,"roads":81.8895955188457,"buildings":19328,"edits":20942,"latest":"2018-07-08T14:32:19.000Z"},"geometry":{"type":"Point","coordinates":[37.6521283051778,-6.82130428335325]}},{"type":"Feature","properties":{"id":4324,"title":"Tanzania Development Trust: Nyakaiga Karagwe Community Mapping Project","status":"ARCHIVED","created":"2018","lastUpdated":"2018","lastActive":"no","area":12.111231176337705,"changesets":103,"mappers":12,"roads":99.5600341898669,"buildings":1190,"edits":1678,"latest":"2018-03-18T16:20:36.000Z"},"geometry":{"type":"Point","coordinates":[30.9630721040928,-1.72913994836662]}},{"type":"Feature","properties":{"id":4282,"title":"Tanzania Development Trust: Kamishango Community Mapping Project","status":"ARCHIVED","created":"2018","lastUpdated":"2018","lastActive":"no","area":9.427409216356606,"changesets":237,"mappers":26,"roads":63.4951655647916,"buildings":946,"edits":1796,"latest":"2018-03-27T14:29:57.000Z"},"geometry":{"type":"Point","coordinates":[31.6140883568513,-1.8374625035104]}},{"type":"Feature","properties":{"id":4336,"title":"Tanzania Development Trust: Mingoyo Community Mapping Project","status":"ARCHIVED","created":"2018","lastUpdated":"2018","lastActive":"no","area":6.093244915676354,"changesets":452,"mappers":71,"roads":108.978266720093,"buildings":3373,"edits":5105,"latest":"2018-03-25T17:50:56.000Z"},"geometry":{"type":"Point","coordinates":[39.6150235515117,-10.1073176624119]}},{"type":"Feature","properties":{"id":4315,"title":"Tanzania Development Trust: Nshamba Community Mapping Project","status":"ARCHIVED","created":"2018","lastUpdated":"2018","lastActive":"no","area":20.728217465742752,"changesets":502,"mappers":54,"roads":258.414508170386,"buildings":5488,"edits":8174,"latest":"2018-03-18T15:53:19.000Z"},"geometry":{"type":"Point","coordinates":[31.5495323621043,-1.80167815244229]}},{"type":"Feature","properties":{"id":4710,"title":"Tanzania Development Trust: Rubale Community Mapping Project","status":"ARCHIVED","created":"2018","lastUpdated":"2018","lastActive":"no","area":2.8694421907196968,"changesets":223,"mappers":15,"roads":47.6921069447722,"buildings":1026,"edits":1672,"latest":"2018-06-10T20:40:39.000Z"},"geometry":{"type":"Point","coordinates":[31.5198154824657,-1.60317363606181]}},{"type":"Feature","properties":{"id":3459,"title":"Tanzania Development Trust: Nshamba Community Mapping Project","status":"ARCHIVED","created":"2017","lastUpdated":"2017","lastActive":"no","area":46.014908284249266,"changesets":1320,"mappers":99,"roads":645.897463633865,"buildings":7191,"edits":20283,"latest":"2017-09-08T21:24:18.000Z"},"geometry":{"type":"Point","coordinates":[31.5612210026871,-1.7322936400178]}},{"type":"Feature","properties":{"id":4405,"title":"Tanzania Development Trust: Rushwa Community Mapping Project","status":"ARCHIVED","created":"2018","lastUpdated":"2018","lastActive":"no","area":28.44762453258442,"changesets":298,"mappers":40,"roads":300.470888123495,"buildings":1582,"edits":3500,"latest":"2018-04-12T05:58:16.000Z"},"geometry":{"type":"Point","coordinates":[31.4939209647812,-1.78766119268283]}},{"type":"Feature","properties":{"id":5428,"title":"Tanzania missing buildings Mbulu District","status":"ARCHIVED","created":"2018","lastUpdated":"2019","lastActive":"no","area":1102.5651278977764,"changesets":9348,"mappers":507,"roads":1053.1068256276,"buildings":51669,"edits":55416,"latest":"2019-01-11T04:46:36.000Z"},"geometry":{"type":"Point","coordinates":[35.4288815332799,-3.84128025510992]}},{"type":"Feature","properties":{"id":5423,"title":"Tanzania missing buildings Karatu District","status":"ARCHIVED","created":"2018","lastUpdated":"2019","lastActive":"no","area":0.4165335894023015,"changesets":12,"mappers":1,"roads":0,"buildings":22,"edits":22,"latest":"2019-01-04T20:37:22.000Z"},"geometry":{"type":"Point","coordinates":[35.4373928599897,-3.66531133905769]}},{"type":"Feature","properties":{"id":5493,"title":"Tanzania missing buildings Kiteto District","status":"PUBLISHED","created":"2018","lastUpdated":"2019","lastActive":"no","area":1290.482831031305,"changesets":4951,"mappers":402,"roads":294.157449363587,"buildings":24590,"edits":26206,"latest":"2019-01-30T00:00:50.000Z"},"geometry":{"type":"Point","coordinates":[36.7472050387162,-5.46671531227146]}},{"type":"Feature","properties":{"id":5647,"title":"Tanzania missing buildings Siha District","status":"PUBLISHED","created":"2019","lastUpdated":"2019","lastActive":"yes","area":404.1893876351622,"changesets":3543,"mappers":210,"roads":72.7392993601548,"buildings":42398,"edits":42756,"latest":"2019-02-01T16:49:22.000Z"},"geometry":{"type":"Point","coordinates":[37.0437639036429,-3.1655500182464]}},{"type":"Feature","properties":{"id":5554,"title":"Ibugule","status":"PUBLISHED","created":"2018","lastUpdated":"2018","lastActive":"no","area":216.3150509902929,"changesets":0,"mappers":0,"roads":0,"buildings":0,"edits":0,"latest":null},"geometry":{"type":"Point","coordinates":[35.5318205113061,-6.39091426956685]}},{"type":"Feature","properties":{"id":5539,"title":"mwitirika","status":"PUBLISHED","created":"2018","lastUpdated":"2018","lastActive":"no","area":310.08409917434227,"changesets":0,"mappers":0,"roads":0,"buildings":0,"edits":0,"latest":null},"geometry":{"type":"Point","coordinates":[35.6729879289732,-6.56534479236094]}},{"type":"Feature","properties":{"id":5557,"title":"Lamaiti","status":"PUBLISHED","created":"2018","lastUpdated":"2018","lastActive":"no","area":326.2386225078726,"changesets":1,"mappers":1,"roads":0,"buildings":1,"edits":1,"latest":"2018-12-07T10:59:51.000Z"},"geometry":{"type":"Point","coordinates":[35.5037148641028,-5.76552887192817]}},{"type":"Feature","properties":{"id":5534,"title":"Nondwa","status":"PUBLISHED","created":"2018","lastUpdated":"2018","lastActive":"no","area":1008.4644905302546,"changesets":187,"mappers":17,"roads":0.00247989935987292,"buildings":670,"edits":674,"latest":"2018-11-23T12:38:29.000Z"},"geometry":{"type":"Point","coordinates":[35.326350963294,-6.53971625781216]}},{"type":"Feature","properties":{"id":5550,"title":"Chikola","status":"PUBLISHED","created":"2018","lastUpdated":"2018","lastActive":"no","area":364.54472047107805,"changesets":0,"mappers":0,"roads":0,"buildings":0,"edits":0,"latest":null},"geometry":{"type":"Point","coordinates":[35.3432190143094,-6.13969848411729]}},{"type":"Feature","properties":{"id":5422,"title":"Tanzania Mbinga Test","status":"ARCHIVED","created":"2018","lastUpdated":"2018","lastActive":"no","area":0.09678392301278596,"changesets":0,"mappers":0,"roads":0,"buildings":0,"edits":0,"latest":null},"geometry":{"type":"Point","coordinates":[35.0530360761986,-10.9293321539577]}},{"type":"Feature","properties":{"id":5444,"title":"Kawe","status":"PUBLISHED","created":"2018","lastUpdated":"2018","lastActive":"no","area":14.787548318407664,"changesets":274,"mappers":20,"roads":0.443529945999423,"buildings":2289,"edits":2364,"latest":"2018-11-29T12:22:28.000Z"},"geometry":{"type":"Point","coordinates":[39.225268225533,-6.72642707641227]}},{"type":"Feature","properties":{"id":5556,"title":"Kigwe","status":"PUBLISHED","created":"2018","lastUpdated":"2018","lastActive":"no","area":162.81242472936432,"changesets":1,"mappers":1,"roads":0,"buildings":2,"edits":2,"latest":"2018-12-06T16:28:42.000Z"},"geometry":{"type":"Point","coordinates":[35.5034119238305,-6.15149765637834]}},{"type":"Feature","properties":{"id":5405,"title":"keko magurumbasi_METEOR","status":"PUBLISHED","created":"2018","lastUpdated":"2018","lastActive":"no","area":0.03630974064275755,"changesets":62,"mappers":8,"roads":0.307114787463726,"buildings":204,"edits":378,"latest":"2018-10-29T07:08:01.000Z"},"geometry":{"type":"Point","coordinates":[39.2738899567246,-6.83651914744131]}},{"type":"Feature","properties":{"id":5390,"title":"Kisutu_METEOR","status":"PUBLISHED","created":"2018","lastUpdated":"2018","lastActive":"no","area":0.30002608748587883,"changesets":75,"mappers":13,"roads":0.336096943618833,"buildings":286,"edits":453,"latest":"2018-10-25T14:59:01.000Z"},"geometry":{"type":"Point","coordinates":[39.287876425417,-6.81640921080609]}},{"type":"Feature","properties":{"id":5546,"title":"msisi_pilot","status":"PUBLISHED","created":"2018","lastUpdated":"2018","lastActive":"no","area":299.23019148117373,"changesets":0,"mappers":0,"roads":0,"buildings":0,"edits":0,"latest":null},"geometry":{"type":"Point","coordinates":[35.6507594031343,-5.81195430714583]}},{"type":"Feature","properties":{"id":5395,"title":"Pwani 2_METEOR","status":"PUBLISHED","created":"2018","lastUpdated":"2018","lastActive":"no","area":0.3697493857621717,"changesets":0,"mappers":0,"roads":0,"buildings":0,"edits":0,"latest":null},"geometry":{"type":"Point","coordinates":[39.0994490443233,-6.90247043542125]}},{"type":"Feature","properties":{"id":5326,"title":"Gerezani 2","status":"PUBLISHED","created":"2018","lastUpdated":"2018","lastActive":"no","area":0.1378230000413372,"changesets":53,"mappers":16,"roads":0.00932165201596649,"buildings":205,"edits":254,"latest":"2018-10-05T10:46:52.000Z"},"geometry":{"type":"Point","coordinates":[39.2777012004308,-6.82897780332198]}},{"type":"Feature","properties":{"id":5544,"title":"mtitaa_pilot","status":"PUBLISHED","created":"2018","lastUpdated":"2018","lastActive":"no","area":184.51184663767475,"changesets":0,"mappers":0,"roads":0,"buildings":0,"edits":0,"latest":null},"geometry":{"type":"Point","coordinates":[35.544978622217,-6.47118101674341]}},{"type":"Feature","properties":{"id":5321,"title":"Sinza","status":"PUBLISHED","created":"2018","lastUpdated":"2019","lastActive":"no","area":3.361250557091652,"changesets":797,"mappers":22,"roads":1.58255838155942,"buildings":10827,"edits":12143,"latest":"2018-10-12T08:09:26.000Z"},"geometry":{"type":"Point","coordinates":[39.2227970545496,-6.78373809051709]}},{"type":"Feature","properties":{"id":5541,"title":"Babayu","status":"PUBLISHED","created":"2018","lastUpdated":"2018","lastActive":"no","area":291.1572465623741,"changesets":0,"mappers":0,"roads":0,"buildings":0,"edits":0,"latest":null},"geometry":{"type":"Point","coordinates":[35.6844455201668,-5.68286034293222]}},{"type":"Feature","properties":{"id":5548,"title":"Chali","status":"PUBLISHED","created":"2018","lastUpdated":"2018","lastActive":"no","area":293.026474967643,"changesets":0,"mappers":0,"roads":0,"buildings":0,"edits":0,"latest":null},"geometry":{"type":"Point","coordinates":[35.2630727303968,-6.26212970964754]}},{"type":"Feature","properties":{"id":5532,"title":"Bahi_Pilot","status":"PUBLISHED","created":"2018","lastUpdated":"2018","lastActive":"no","area":332.82676510382277,"changesets":1,"mappers":1,"roads":159.338500420196,"buildings":0,"edits":2,"latest":"2018-11-22T18:13:15.000Z"},"geometry":{"type":"Point","coordinates":[35.8282202770526,-5.78331947358886]}},{"type":"Feature","properties":{"id":5518,"title":"Majaribio","status":"PUBLISHED","created":"2018","lastUpdated":"2018","lastActive":"no","area":4.830280472666473,"changesets":38,"mappers":2,"roads":0,"buildings":863,"edits":863,"latest":"2018-11-21T09:46:22.000Z"},"geometry":{"type":"Point","coordinates":[38.4798327296194,-10.3722929709165]}},{"type":"Feature","properties":{"id":5218,"title":"Vingunguti","status":"PUBLISHED","created":"2018","lastUpdated":"2018","lastActive":"no","area":4.5147969243730985,"changesets":1476,"mappers":25,"roads":5.76973550436218,"buildings":14462,"edits":17891,"latest":"2018-11-09T13:30:13.000Z"},"geometry":{"type":"Point","coordinates":[39.2283271509236,-6.845412414447]}},{"type":"Feature","properties":{"id":4323,"title":"Tanzania Development Trust: Simiyu South","status":"PUBLISHED","created":"2018","lastUpdated":"2019","lastActive":"yes","area":3977.4740524717954,"changesets":8222,"mappers":568,"roads":5813.39353624067,"buildings":95991,"edits":115312,"latest":"2019-01-31T21:03:08.000Z"},"geometry":{"type":"Point","coordinates":[34.3684346241635,-3.14466084541383]}},{"type":"Feature","properties":{"id":5192,"title":"Mabibo","status":"PUBLISHED","created":"2018","lastUpdated":"2018","lastActive":"no","area":4.059450716198464,"changesets":2230,"mappers":25,"roads":6.02412742139534,"buildings":19921,"edits":24255,"latest":"2018-10-03T07:34:20.000Z"},"geometry":{"type":"Point","coordinates":[39.2256157177568,-6.80974155735172]}},{"type":"Feature","properties":{"id":4245,"title":"Tanzania Development Trust: Kome Island Community Mapping Project","status":"ARCHIVED","created":"2018","lastUpdated":"2018","lastActive":"no","area":385.79192833306934,"changesets":1556,"mappers":136,"roads":903.993377006293,"buildings":11792,"edits":17458,"latest":"2018-03-23T13:14:21.000Z"},"geometry":{"type":"Point","coordinates":[32.4921971949472,-2.32937991152019]}},{"type":"Feature","properties":{"id":5467,"title":"Makuburi","status":"PUBLISHED","created":"2018","lastUpdated":"2019","lastActive":"no","area":7.6743988229254745,"changesets":68,"mappers":10,"roads":7.63816287996377e-10,"buildings":293,"edits":297,"latest":"2019-01-25T14:36:09.000Z"},"geometry":{"type":"Point","coordinates":[39.2000761299092,-6.80869248275905]}},{"type":"Feature","properties":{"id":4076,"title":"Shinyanga_Tabora_Geita","status":"PUBLISHED","created":"2018","lastUpdated":"2018","lastActive":"no","area":3994.8430365253507,"changesets":50,"mappers":14,"roads":0.000161002645333808,"buildings":2248,"edits":2251,"latest":"2018-08-23T03:54:33.000Z"},"geometry":{"type":"Point","coordinates":[31.8409955510823,-4.30414913053918]}},{"type":"Feature","properties":{"id":5442,"title":"Ukonga","status":"PUBLISHED","created":"2018","lastUpdated":"2018","lastActive":"no","area":9.973212227035186,"changesets":1,"mappers":1,"roads":0.0957173698489048,"buildings":0,"edits":1,"latest":"2018-11-08T18:22:56.000Z"},"geometry":{"type":"Point","coordinates":[39.1716103075864,-6.87643354356797]}},{"type":"Feature","properties":{"id":4358,"title":"Tanzania Development Trust: Mwanza West Community Mapping Project","status":"PUBLISHED","created":"2018","lastUpdated":"2019","lastActive":"no","area":1290.9455273129195,"changesets":20478,"mappers":1236,"roads":9861.10010726173,"buildings":173277,"edits":240252,"latest":"2019-01-16T14:32:38.000Z"},"geometry":{"type":"Point","coordinates":[32.539528576888,-2.61529690008607]}},{"type":"Feature","properties":{"id":5387,"title":"Kagera Mikoroshoni_METEOR","status":"PUBLISHED","created":"2018","lastUpdated":"2018","lastActive":"no","area":0.08697368560971801,"changesets":267,"mappers":16,"roads":0.854564025781824,"buildings":1018,"edits":1290,"latest":"2018-10-26T11:50:08.000Z"},"geometry":{"type":"Point","coordinates":[39.2429037515631,-6.79943400787608]}},{"type":"Feature","properties":{"id":5132,"title":"Mbeya","status":"PUBLISHED","created":"2018","lastUpdated":"2018","lastActive":"no","area":32.205542095178586,"changesets":1096,"mappers":149,"roads":10.112548747506,"buildings":22237,"edits":23434,"latest":"2018-09-21T09:26:09.000Z"},"geometry":{"type":"Point","coordinates":[33.4905580602805,-8.88468840419366]}},{"type":"Feature","properties":{"id":5371,"title":"DAR Wards_METEOR","status":"PUBLISHED","created":"2018","lastUpdated":"2018","lastActive":"no","area":1.4384185421356332,"changesets":132,"mappers":16,"roads":6.29776572367043,"buildings":1424,"edits":1694,"latest":"2018-10-31T14:01:56.000Z"},"geometry":{"type":"Point","coordinates":[39.2733530998677,-6.83014324994139]}},{"type":"Feature","properties":{"id":5391,"title":"Kivule_METEOR","status":"PUBLISHED","created":"2018","lastUpdated":"2018","lastActive":"no","area":0.5583741907798839,"changesets":105,"mappers":10,"roads":1.83379910834755,"buildings":757,"edits":834,"latest":"2018-10-31T08:17:39.000Z"},"geometry":{"type":"Point","coordinates":[39.169724511382,-6.9352240012431]}},{"type":"Feature","properties":{"id":5318,"title":"Tandale","status":"PUBLISHED","created":"2018","lastUpdated":"2018","lastActive":"no","area":1.1670695349839497,"changesets":675,"mappers":19,"roads":1.999609349464,"buildings":5503,"edits":7596,"latest":"2018-10-22T11:33:48.000Z"},"geometry":{"type":"Point","coordinates":[39.2424390073453,-6.79411458257302]}},{"type":"Feature","properties":{"id":5397,"title":"TPDC_METEOR","status":"PUBLISHED","created":"2018","lastUpdated":"2018","lastActive":"no","area":0.11797338733636886,"changesets":94,"mappers":18,"roads":0.266615772031029,"buildings":517,"edits":536,"latest":"2018-11-01T12:33:09.000Z"},"geometry":{"type":"Point","coordinates":[39.2441458818339,-6.76148596392833]}},{"type":"Feature","properties":{"id":5613,"title":"Tanzania Mbeya Missing Highways","status":"ARCHIVED","created":"2018","lastUpdated":"2019","lastActive":"no","area":322.07731681096374,"changesets":36,"mappers":2,"roads":148.73506986815,"buildings":39,"edits":135,"latest":"2018-12-26T22:41:06.000Z"},"geometry":{"type":"Point","coordinates":[33.1571146316758,-7.79404877174866]}},{"type":"Feature","properties":{"id":2125,"title":"Missing Maps: Dar es Salaam - Ramani Huria 7","status":"PUBLISHED","created":"2016","lastUpdated":"2017","lastActive":"no","area":15.59172030179052,"changesets":681,"mappers":54,"roads":23.3546858581493,"buildings":15759,"edits":16703,"latest":"2017-12-11T17:19:19.000Z"},"geometry":{"type":"Point","coordinates":[39.2272702302774,-6.72482139604585]}},{"type":"Feature","properties":{"id":5202,"title":"Mbagala","status":"PUBLISHED","created":"2018","lastUpdated":"2018","lastActive":"no","area":3.357497597645662,"changesets":614,"mappers":22,"roads":0.550372073861051,"buildings":3452,"edits":3769,"latest":"2018-10-23T14:01:26.000Z"},"geometry":{"type":"Point","coordinates":[39.2642484046761,-6.89854569609534]}},{"type":"Feature","properties":{"id":4751,"title":"Njombe Region, Tanzania Mini Grids Project 05","status":"PUBLISHED","created":"2018","lastUpdated":"2018","lastActive":"no","area":1958.8180766909427,"changesets":1262,"mappers":33,"roads":5.76234886943838,"buildings":59931,"edits":60292,"latest":"2018-06-22T07:51:23.000Z"},"geometry":{"type":"Point","coordinates":[34.73166445996,-9.30709784418002]}},{"type":"Feature","properties":{"id":5223,"title":"Upanga magharibi 2","status":"PUBLISHED","created":"2018","lastUpdated":"2018","lastActive":"no","area":1.9683936895380227,"changesets":244,"mappers":21,"roads":0.182942871925768,"buildings":1988,"edits":2138,"latest":"2018-10-30T14:15:45.000Z"},"geometry":{"type":"Point","coordinates":[39.2743824403815,-6.80448984469261]}},{"type":"Feature","properties":{"id":4087,"title":"Kigoma_6","status":"PUBLISHED","created":"2018","lastUpdated":"2018","lastActive":"no","area":3.103362564009721,"changesets":201,"mappers":8,"roads":0.0059086431357116,"buildings":3802,"edits":3802,"latest":"2018-02-13T11:37:26.000Z"},"geometry":{"type":"Point","coordinates":[29.9589457965824,-6.48575519414831]}},{"type":"Feature","properties":{"id":4235,"title":"Tanzania Development Trust: Biharamulo Community Mapping Project","status":"ARCHIVED","created":"2018","lastUpdated":"2018","lastActive":"no","area":6.039818387380115,"changesets":765,"mappers":51,"roads":284.739876449328,"buildings":4189,"edits":5785,"latest":"2018-06-24T19:09:43.000Z"},"geometry":{"type":"Point","coordinates":[31.311664443878,-2.63422509905993]}},{"type":"Feature","properties":{"id":3826,"title":"Tanzania Development Trust: Ihanda Community Mapping Project","status":"ARCHIVED","created":"2017","lastUpdated":"2018","lastActive":"no","area":84.22986494226826,"changesets":308,"mappers":18,"roads":373.737137847268,"buildings":3803,"edits":6185,"latest":"2018-06-21T20:32:04.000Z"},"geometry":{"type":"Point","coordinates":[31.088492540636,-1.549140845654]}},{"type":"Feature","properties":{"id":4289,"title":"Mbozi, Mbeya, Tanzania Mini Grids Project 03","status":"PUBLISHED","created":"2018","lastUpdated":"2018","lastActive":"no","area":1303.883290131881,"changesets":2723,"mappers":78,"roads":1712.56467120964,"buildings":64564,"edits":69636,"latest":"2018-06-29T13:53:40.000Z"},"geometry":{"type":"Point","coordinates":[32.6733402584994,-8.98142081120725]}},{"type":"Feature","properties":{"id":1066,"title":"Missing Maps: Kigoma region towns, Burundi / Tanzania","status":"ARCHIVED","created":"2015","lastUpdated":"2015","lastActive":"no","area":213.63718639264667,"changesets":2,"mappers":1,"roads":1.68154796651448,"buildings":231,"edits":245,"latest":"2015-09-27T23:38:29.000Z"},"geometry":{"type":"Point","coordinates":[29.6664188192449,-4.72722002716652]}},{"type":"Feature","properties":{"id":4212,"title":"Tanzania Development Trust: Tunduma, Songwe Community Mapping Project","status":"ARCHIVED","created":"2018","lastUpdated":"2018","lastActive":"no","area":8.348830576332833,"changesets":1309,"mappers":102,"roads":131.172852446918,"buildings":16144,"edits":18573,"latest":"2018-04-16T10:35:52.000Z"},"geometry":{"type":"Point","coordinates":[32.7742526020665,-9.30855990968659]}},{"type":"Feature","properties":{"id":4210,"title":"Tanzania Development Trust: Rubya Muleba Community Mapping Project","status":"ARCHIVED","created":"2018","lastUpdated":"2018","lastActive":"no","area":3.8004410986879655,"changesets":883,"mappers":30,"roads":76.7339517069804,"buildings":1681,"edits":2914,"latest":"2018-03-04T15:40:41.000Z"},"geometry":{"type":"Point","coordinates":[31.6199206128424,-1.75212343213756]}},{"type":"Feature","properties":{"id":4528,"title":"Central Singida, Singida, Tanzania Mini Grids Project 04 South","status":"PUBLISHED","created":"2018","lastUpdated":"2018","lastActive":"no","area":2679.1732629690173,"changesets":1170,"mappers":63,"roads":0.0259764287875841,"buildings":20358,"edits":20362,"latest":"2018-05-17T13:46:29.000Z"},"geometry":{"type":"Point","coordinates":[34.7279889209458,-5.4378630362986]}},{"type":"Feature","properties":{"id":4283,"title":"Tanzania Development Trust: Kashenge Community Mapping Project","status":"ARCHIVED","created":"2018","lastUpdated":"2018","lastActive":"no","area":16.271801267146635,"changesets":316,"mappers":27,"roads":117.504567662701,"buildings":856,"edits":1867,"latest":"2018-05-01T11:36:25.000Z"},"geometry":{"type":"Point","coordinates":[31.65773305698,-1.69517523871843]}},{"type":"Feature","properties":{"id":3968,"title":"Tanzania Development Trust: Mbozi district community mapping project","status":"PUBLISHED","created":"2017","lastUpdated":"2019","lastActive":"no","area":270.15833206747897,"changesets":2312,"mappers":254,"roads":2549.56615100143,"buildings":13912,"edits":37615,"latest":"2019-01-29T13:07:48.000Z"},"geometry":{"type":"Point","coordinates":[32.7810690177479,-9.02055139563406]}},{"type":"Feature","properties":{"id":3353,"title":"Missing Maps: Dar es Salaam - Ramani Huria 2.0 - 08","status":"ARCHIVED","created":"2017","lastUpdated":"2017","lastActive":"no","area":41.71271249600479,"changesets":1277,"mappers":107,"roads":341.752455858356,"buildings":1180,"edits":8988,"latest":"2017-08-21T10:19:51.000Z"},"geometry":{"type":"Point","coordinates":[39.1368897058541,-6.75873901328791]}},{"type":"Feature","properties":{"id":3388,"title":"Missing Maps: Dar es Salaam - Ramani Huria 2.0 - 21","status":"PUBLISHED","created":"2017","lastUpdated":"2017","lastActive":"no","area":69.65587897048133,"changesets":1939,"mappers":75,"roads":6.84000186734417,"buildings":36784,"edits":37868,"latest":"2017-08-11T12:28:34.000Z"},"geometry":{"type":"Point","coordinates":[39.1283057323213,-6.89210398958084]}},{"type":"Feature","properties":{"id":4531,"title":"Manyoni, Singida, Tanzania Mini Grids Project 01","status":"PUBLISHED","created":"2018","lastUpdated":"2018","lastActive":"no","area":1326.5528682624965,"changesets":590,"mappers":59,"roads":1.45366588363026,"buildings":7569,"edits":7587,"latest":"2018-11-17T21:17:08.000Z"},"geometry":{"type":"Point","coordinates":[34.6075539482003,-5.56288622408193]}},{"type":"Feature","properties":{"id":4699,"title":"Mivumoni Village, Pangani District, Tanzania Mini Grids Project","status":"PUBLISHED","created":"2018","lastUpdated":"2018","lastActive":"no","area":0.818188879689272,"changesets":78,"mappers":17,"roads":0.0276900086096642,"buildings":366,"edits":370,"latest":"2018-06-07T14:01:00.000Z"},"geometry":{"type":"Point","coordinates":[38.9036715263947,-5.30813941973504]}},{"type":"Feature","properties":{"id":3365,"title":"Missing Maps: Dar es Salaam - Ramani Huria 2.0 - 10","status":"ARCHIVED","created":"2017","lastUpdated":"2017","lastActive":"no","area":30.498373922694878,"changesets":625,"mappers":56,"roads":1.01225822228817,"buildings":4539,"edits":5271,"latest":"2017-08-01T12:00:11.000Z"},"geometry":{"type":"Point","coordinates":[39.0959011536627,-6.66014405241675]}},{"type":"Feature","properties":{"id":3698,"title":"Missing Maps: Kyela - Data Zetu","status":"PUBLISHED","created":"2017","lastUpdated":"2018","lastActive":"no","area":251.55720854707542,"changesets":802,"mappers":12,"roads":5.58626698624379,"buildings":29269,"edits":29469,"latest":"2018-07-19T11:51:17.000Z"},"geometry":{"type":"Point","coordinates":[33.8935261689772,-9.52003925109173]}},{"type":"Feature","properties":{"id":4529,"title":"Central Singida, Singida, Tanzania Mini Grids Project 05 East","status":"PUBLISHED","created":"2018","lastUpdated":"2018","lastActive":"no","area":1299.832349107584,"changesets":829,"mappers":53,"roads":0.392972178332061,"buildings":16651,"edits":16659,"latest":"2018-05-17T11:23:30.000Z"},"geometry":{"type":"Point","coordinates":[35.1179914040598,-5.06313234776918]}},{"type":"Feature","properties":{"id":4532,"title":"Manyoni, Singida, Tanzania Mini Grids Project 02","status":"PUBLISHED","created":"2018","lastUpdated":"2018","lastActive":"no","area":1743.3360624738941,"changesets":885,"mappers":62,"roads":0.198161772673363,"buildings":17096,"edits":17116,"latest":"2018-05-21T06:05:53.000Z"},"geometry":{"type":"Point","coordinates":[34.4139616127793,-5.73579006088548]}},{"type":"Feature","properties":{"id":4378,"title":"Tunduru, Ruvuma, Tanzania Mini Grids Project 03","status":"PUBLISHED","created":"2018","lastUpdated":"2018","lastActive":"no","area":1369.2568876847938,"changesets":1018,"mappers":60,"roads":0.263537837490913,"buildings":23394,"edits":23430,"latest":"2018-05-03T13:14:28.000Z"},"geometry":{"type":"Point","coordinates":[37.4088345476761,-11.1598554676675]}},{"type":"Feature","properties":{"id":4242,"title":"Kalobe-Data Zetu","status":"PUBLISHED","created":"2018","lastUpdated":"2018","lastActive":"no","area":5.581452341462152,"changesets":531,"mappers":5,"roads":0.0106237188235286,"buildings":6096,"edits":6109,"latest":"2018-03-07T09:02:49.000Z"},"geometry":{"type":"Point","coordinates":[33.4118519974232,-8.91506853593005]}},{"type":"Feature","properties":{"id":3496,"title":"Missing Maps: Dar es Salaam - Ramani Huria 2.0 - 38","status":"PUBLISHED","created":"2017","lastUpdated":"2018","lastActive":"no","area":41.1920610625183,"changesets":5472,"mappers":73,"roads":78.4353169552313,"buildings":94858,"edits":120253,"latest":"2017-11-10T12:46:09.000Z"},"geometry":{"type":"Point","coordinates":[39.2408830614877,-6.80049765582427]}},{"type":"Feature","properties":{"id":1233,"title":"MSD & JSI/USAID Tanzania Road Import - Kigoma and Tabora regions","status":"PUBLISHED","created":"2015","lastUpdated":"2017","lastActive":"no","area":55716.44775664574,"changesets":89,"mappers":5,"roads":7164.0075520837,"buildings":137,"edits":14011,"latest":"2015-10-15T16:49:58.000Z"},"geometry":{"type":"Point","coordinates":[31.938951757194,-4.84880832874386]}},{"type":"Feature","properties":{"id":4721,"title":"Songea Rural, Ruvuma, Tanzania Mini Grids Project 07","status":"PUBLISHED","created":"2018","lastUpdated":"2018","lastActive":"no","area":2150.916415219976,"changesets":529,"mappers":56,"roads":0.110758162123934,"buildings":9687,"edits":9700,"latest":"2018-08-16T06:38:13.000Z"},"geometry":{"type":"Point","coordinates":[35.5937322600906,-11.359078653805]}},{"type":"Feature","properties":{"id":4719,"title":"Songea Rural, Ruvuma, Tanzania Mini Grids Project 05","status":"PUBLISHED","created":"2018","lastUpdated":"2018","lastActive":"no","area":2073.141928637436,"changesets":1420,"mappers":54,"roads":0.925980022800688,"buildings":30459,"edits":30541,"latest":"2018-06-12T10:58:13.000Z"},"geometry":{"type":"Point","coordinates":[35.4782949633589,-10.7224020173536]}},{"type":"Feature","properties":{"id":5016,"title":"Kariakoo2","status":"PUBLISHED","created":"2018","lastUpdated":"2018","lastActive":"no","area":0.41684912948919983,"changesets":253,"mappers":36,"roads":0.0279580739560328,"buildings":1324,"edits":2341,"latest":"2018-10-03T16:17:27.000Z"},"geometry":{"type":"Point","coordinates":[39.2756281624855,-6.82026480265793]}},{"type":"Feature","properties":{"id":3371,"title":"Missing Maps: Dar es Salaam - Ramani Huria 2.0 - 16","status":"ARCHIVED","created":"2017","lastUpdated":"2017","lastActive":"no","area":92.06647987703117,"changesets":643,"mappers":55,"roads":534.034385643581,"buildings":332,"edits":9986,"latest":"2017-08-17T13:11:30.000Z"},"geometry":{"type":"Point","coordinates":[39.107002934666,-6.82229799377065]}},{"type":"Feature","properties":{"id":5427,"title":"Tanzania missing buildings Mwanga District","status":"PUBLISHED","created":"2018","lastUpdated":"2018","lastActive":"no","area":531.5288207222752,"changesets":3686,"mappers":372,"roads":273.748041333241,"buildings":32081,"edits":33618,"latest":"2018-11-16T05:03:24.000Z"},"geometry":{"type":"Point","coordinates":[37.6385252591535,-3.69810262753919]}},{"type":"Feature","properties":{"id":3369,"title":"Missing Maps: Dar es Salaam - Ramani Huria 2.0 - 14","status":"ARCHIVED","created":"2017","lastUpdated":"2017","lastActive":"no","area":59.53047699316665,"changesets":2493,"mappers":75,"roads":7.81894605201079,"buildings":17056,"edits":17781,"latest":"2017-08-21T12:22:37.000Z"},"geometry":{"type":"Point","coordinates":[39.0524394635221,-6.77490751585555]}},{"type":"Feature","properties":{"id":3319,"title":"Tanzania Development Trust and Institute for Rural Development Planning: Mvomero district student mapping project ","status":"PUBLISHED","created":"2017","lastUpdated":"2018","lastActive":"no","area":1439.4586268120136,"changesets":1014,"mappers":18,"roads":314.284915147335,"buildings":908,"edits":2244,"latest":"2018-11-27T18:18:52.000Z"},"geometry":{"type":"Point","coordinates":[37.5490091358043,-6.45241297893469]}},{"type":"Feature","properties":{"id":1462,"title":"MSD & JSI/USAID Tanzania Road Import - Rukwa and Katavi regions","status":"PUBLISHED","created":"2016","lastUpdated":"2016","lastActive":"no","area":23601.174016426638,"changesets":46,"mappers":13,"roads":2965.50978720348,"buildings":26,"edits":3295,"latest":"2016-11-09T18:57:31.000Z"},"geometry":{"type":"Point","coordinates":[31.386548500474,-7.66185013891424]}},