{"totalEdits":44376035,"totalBuildings":36941303,"totalRoads":931724.835485591,"mappersOnline":38,"totalTasksMapped":1762358,"totalMappers":151902,"totalProjects":4286,"Philippines":[{"type":"Feature","properties":{"id":5482,"title":"Samar Western, Philippines - Mapping for Food Security","status":"PUBLISHED","created":"2018","lastUpdated":"2018","lastActive":"no","area":5475.406235248917,"changesets":253,"mappers":54,"roads":39.9657951245532,"buildings":2105,"edits":2340,"latest":"2018-12-16T20:16:36.000Z"},"geometry":{"type":"Point","coordinates":[124.94054745821,11.8428113562351]}},{"type":"Feature","properties":{"id":3470,"title":"UP-NOAH Mapping Campuses (UP Visayas Miag-ao) ","status":"PUBLISHED","created":"2017","lastUpdated":"2017","lastActive":"no","area":12.578176573343839,"changesets":10,"mappers":2,"roads":0,"buildings":32,"edits":38,"latest":"2018-01-03T04:42:33.000Z"},"geometry":{"type":"Point","coordinates":[122.219106834524,10.6526884345584]}},{"type":"Feature","properties":{"id":5352,"title":"[demo] local villages, San Juan, NCR","status":"ARCHIVED","created":"2018","lastUpdated":"2018","lastActive":"no","area":5.8122326022660795,"changesets":0,"mappers":0,"roads":0,"buildings":0,"edits":0,"latest":null},"geometry":{"type":"Point","coordinates":[121.036699803478,14.6024727102402]}},{"type":"Feature","properties":{"id":3243,"title":"Barangay San Paglaum 103A, Tacloban, Leyte - Missing Maps","status":"ARCHIVED","created":"2017","lastUpdated":"2017","lastActive":"no","area":0.4057453323088775,"changesets":33,"mappers":5,"roads":4.41897577051849,"buildings":1178,"edits":1357,"latest":"2017-07-09T00:52:58.000Z"},"geometry":{"type":"Point","coordinates":[124.921469189789,11.257719569367]}},{"type":"Feature","properties":{"id":3303,"title":"Barangay Union, Mayorga, Leyte, Philippines - Missing Maps","status":"ARCHIVED","created":"2017","lastUpdated":"2017","lastActive":"no","area":17.042331597623818,"changesets":195,"mappers":7,"roads":18.6550236728385,"buildings":1661,"edits":2365,"latest":"2017-11-18T18:54:20.000Z"},"geometry":{"type":"Point","coordinates":[124.993170994558,10.8565233231812]}},{"type":"Feature","properties":{"id":806,"title":"Untitled project","status":"ARCHIVED","created":"2014","lastUpdated":"2014","lastActive":"no","area":190.12562277909845,"changesets":0,"mappers":0,"roads":0,"buildings":0,"edits":0,"latest":null},"geometry":{"type":"Point","coordinates":[124.307229605675,12.5248439779651]}},{"type":"Feature","properties":{"id":323,"title":"Candaba OSM Training","status":"ARCHIVED","created":"2013","lastUpdated":"2018","lastActive":"no","area":209.77469668523733,"changesets":52,"mappers":10,"roads":20.1433307318058,"buildings":1994,"edits":2151,"latest":"2018-08-30T10:09:20.000Z"},"geometry":{"type":"Point","coordinates":[120.873071297064,15.1025593388547]}},{"type":"Feature","properties":{"id":5495,"title":"Cotabato, Philippines - Build-up Setlements Mapping","status":"PUBLISHED","created":"2018","lastUpdated":"2018","lastActive":"no","area":5897.959292455374,"changesets":0,"mappers":0,"roads":0,"buildings":0,"edits":0,"latest":null},"geometry":{"type":"Point","coordinates":[124.850522861635,7.20260557821726]}},{"type":"Feature","properties":{"id":5256,"title":"Post-Disaster Mapping in Brgy. Naalad and Brgy. Tinaan, Naga City, Cebu","status":"ARCHIVED","created":"2018","lastUpdated":"2018","lastActive":"no","area":4.081334180056122,"changesets":81,"mappers":14,"roads":0.541248657808227,"buildings":2559,"edits":2569,"latest":"2018-09-21T20:43:42.000Z"},"geometry":{"type":"Point","coordinates":[123.744010558498,10.2094401920945]}},{"type":"Feature","properties":{"id":3087,"title":"Barangay San Isidro, MacArthur, Leyte - Missing Maps","status":"ARCHIVED","created":"2017","lastUpdated":"2017","lastActive":"no","area":0.674632620070128,"changesets":57,"mappers":3,"roads":2.50378810972398,"buildings":602,"edits":761,"latest":"2017-07-06T20:26:56.000Z"},"geometry":{"type":"Point","coordinates":[124.991284417095,10.8352369625479]}},{"type":"Feature","properties":{"id":3436,"title":"UP-NOAH Mapping Campuses (UP Diliman)","status":"PUBLISHED","created":"2017","lastUpdated":"2017","lastActive":"no","area":4.428477183303132,"changesets":95,"mappers":5,"roads":1.5221188801769,"buildings":6810,"edits":7385,"latest":"2017-11-25T06:49:39.000Z"},"geometry":{"type":"Point","coordinates":[121.064794163922,14.653980273509]}},{"type":"Feature","properties":{"id":115,"title":"Typhoon Bopha/Pablo Response Eastern Mindanao Philippines","status":"ARCHIVED","created":"2012","lastUpdated":"2014","lastActive":"no","area":16387.592340836713,"changesets":292,"mappers":13,"roads":276.234321336455,"buildings":39143,"edits":41774,"latest":"2018-11-28T01:53:49.000Z"},"geometry":{"type":"Point","coordinates":[126.210497930795,7.78677618840503]}},{"type":"Feature","properties":{"id":133,"title":"Baganga - Typhoon Bopha/Pablo","status":"ARCHIVED","created":"2012","lastUpdated":"2018","lastActive":"no","area":148.7861752355768,"changesets":69,"mappers":12,"roads":133.600912887323,"buildings":13328,"edits":13762,"latest":"2018-11-23T08:46:03.000Z"},"geometry":{"type":"Point","coordinates":[126.545160760843,7.60391729996262]}},{"type":"Feature","properties":{"id":3294,"title":"Barangay Wilson, Mayorga, Leyte - Missing Maps","status":"ARCHIVED","created":"2017","lastUpdated":"2017","lastActive":"no","area":1.4154403844413321,"changesets":34,"mappers":2,"roads":4.9537091799972,"buildings":585,"edits":755,"latest":"2017-07-11T16:39:00.000Z"},"geometry":{"type":"Point","coordinates":[124.968112062972,10.8504871670189]}},{"type":"Feature","properties":{"id":3240,"title":"Barangay Penalosa, Alang Alang, Leyte, Philippines - Missing Maps","status":"ARCHIVED","created":"2017","lastUpdated":"2017","lastActive":"no","area":0.6747688693036419,"changesets":80,"mappers":10,"roads":6.15107538342412,"buildings":577,"edits":820,"latest":"2017-11-10T18:21:36.000Z"},"geometry":{"type":"Point","coordinates":[124.850142059389,11.1631329700222]}},{"type":"Feature","properties":{"id":3234,"title":"Barangay Danao, MacArthur, Leyte, Philippines - Missing Maps","status":"ARCHIVED","created":"2017","lastUpdated":"2017","lastActive":"no","area":0.6515179835806594,"changesets":49,"mappers":2,"roads":3.62472543642404,"buildings":519,"edits":669,"latest":"2017-10-23T21:51:44.000Z"},"geometry":{"type":"Point","coordinates":[124.969031914827,10.8062140537066]}},{"type":"Feature","properties":{"id":3228,"title":"Barangay Villa Imelda, MacArthur, Leyte - Missing Maps","status":"ARCHIVED","created":"2017","lastUpdated":"2017","lastActive":"no","area":0.34056231149443766,"changesets":25,"mappers":2,"roads":1.2957954780593,"buildings":451,"edits":508,"latest":"2017-07-09T19:29:18.000Z"},"geometry":{"type":"Point","coordinates":[124.972643940364,10.7947134566455]}},{"type":"Feature","properties":{"id":1684,"title":"DOST-Project NOAH (ISAIAH) Structures Map Up Camiguin","status":"ARCHIVED","created":"2016","lastUpdated":"2016","lastActive":"no","area":351.61522584790544,"changesets":0,"mappers":0,"roads":0,"buildings":0,"edits":0,"latest":null},"geometry":{"type":"Point","coordinates":[124.724050743749,9.17473306441151]}},{"type":"Feature","properties":{"id":3435,"title":"UP-NOAH Mapping Campuses (UP Diliman Extension Programs in Olongapo)","status":"PUBLISHED","created":"2017","lastUpdated":"2017","lastActive":"no","area":4.840046682537817,"changesets":85,"mappers":6,"roads":0.18547241187567,"buildings":5301,"edits":5405,"latest":"2017-12-12T09:07:26.000Z"},"geometry":{"type":"Point","coordinates":[120.282165111495,14.8241153837601]}},{"type":"Feature","properties":{"id":3472,"title":"UP-NOAH Mapping Campuses (UP Manila School of Health Sciences in Leyte) ","status":"PUBLISHED","created":"2017","lastUpdated":"2018","lastActive":"no","area":1.400988753814339,"changesets":45,"mappers":8,"roads":0.151281518199778,"buildings":202,"edits":218,"latest":"2018-10-31T04:07:31.000Z"},"geometry":{"type":"Point","coordinates":[124.990023525029,11.1576749782991]}},{"type":"Feature","properties":{"id":2059,"title":"DOST-Project NOAH (ISAIAH) Structures Map Up Taguig City","status":"PUBLISHED","created":"2016","lastUpdated":"2017","lastActive":"no","area":36.87283084272823,"changesets":4328,"mappers":22,"roads":2.42938227618569,"buildings":85702,"edits":88012,"latest":"2017-01-13T04:08:01.000Z"},"geometry":{"type":"Point","coordinates":[121.060318398119,14.5189720719609]}},{"type":"Feature","properties":{"id":131,"title":"New Bataan - Typhoon Bopha/Pablo","status":"ARCHIVED","created":"2012","lastUpdated":"2018","lastActive":"no","area":106.888571010529,"changesets":719,"mappers":33,"roads":2498.97338320675,"buildings":83340,"edits":93909,"latest":"2018-08-18T10:08:02.000Z"},"geometry":{"type":"Point","coordinates":[126.108576736349,7.55772514395339]}},{"type":"Feature","properties":{"id":1888,"title":"DOST-Project NOAH (ISAIAH) Structures Map Up Bataan","status":"PUBLISHED","created":"2016","lastUpdated":"2017","lastActive":"no","area":2696.6107231235264,"changesets":1334,"mappers":27,"roads":8.19466885708856,"buildings":178984,"edits":180369,"latest":"2017-05-08T03:38:27.000Z"},"geometry":{"type":"Point","coordinates":[120.439364744064,14.5994934293397]}},{"type":"Feature","properties":{"id":5569,"title":"Post-Disaster Mapping in Brgy Uling and Brgy. Pangdan, Naga City, Cebu","status":"PUBLISHED","created":"2018","lastUpdated":"2018","lastActive":"no","area":15.048594361484898,"changesets":191,"mappers":17,"roads":1.59122621032686,"buildings":2435,"edits":2450,"latest":"2018-12-05T04:51:57.000Z"},"geometry":{"type":"Point","coordinates":[123.721821915621,10.267601668473]}},{"type":"Feature","properties":{"id":1054,"title":"Bohol Island, Philippines OpenRoad project, Part II -- MapGive","status":"PUBLISHED","created":"2015","lastUpdated":"2018","lastActive":"no","area":126.22765106989851,"changesets":0,"mappers":0,"roads":0,"buildings":0,"edits":0,"latest":null},"geometry":{"type":"Point","coordinates":[123.838331545641,9.77690083857825]}},{"type":"Feature","properties":{"id":2008,"title":"DOST-Project NOAH (ISAIAH) Structures Map Up Ilocos Sur","status":"PUBLISHED","created":"2016","lastUpdated":"2017","lastActive":"no","area":4406.481445663697,"changesets":1343,"mappers":66,"roads":41.8131430523579,"buildings":173576,"edits":173782,"latest":"2017-02-17T02:27:29.000Z"},"geometry":{"type":"Point","coordinates":[120.461800650037,17.3141316340269]}},{"type":"Feature","properties":{"id":2038,"title":"DOST-Project NOAH (ISAIAH) Structures Map Up Pateros","status":"ARCHIVED","created":"2016","lastUpdated":"2016","lastActive":"no","area":1.9135061836005889,"changesets":489,"mappers":12,"roads":0.324292387266216,"buildings":37833,"edits":38251,"latest":"2016-09-22T09:51:49.000Z"},"geometry":{"type":"Point","coordinates":[121.070126804695,14.5457406965928]}},{"type":"Feature","properties":{"id":2724,"title":"NOAH-UNICEF: Mapping Mapanas, Northern Samar","status":"PUBLISHED","created":"2017","lastUpdated":"2017","lastActive":"no","area":132.45656122565023,"changesets":36,"mappers":2,"roads":0.547703860688767,"buildings":1607,"edits":1629,"latest":"2017-04-11T03:23:10.000Z"},"geometry":{"type":"Point","coordinates":[125.209204222824,12.4396239184066]}},{"type":"Feature","properties":{"id":2726,"title":"NOAH-UNICEF: Mapping Paracale, Camarines Norte","status":"PUBLISHED","created":"2017","lastUpdated":"2018","lastActive":"no","area":158.35118879223091,"changesets":63,"mappers":3,"roads":104.215381930902,"buildings":29534,"edits":30496,"latest":"2018-05-19T20:34:57.000Z"},"geometry":{"type":"Point","coordinates":[122.774434936295,14.2544603824519]}},{"type":"Feature","properties":{"id":1996,"title":"DOST-Project NOAH (ISAIAH) Structures Map Up Ilocos Norte","status":"PUBLISHED","created":"2016","lastUpdated":"2017","lastActive":"no","area":5561.793445652042,"changesets":1561,"mappers":31,"roads":43.1422797282113,"buildings":176734,"edits":180128,"latest":"2017-05-31T02:07:52.000Z"},"geometry":{"type":"Point","coordinates":[120.666972769811,18.2736938402559]}},{"type":"Feature","properties":{"id":5234,"title":"Typhoon Ompong: Isabela Structures 1","status":"PUBLISHED","created":"2018","lastUpdated":"2018","lastActive":"yes","area":3692.327955202936,"changesets":7846,"mappers":374,"roads":1345.16736915542,"buildings":68760,"edits":73641,"latest":"2018-12-22T09:49:27.000Z"},"geometry":{"type":"Point","coordinates":[122.204399806909,16.9572292235093]}},{"type":"Feature","properties":{"id":3997,"title":"Metro Manila, PH - Missing Roads","status":"ARCHIVED","created":"2018","lastUpdated":"2018","lastActive":"no","area":0.4815400492930303,"changesets":697,"mappers":14,"roads":380.711569134865,"buildings":7339,"edits":36705,"latest":"2018-01-30T06:33:00.000Z"},"geometry":{"type":"Point","coordinates":[121.012926818869,14.5445738263426]}},{"type":"Feature","properties":{"id":5233,"title":"Typhoon Ompong Pre-Disaster Mapping","status":"ARCHIVED","created":"2018","lastUpdated":"2018","lastActive":"no","area":127819.30061766622,"changesets":41,"mappers":7,"roads":11.7899762817965,"buildings":1658,"edits":1702,"latest":"2018-09-14T07:52:55.000Z"},"geometry":{"type":"Point","coordinates":[121.330786294589,17.5606666310015]}},{"type":"Feature","properties":{"id":5523,"title":"Post-Disaster Mapping in Brgy Cantao-An, Naga City, Cebu","status":"PUBLISHED","created":"2018","lastUpdated":"2018","lastActive":"no","area":8.578373136287787,"changesets":257,"mappers":8,"roads":0.0144907976786474,"buildings":1560,"edits":1566,"latest":"2018-11-26T21:11:14.000Z"},"geometry":{"type":"Point","coordinates":[123.751319151188,10.2496391615833]}},{"type":"Feature","properties":{"id":5463,"title":"Mountain Province, Philippines - Mapping for Food Security","status":"PUBLISHED","created":"2018","lastUpdated":"2018","lastActive":"no","area":2140.5000592203664,"changesets":585,"mappers":37,"roads":56.8467069600774,"buildings":4437,"edits":4909,"latest":"2018-12-11T13:40:01.000Z"},"geometry":{"type":"Point","coordinates":[121.132380011647,17.1004779818524]}},{"type":"Feature","properties":{"id":5459,"title":"Mindanao Region, Bukindon, Philippines - Mapping for Food Security","status":"PUBLISHED","created":"2018","lastUpdated":"2018","lastActive":"no","area":9159.72862244662,"changesets":10103,"mappers":66,"roads":214.213544223019,"buildings":42752,"edits":43616,"latest":"2018-12-03T20:11:56.000Z"},"geometry":{"type":"Point","coordinates":[124.998487237751,8.02006279209236]}},{"type":"Feature","properties":{"id":5461,"title":"South Cotabato, Philippines - Mapping for Food Security","status":"PUBLISHED","created":"2018","lastUpdated":"2018","lastActive":"no","area":4377.041737939115,"changesets":234,"mappers":53,"roads":138.819512245299,"buildings":4225,"edits":4771,"latest":"2018-12-10T13:32:03.000Z"},"geometry":{"type":"Point","coordinates":[124.84600611185,6.2825458303774]}},{"type":"Feature","properties":{"id":5483,"title":"Samar Eastern, Philippines - Mapping for Food Security","status":"PUBLISHED","created":"2018","lastUpdated":"2018","lastActive":"no","area":4305.267408054197,"changesets":173,"mappers":55,"roads":28.1269868083261,"buildings":1318,"edits":1570,"latest":"2018-12-11T21:42:16.000Z"},"geometry":{"type":"Point","coordinates":[125.380313420073,11.6564103271826]}},{"type":"Feature","properties":{"id":5450,"title":"Palawan Region, Puerto Princesa, Philippines - Mapping for Food Security","status":"PUBLISHED","created":"2018","lastUpdated":"2018","lastActive":"no","area":2190.244662288019,"changesets":741,"mappers":58,"roads":531.023365959974,"buildings":9671,"edits":10956,"latest":"2018-12-18T13:39:14.000Z"},"geometry":{"type":"Point","coordinates":[118.768679315277,9.90739394513733]}},{"type":"Feature","properties":{"id":5435,"title":"Mindanao Region, Misamis Oriental (northern), Philippines - Mapping for Food Security","status":"PUBLISHED","created":"2018","lastUpdated":"2018","lastActive":"no","area":2072.929989519479,"changesets":339,"mappers":39,"roads":179.949825684978,"buildings":7380,"edits":7898,"latest":"2018-11-29T20:40:41.000Z"},"geometry":{"type":"Point","coordinates":[124.994799793291,8.76680642717642]}},{"type":"Feature","properties":{"id":5465,"title":"Samar North, Philippines - Mapping for Food Security","status":"PUBLISHED","created":"2018","lastUpdated":"2018","lastActive":"no","area":3415.086756157814,"changesets":221,"mappers":59,"roads":51.0077313274416,"buildings":5597,"edits":6024,"latest":"2018-12-04T13:37:13.000Z"},"geometry":{"type":"Point","coordinates":[124.789879432047,12.4134374698783]}},{"type":"Feature","properties":{"id":1886,"title":"DOST-Project NOAH (ISAIAH) Structures Map Up Batangas","status":"PUBLISHED","created":"2016","lastUpdated":"2017","lastActive":"no","area":6798.780760709117,"changesets":10003,"mappers":40,"roads":94.9559896570111,"buildings":588946,"edits":597194,"latest":"2017-02-10T08:57:51.000Z"},"geometry":{"type":"Point","coordinates":[120.950002895498,13.8394478780543]}},{"type":"Feature","properties":{"id":4202,"title":"Mayon Volcano USAID & USGS","status":"PUBLISHED","created":"2018","lastUpdated":"2018","lastActive":"no","area":23.191221545963582,"changesets":509,"mappers":108,"roads":38.4903837034172,"buildings":8863,"edits":9277,"latest":"2018-12-06T02:41:21.000Z"},"geometry":{"type":"Point","coordinates":[123.716571523024,13.3049864402658]}},{"type":"Feature","properties":{"id":5430,"title":"Mindanao, Philippines - Missing Roads Validation","status":"PUBLISHED","created":"2018","lastUpdated":"2018","lastActive":"no","area":58.54300317552073,"changesets":0,"mappers":0,"roads":0,"buildings":0,"edits":0,"latest":null},"geometry":{"type":"Point","coordinates":[124.670134182691,7.55328139685998]}},{"type":"Feature","properties":{"id":2109,"title":"DOST-Project NOAH (ISAIAH) Structures Map Up Leyte Island","status":"PUBLISHED","created":"2016","lastUpdated":"2017","lastActive":"no","area":15287.575096873534,"changesets":1323,"mappers":77,"roads":6.95731933027256,"buildings":115847,"edits":116459,"latest":"2017-02-24T15:20:26.000Z"},"geometry":{"type":"Point","coordinates":[124.828453753641,10.6947256509807]}},{"type":"Feature","properties":{"id":5421,"title":"PRC-VCAD project sites","status":"PUBLISHED","created":"2018","lastUpdated":"2018","lastActive":"no","area":1978.0745869605585,"changesets":9,"mappers":2,"roads":23.8884778366055,"buildings":184,"edits":542,"latest":"2018-11-06T15:36:38.000Z"},"geometry":{"type":"Point","coordinates":[122.624235299629,12.3256284958559]}},{"type":"Feature","properties":{"id":4793,"title":"CRS-UP NOAH Building Footprints Mapping - Meycauayan, Bulacan","status":"PUBLISHED","created":"2018","lastUpdated":"2018","lastActive":"no","area":31.969074351640266,"changesets":571,"mappers":62,"roads":18.1002836567397,"buildings":9560,"edits":10821,"latest":"2018-09-28T05:07:19.000Z"},"geometry":{"type":"Point","coordinates":[120.967937667105,14.752384032173]}},{"type":"Feature","properties":{"id":4874,"title":"Lake Sebu village mapping exercise - A.M. Session","status":"ARCHIVED","created":"2018","lastUpdated":"2018","lastActive":"no","area":0.3850677131208663,"changesets":89,"mappers":12,"roads":2.37643701969865,"buildings":293,"edits":329,"latest":"2018-07-31T11:08:31.000Z"},"geometry":{"type":"Point","coordinates":[124.724594976853,6.29004664300618]}},{"type":"Feature","properties":{"id":4875,"title":"Lake Sebu village mapping exercise - P.M. Session","status":"ARCHIVED","created":"2018","lastUpdated":"2018","lastActive":"no","area":0.32577374851661883,"changesets":105,"mappers":17,"roads":12.6115966598724,"buildings":832,"edits":887,"latest":"2018-09-04T00:32:09.000Z"},"geometry":{"type":"Point","coordinates":[124.716714184942,6.271670922273]}},{"type":"Feature","properties":{"id":5414,"title":"Luzon, Philippines - Missing Roads Validation","status":"PUBLISHED","created":"2018","lastUpdated":"2018","lastActive":"no","area":248.88650639067384,"changesets":0,"mappers":0,"roads":0,"buildings":0,"edits":0,"latest":null},"geometry":{"type":"Point","coordinates":[120.98845026101,14.837542318174]}},{"type":"Feature","properties":{"id":4993,"title":"Settlement mapping exercise - Lake Sebu, SCO, PH","status":"ARCHIVED","created":"2018","lastUpdated":"2018","lastActive":"no","area":12.139239685454037,"changesets":267,"mappers":30,"roads":70.6333937889701,"buildings":3978,"edits":4426,"latest":"2018-09-20T04:03:14.000Z"},"geometry":{"type":"Point","coordinates":[124.674894947625,6.24324411286153]}},{"type":"Feature","properties":{"id":768,"title":"Bohol Island, Philippines OpenRoad project, Part I -- MapGive","status":"PUBLISHED","created":"2014","lastUpdated":"2017","lastActive":"no","area":457.54507236444925,"changesets":0,"mappers":0,"roads":0,"buildings":0,"edits":0,"latest":null},"geometry":{"type":"Point","coordinates":[124.329666907057,9.77175880408418]}},{"type":"Feature","properties":{"id":504,"title":"General Santos City, Philippines","status":"PUBLISHED","created":"2014","lastUpdated":"2017","lastActive":"no","area":41.853759664341574,"changesets":0,"mappers":0,"roads":0,"buildings":0,"edits":0,"latest":null},"geometry":{"type":"Point","coordinates":[125.166194433626,6.1255914338959]}},{"type":"Feature","properties":{"id":378,"title":"Mapping in Cavite, Philippines - SA activities","status":"PUBLISHED","created":"2013","lastUpdated":"2018","lastActive":"no","area":347.85007544928436,"changesets":0,"mappers":0,"roads":0,"buildings":0,"edits":0,"latest":null},"geometry":{"type":"Point","coordinates":[120.96912122858,14.4290195177527]}},{"type":"Feature","properties":{"id":362,"title":"Typhoon Haiyan - Panay Island Eastern Side","status":"ARCHIVED","created":"2014","lastUpdated":"2014","lastActive":"no","area":1091.2732336005486,"changesets":0,"mappers":0,"roads":0,"buildings":0,"edits":0,"latest":null},"geometry":{"type":"Point","coordinates":[123.010111982788,11.3504538337967]}},{"type":"Feature","properties":{"id":336,"title":"Mapping in Laurel municipality -  SA activities","status":"ARCHIVED","created":"2013","lastUpdated":"2014","lastActive":"no","area":31.488200520668734,"changesets":66,"mappers":3,"roads":23.8203842819254,"buildings":3002,"edits":3213,"latest":"2018-10-08T00:51:39.000Z"},"geometry":{"type":"Point","coordinates":[120.941619395341,14.0665291172123]}},{"type":"Feature","properties":{"id":356,"title":"Typhoon Haiyan - Roxas City Post-Disaster Imagery Mapping Pleiades","status":"ARCHIVED","created":"2013","lastUpdated":"2014","lastActive":"no","area":147.2771412763834,"changesets":0,"mappers":0,"roads":0,"buildings":0,"edits":0,"latest":null},"geometry":{"type":"Point","coordinates":[122.752771469321,11.568011532376]}},{"type":"Feature","properties":{"id":331,"title":"Guagua, Pampanga DRR mapping ","status":"PUBLISHED","created":"2013","lastUpdated":"2018","lastActive":"no","area":49.709960372922495,"changesets":0,"mappers":0,"roads":0,"buildings":0,"edits":0,"latest":null},"geometry":{"type":"Point","coordinates":[120.603497795665,14.9816853820111]}},{"type":"Feature","properties":{"id":130,"title":"Montevista - Typhoon Bopha/Pablo","status":"ARCHIVED","created":"2012","lastUpdated":"2018","lastActive":"no","area":110.23855036305432,"changesets":82,"mappers":10,"roads":4.82485946046969,"buildings":20218,"edits":20373,"latest":"2018-04-15T04:17:20.000Z"},"geometry":{"type":"Point","coordinates":[125.991462794654,7.70103952234117]}},{"type":"Feature","properties":{"id":132,"title":"Cateel - Typhoon Bopha/Pablo","status":"ARCHIVED","created":"2012","lastUpdated":"2018","lastActive":"no","area":118.05073540481972,"changesets":611,"mappers":32,"roads":675096.12151893,"buildings":18286,"edits":47562,"latest":"2018-05-25T15:48:17.000Z"},"geometry":{"type":"Point","coordinates":[126.420080755638,7.78840326075831]}}],"totalArea":2403565220.8718014,"Zimbabwe":[{"type":"Feature","properties":{"id":2950,"title":"Missing Maps: Zimbabwe Malaria Elimination 121","status":"ARCHIVED","created":"2017","lastUpdated":"2017","lastActive":"no","area":1599.3243256366436,"changesets":1262,"mappers":27,"roads":3.42289645611292,"buildings":13390,"edits":13416,"latest":"2017-05-08T16:32:43.000Z"},"geometry":{"type":"Point","coordinates":[31.1030224567102,-18.6721252058521]}},{"type":"Feature","properties":{"id":2940,"title":"Missing Maps: Zimbabwe Malaria Elimination 113","status":"ARCHIVED","created":"2017","lastUpdated":"2017","lastActive":"no","area":458.81632472751903,"changesets":1597,"mappers":43,"roads":1.16431329860546,"buildings":15602,"edits":15620,"latest":"2017-05-05T00:07:24.000Z"},"geometry":{"type":"Point","coordinates":[29.4606452436797,-18.4174447332206]}},{"type":"Feature","properties":{"id":2923,"title":"Missing Maps: Zimbabwe Malaria Elimination 105","status":"ARCHIVED","created":"2017","lastUpdated":"2017","lastActive":"no","area":880.2162233763714,"changesets":1976,"mappers":111,"roads":37.307429908553,"buildings":16450,"edits":16718,"latest":"2017-05-22T20:55:15.000Z"},"geometry":{"type":"Point","coordinates":[29.026218119339,-17.9992561928207]}},{"type":"Feature","properties":{"id":2909,"title":"Missing Maps: Zimbabwe Malaria Elimination 98","status":"ARCHIVED","created":"2017","lastUpdated":"2017","lastActive":"no","area":930.3437964879708,"changesets":1753,"mappers":62,"roads":1.38370864374093,"buildings":24803,"edits":24891,"latest":"2017-07-13T13:01:52.000Z"},"geometry":{"type":"Point","coordinates":[28.5844763352432,-17.5654675366985]}},{"type":"Feature","properties":{"id":3128,"title":"Missing Maps: Zimbabwe Malaria Elimination 181","status":"ARCHIVED","created":"2017","lastUpdated":"2017","lastActive":"no","area":849.1741037896288,"changesets":1573,"mappers":26,"roads":1.79313770493157,"buildings":33429,"edits":33567,"latest":"2017-06-06T12:26:47.000Z"},"geometry":{"type":"Point","coordinates":[30.2752128859154,-17.4769524882532]}},{"type":"Feature","properties":{"id":2879,"title":"Missing Maps: Zimbabwe Malaria Elimination 83","status":"ARCHIVED","created":"2017","lastUpdated":"2017","lastActive":"no","area":698.911972374493,"changesets":1623,"mappers":63,"roads":10.2409820951138,"buildings":12541,"edits":12649,"latest":"2017-05-01T23:31:27.000Z"},"geometry":{"type":"Point","coordinates":[28.3068854742894,-21.232192793699]}},{"type":"Feature","properties":{"id":2877,"title":"Missing Maps: Zimbabwe Malaria Elimination 81","status":"ARCHIVED","created":"2017","lastUpdated":"2017","lastActive":"no","area":639.4226009539689,"changesets":1727,"mappers":95,"roads":3.42867174696417,"buildings":13877,"edits":13949,"latest":"2017-05-02T01:45:41.000Z"},"geometry":{"type":"Point","coordinates":[28.3259918935271,-20.9581709990286]}},{"type":"Feature","properties":{"id":2901,"title":"Missing Maps: Zimbabwe Malaria Elimination 95","status":"ARCHIVED","created":"2017","lastUpdated":"2017","lastActive":"no","area":697.7038069284434,"changesets":1779,"mappers":81,"roads":6.34251981669185,"buildings":23414,"edits":23707,"latest":"2017-08-03T13:13:36.000Z"},"geometry":{"type":"Point","coordinates":[28.2609273300009,-17.6409991828592]}},{"type":"Feature","properties":{"id":3132,"title":"Missing Maps: Zimbabwe Malaria Elimination 185","status":"ARCHIVED","created":"2017","lastUpdated":"2017","lastActive":"no","area":296.39690657354737,"changesets":992,"mappers":16,"roads":0.0941818484117608,"buildings":13566,"edits":13616,"latest":"2017-06-07T17:49:20.000Z"},"geometry":{"type":"Point","coordinates":[30.1909227908502,-17.7125075756904]}},{"type":"Feature","properties":{"id":2927,"title":"Missing Maps: Zimbabwe Malaria Elimination 107","status":"ARCHIVED","created":"2017","lastUpdated":"2017","lastActive":"no","area":706.9202436941782,"changesets":1796,"mappers":65,"roads":0.18612651411881,"buildings":14901,"edits":14923,"latest":"2017-08-30T07:17:13.000Z"},"geometry":{"type":"Point","coordinates":[28.3947606282248,-18.3766426321732]}},{"type":"Feature","properties":{"id":2919,"title":"Missing Maps: Zimbabwe Malaria Elimination 103","status":"ARCHIVED","created":"2017","lastUpdated":"2017","lastActive":"no","area":825.8423227072207,"changesets":1766,"mappers":51,"roads":14.8318661926515,"buildings":16504,"edits":16608,"latest":"2017-04-30T19:50:40.000Z"},"geometry":{"type":"Point","coordinates":[28.44396306144,-18.0567860582607]}},{"type":"Feature","properties":{"id":3041,"title":"Missing Maps: Zimbabwe Malaria Elimination 145","status":"ARCHIVED","created":"2017","lastUpdated":"2017","lastActive":"no","area":726.3820103657496,"changesets":1344,"mappers":51,"roads":13.933746840588,"buildings":18366,"edits":18532,"latest":"2017-06-05T05:40:05.000Z"},"geometry":{"type":"Point","coordinates":[30.0091667921279,-20.0923327164619]}},{"type":"Feature","properties":{"id":3143,"title":"Missing Maps: Zimbabwe Malaria Elimination 189","status":"ARCHIVED","created":"2017","lastUpdated":"2017","lastActive":"no","area":793.3002328037115,"changesets":1822,"mappers":101,"roads":170.873248483594,"buildings":29457,"edits":31248,"latest":"2017-06-12T10:19:30.000Z"},"geometry":{"type":"Point","coordinates":[30.6884200310902,-17.912593576474]}},{"type":"Feature","properties":{"id":2932,"title":"Missing Maps: Zimbabwe Malaria Elimination 111","status":"ARCHIVED","created":"2017","lastUpdated":"2017","lastActive":"no","area":620.1012392999947,"changesets":1635,"mappers":36,"roads":27.4147371214624,"buildings":22128,"edits":22658,"latest":"2017-05-23T20:09:14.000Z"},"geometry":{"type":"Point","coordinates":[29.0937696478496,-18.1922001742943]}},{"type":"Feature","properties":{"id":2942,"title":"Missing Maps: Zimbabwe Malaria Elimination 115","status":"ARCHIVED","created":"2017","lastUpdated":"2017","lastActive":"no","area":659.7490593878226,"changesets":1513,"mappers":18,"roads":0.0196183980040298,"buildings":17712,"edits":17732,"latest":"2017-05-05T10:17:43.000Z"},"geometry":{"type":"Point","coordinates":[29.1295594748967,-18.7443945804149]}},{"type":"Feature","properties":{"id":3190,"title":"Missing Maps: Zimbabwe Malaria Elimination 205","status":"ARCHIVED","created":"2017","lastUpdated":"2017","lastActive":"no","area":175.78590806693822,"changesets":1285,"mappers":38,"roads":34.3096475562587,"buildings":56885,"edits":59658,"latest":"2017-08-08T10:52:53.000Z"},"geometry":{"type":"Point","coordinates":[28.5525554958836,-20.1804660797694]}},{"type":"Feature","properties":{"id":3091,"title":"Missing Maps: Zimbabwe Malaria Elimination 165","status":"ARCHIVED","created":"2017","lastUpdated":"2017","lastActive":"no","area":636.1436044775421,"changesets":933,"mappers":22,"roads":0.480242074978502,"buildings":21711,"edits":21756,"latest":"2017-05-31T05:48:57.000Z"},"geometry":{"type":"Point","coordinates":[29.7405924072834,-16.7766913522357]}},{"type":"Feature","properties":{"id":3105,"title":"Missing Maps: Zimbabwe Malaria Elimination 167","status":"ARCHIVED","created":"2017","lastUpdated":"2017","lastActive":"no","area":1084.5111375769916,"changesets":1485,"mappers":29,"roads":6.57505330889222,"buildings":17522,"edits":17604,"latest":"2017-06-02T01:58:22.000Z"},"geometry":{"type":"Point","coordinates":[30.3500725260899,-16.7792630001433]}},{"type":"Feature","properties":{"id":3084,"title":"Missing Maps: Zimbabwe Malaria Elimination 162","status":"ARCHIVED","created":"2017","lastUpdated":"2017","lastActive":"no","area":614.4936740468466,"changesets":1519,"mappers":51,"roads":9.07871487105579,"buildings":22097,"edits":22187,"latest":"2017-08-13T19:02:32.000Z"},"geometry":{"type":"Point","coordinates":[29.2772488130755,-16.743052507406]}},{"type":"Feature","properties":{"id":3182,"title":"Missing Maps: Zimbabwe Malaria Elimination 202","status":"ARCHIVED","created":"2017","lastUpdated":"2017","lastActive":"no","area":743.2178219131076,"changesets":1356,"mappers":47,"roads":58.8103080106425,"buildings":17120,"edits":17508,"latest":"2017-08-09T13:57:42.000Z"},"geometry":{"type":"Point","coordinates":[30.4471309077624,-18.7536619120408]}},{"type":"Feature","properties":{"id":3069,"title":"Missing Maps: Zimbabwe Malaria Elimination 154","status":"ARCHIVED","created":"2017","lastUpdated":"2017","lastActive":"no","area":310.86262919348303,"changesets":717,"mappers":19,"roads":12.9542610561765,"buildings":9010,"edits":9094,"latest":"2017-05-25T16:42:32.000Z"},"geometry":{"type":"Point","coordinates":[29.7578269600295,-20.9476687975489]}},{"type":"Feature","properties":{"id":2871,"title":"Missing Maps: Zimbabwe Malaria Elimination 79","status":"ARCHIVED","created":"2017","lastUpdated":"2017","lastActive":"no","area":791.3238772590033,"changesets":1400,"mappers":54,"roads":2.19041532995911,"buildings":13889,"edits":14311,"latest":"2017-05-15T03:57:42.000Z"},"geometry":{"type":"Point","coordinates":[29.2635180418741,-20.7807282798477]}},{"type":"Feature","properties":{"id":3165,"title":"Missing Maps: Zimbabwe Malaria Elimination 198","status":"ARCHIVED","created":"2017","lastUpdated":"2017","lastActive":"no","area":620.9539460421306,"changesets":1453,"mappers":71,"roads":2.90486820180499,"buildings":16627,"edits":16718,"latest":"2017-08-11T22:47:19.000Z"},"geometry":{"type":"Point","coordinates":[30.6288525474591,-18.1079653772967]}},{"type":"Feature","properties":{"id":2865,"title":"Missing Maps: Zimbabwe Malaria Elimination 73","status":"ARCHIVED","created":"2017","lastUpdated":"2017","lastActive":"no","area":944.4155190347276,"changesets":1868,"mappers":52,"roads":12.7257318752474,"buildings":30468,"edits":30598,"latest":"2017-08-08T08:33:55.000Z"},"geometry":{"type":"Point","coordinates":[28.7851478491811,-20.2869640681536]}},{"type":"Feature","properties":{"id":2855,"title":"Missing Maps: Zimbabwe Malaria Elimination 65","status":"ARCHIVED","created":"2017","lastUpdated":"2017","lastActive":"no","area":649.7565993265312,"changesets":1757,"mappers":64,"roads":101.519456459127,"buildings":12955,"edits":13139,"latest":"2017-04-29T12:09:34.000Z"},"geometry":{"type":"Point","coordinates":[27.6955871777414,-20.3257327571769]}},{"type":"Feature","properties":{"id":3157,"title":"Missing Maps: Zimbabwe Malaria Elimination 193","status":"ARCHIVED","created":"2017","lastUpdated":"2017","lastActive":"no","area":1638.7871221789394,"changesets":1448,"mappers":34,"roads":20.4373159067063,"buildings":25817,"edits":25881,"latest":"2017-06-13T19:34:32.000Z"},"geometry":{"type":"Point","coordinates":[29.553853713302,-18.2552908745385]}},{"type":"Feature","properties":{"id":2859,"title":"Missing Maps: Zimbabwe Malaria Elimination 69","status":"ARCHIVED","created":"2017","lastUpdated":"2017","lastActive":"no","area":1435.2319423448462,"changesets":1540,"mappers":34,"roads":4.01163279508434,"buildings":10702,"edits":10710,"latest":"2017-04-22T03:17:11.000Z"},"geometry":{"type":"Point","coordinates":[28.2439886049771,-20.5315476840708]}},{"type":"Feature","properties":{"id":2899,"title":"Missing Maps: Zimbabwe Malaria Elimination 93","status":"ARCHIVED","created":"2017","lastUpdated":"2017","lastActive":"no","area":1369.4229320461334,"changesets":1287,"mappers":61,"roads":2.86122463236616,"buildings":10533,"edits":10601,"latest":"2017-08-08T03:04:29.000Z"},"geometry":{"type":"Point","coordinates":[30.405209827638,-22.0564788032049]}},{"type":"Feature","properties":{"id":2885,"title":"Missing Maps: Zimbabwe Malaria Elimination 86","status":"ARCHIVED","created":"2017","lastUpdated":"2017","lastActive":"no","area":1577.6602036185302,"changesets":1734,"mappers":84,"roads":45.4361622453626,"buildings":10475,"edits":10989,"latest":"2017-05-01T23:44:30.000Z"},"geometry":{"type":"Point","coordinates":[29.5234676213341,-21.196890937408]}},{"type":"Feature","properties":{"id":3163,"title":"Missing Maps: Zimbabwe Malaria Elimination 196","status":"ARCHIVED","created":"2017","lastUpdated":"2017","lastActive":"no","area":809.8330367264507,"changesets":1214,"mappers":21,"roads":0.30153705934123,"buildings":22795,"edits":22841,"latest":"2017-06-15T06:59:00.000Z"},"geometry":{"type":"Point","coordinates":[30.1223474762561,-18.2441226620402]}},{"type":"Feature","properties":{"id":3052,"title":"Missing Maps: Zimbabwe Malaria Elimination 150","status":"ARCHIVED","created":"2017","lastUpdated":"2017","lastActive":"no","area":684.4684482056965,"changesets":2056,"mappers":93,"roads":20.1668956079169,"buildings":24613,"edits":24822,"latest":"2017-07-28T20:13:59.000Z"},"geometry":{"type":"Point","coordinates":[30.3680671432649,-20.7900872552648]}},{"type":"Feature","properties":{"id":3054,"title":"Missing Maps: Zimbabwe Malaria Elimination 152","status":"ARCHIVED","created":"2017","lastUpdated":"2017","lastActive":"no","area":701.6978475072958,"changesets":1245,"mappers":27,"roads":0.616663923549746,"buildings":19127,"edits":19143,"latest":"2017-05-26T09:24:12.000Z"},"geometry":{"type":"Point","coordinates":[29.9701667781813,-20.808884976699]}},{"type":"Feature","properties":{"id":3180,"title":"Missing Maps: Zimbabwe Malaria Elimination 200","status":"ARCHIVED","created":"2017","lastUpdated":"2017","lastActive":"no","area":468.90085785512247,"changesets":1393,"mappers":52,"roads":24.3441886432429,"buildings":11759,"edits":11941,"latest":"2017-08-11T12:17:42.000Z"},"geometry":{"type":"Point","coordinates":[30.6918659774459,-18.4794704160666]}},{"type":"Feature","properties":{"id":2997,"title":"Missing Maps: Zimbabwe Malaria Elimination 139","status":"ARCHIVED","created":"2017","lastUpdated":"2017","lastActive":"no","area":758.8480784947058,"changesets":1300,"mappers":42,"roads":14.0024351522642,"buildings":15995,"edits":16199,"latest":"2017-05-19T02:04:55.000Z"},"geometry":{"type":"Point","coordinates":[29.9917362850762,-19.6607406317635]}},{"type":"Feature","properties":{"id":3012,"title":"Missing Maps: Zimbabwe Malaria Elimination 141","status":"ARCHIVED","created":"2017","lastUpdated":"2017","lastActive":"no","area":573.396375187935,"changesets":1485,"mappers":43,"roads":1.77572554074667,"buildings":21017,"edits":21077,"latest":"2017-05-29T23:50:07.000Z"},"geometry":{"type":"Point","coordinates":[30.6103570050826,-19.7096724533185]}},{"type":"Feature","properties":{"id":2984,"title":"Missing Maps: Zimbabwe Malaria Elimination 136","status":"ARCHIVED","created":"2017","lastUpdated":"2017","lastActive":"no","area":528.0589309701272,"changesets":1690,"mappers":53,"roads":287.876740021899,"buildings":51378,"edits":52480,"latest":"2017-07-04T19:14:06.000Z"},"geometry":{"type":"Point","coordinates":[29.8279400623691,-19.4270967634773]}},{"type":"Feature","properties":{"id":2995,"title":"Missing Maps: Zimbabwe Malaria Elimination 137","status":"ARCHIVED","created":"2017","lastUpdated":"2017","lastActive":"no","area":1176.0620739096066,"changesets":1993,"mappers":116,"roads":75.5209563552115,"buildings":10943,"edits":11398,"latest":"2017-05-22T12:51:47.000Z"},"geometry":{"type":"Point","coordinates":[30.1933219404037,-19.3289475971505]}},{"type":"Feature","properties":{"id":2975,"title":"Missing Maps: Zimbabwe Malaria Elimination 131","status":"ARCHIVED","created":"2017","lastUpdated":"2017","lastActive":"no","area":617.3810701543446,"changesets":1385,"mappers":31,"roads":0.237607086833972,"buildings":12841,"edits":12857,"latest":"2017-05-13T17:48:45.000Z"},"geometry":{"type":"Point","coordinates":[29.2366562006863,-19.3339446024612]}},{"type":"Feature","properties":{"id":3044,"title":"Missing Maps: Zimbabwe Malaria Elimination 147","status":"ARCHIVED","created":"2017","lastUpdated":"2017","lastActive":"no","area":1085.3746644092441,"changesets":1280,"mappers":63,"roads":11.6213741464055,"buildings":18769,"edits":18890,"latest":"2017-05-26T14:27:46.000Z"},"geometry":{"type":"Point","coordinates":[29.8632315179271,-20.501746344774]}},{"type":"Feature","properties":{"id":2964,"title":"Missing Maps: Zimbabwe Malaria Elimination 128","status":"ARCHIVED","created":"2017","lastUpdated":"2017","lastActive":"no","area":1344.695954775147,"changesets":1521,"mappers":25,"roads":53.1457441818121,"buildings":13374,"edits":13460,"latest":"2017-08-03T17:46:34.000Z"},"geometry":{"type":"Point","coordinates":[30.6319836378847,-19.2068390680829]}},{"type":"Feature","properties":{"id":2977,"title":"Missing Maps: Zimbabwe Malaria Elimination 133","status":"ARCHIVED","created":"2017","lastUpdated":"2017","lastActive":"no","area":1298.2639222085209,"changesets":1897,"mappers":50,"roads":56.2391750390663,"buildings":18400,"edits":19049,"latest":"2017-05-22T14:17:18.000Z"},"geometry":{"type":"Point","coordinates":[29.7472186257855,-19.1646576638594]}},{"type":"Feature","properties":{"id":2949,"title":"Missing Maps: Zimbabwe Malaria Elimination 120","status":"ARCHIVED","created":"2017","lastUpdated":"2017","lastActive":"no","area":1404.8127933253527,"changesets":1781,"mappers":95,"roads":30.2994533953136,"buildings":11885,"edits":12233,"latest":"2017-05-11T07:36:13.000Z"},"geometry":{"type":"Point","coordinates":[30.5920731524007,-18.9055060637847]}},{"type":"Feature","properties":{"id":4467,"title":"Missing Maps: West Harare, Zimbabwe 2/5","status":"ARCHIVED","created":"2018","lastUpdated":"2018","lastActive":"no","area":4.219669061118951,"changesets":104,"mappers":22,"roads":23.515697663126,"buildings":1282,"edits":1511,"latest":"2018-04-29T11:25:01.000Z"},"geometry":{"type":"Point","coordinates":[30.9351296047106,-17.919704092956]}},{"type":"Feature","properties":{"id":2917,"title":"Missing Maps: Zimbabwe Malaria Elimination 101","status":"ARCHIVED","created":"2017","lastUpdated":"2017","lastActive":"no","area":692.3243795675879,"changesets":1816,"mappers":67,"roads":0.998756208485761,"buildings":23867,"edits":23903,"latest":"2017-04-30T17:22:39.000Z"},"geometry":{"type":"Point","coordinates":[28.60810532847,-17.7918358638133]}},{"type":"Feature","properties":{"id":2912,"title":"Missing Maps: Zimbabwe Malaria Elimination 99","status":"ARCHIVED","created":"2017","lastUpdated":"2017","lastActive":"no","area":752.3867996468049,"changesets":1471,"mappers":86,"roads":23.4409919983663,"buildings":12236,"edits":12370,"latest":"2017-04-30T05:19:50.000Z"},"geometry":{"type":"Point","coordinates":[28.8961700290039,-17.5683520141566]}},{"type":"Feature","properties":{"id":2887,"title":"Missing Maps: Zimbabwe Malaria Elimination 88","status":"ARCHIVED","created":"2017","lastUpdated":"2017","lastActive":"no","area":818.4326874075956,"changesets":1963,"mappers":79,"roads":0.190873883336577,"buildings":14033,"edits":14106,"latest":"2017-05-22T12:54:38.000Z"},"geometry":{"type":"Point","coordinates":[29.1173433099057,-21.4074470113152]}},{"type":"Feature","properties":{"id":4469,"title":"Missing Maps: West Harare, Zimbabwe 4/5","status":"ARCHIVED","created":"2018","lastUpdated":"2018","lastActive":"no","area":10.239595712615673,"changesets":275,"mappers":41,"roads":5.39085425039512,"buildings":7400,"edits":7522,"latest":"2018-05-08T12:48:19.000Z"},"geometry":{"type":"Point","coordinates":[30.9505247033697,-17.9029029929578]}},{"type":"Feature","properties":{"id":3890,"title":"Road network Zimbabwe (2)","status":"ARCHIVED","created":"2017","lastUpdated":"2018","lastActive":"no","area":994.1777468745335,"changesets":975,"mappers":107,"roads":4228.79707078348,"buildings":1284,"edits":20601,"latest":"2018-06-11T14:27:49.000Z"},"geometry":{"type":"Point","coordinates":[30.8705074219935,-19.4741958029124]}},{"type":"Feature","properties":{"id":2888,"title":"Missing Maps: Zimbabwe Malaria Elimination 89","status":"ARCHIVED","created":"2017","lastUpdated":"2017","lastActive":"no","area":751.2995980735323,"changesets":1750,"mappers":65,"roads":13.2047755888788,"buildings":11022,"edits":11151,"latest":"2017-05-02T01:47:41.000Z"},"geometry":{"type":"Point","coordinates":[29.0666860293344,-21.6378048707465]}},{"type":"Feature","properties":{"id":2831,"title":"Missing Maps: Zimbabwe Malaria Elimination 48","status":"ARCHIVED","created":"2017","lastUpdated":"2017","lastActive":"no","area":471.2661218654948,"changesets":1051,"mappers":55,"roads":64.3146237916789,"buildings":10856,"edits":11096,"latest":"2017-04-18T09:11:18.000Z"},"geometry":{"type":"Point","coordinates":[27.5096988758797,-19.9887778886155]}},{"type":"Feature","properties":{"id":2850,"title":"Missing Maps: Zimbabwe Malaria Elimination 61","status":"ARCHIVED","created":"2017","lastUpdated":"2017","lastActive":"no","area":1083.2215509427663,"changesets":2040,"mappers":43,"roads":0.015445127234251,"buildings":31271,"edits":31299,"latest":"2017-08-08T09:31:21.000Z"},"geometry":{"type":"Point","coordinates":[27.9979419050158,-19.9960632094299]}},{"type":"Feature","properties":{"id":2841,"title":"Missing Maps: Zimbabwe Malaria Elimination 56","status":"ARCHIVED","created":"2017","lastUpdated":"2017","lastActive":"no","area":555.9849134892588,"changesets":824,"mappers":21,"roads":0.0227267265972112,"buildings":7390,"edits":7436,"latest":"2017-04-18T13:14:14.000Z"},"geometry":{"type":"Point","coordinates":[28.6047632716253,-18.865887935449]}},{"type":"Feature","properties":{"id":3074,"title":"Missing Maps: Zimbabwe Malaria Elimination 158","status":"ARCHIVED","created":"2017","lastUpdated":"2017","lastActive":"no","area":846.6640858152538,"changesets":1709,"mappers":59,"roads":26.9455983576292,"buildings":23596,"edits":23875,"latest":"2017-08-10T12:51:57.000Z"},"geometry":{"type":"Point","coordinates":[28.9509563393453,-16.9217207283254]}},{"type":"Feature","properties":{"id":3082,"title":"Missing Maps: Zimbabwe Malaria Elimination 160","status":"ARCHIVED","created":"2017","lastUpdated":"2017","lastActive":"no","area":426.2719385345252,"changesets":1241,"mappers":27,"roads":20.7915485589691,"buildings":15329,"edits":15527,"latest":"2017-05-31T08:27:38.000Z"},"geometry":{"type":"Point","coordinates":[29.8779383999682,-16.5094264794751]}},{"type":"Feature","properties":{"id":3092,"title":"Missing Maps: Zimbabwe Malaria Elimination 166","status":"ARCHIVED","created":"2017","lastUpdated":"2017","lastActive":"no","area":966.3995823281248,"changesets":1518,"mappers":53,"roads":1.25990060621435,"buildings":16810,"edits":16852,"latest":"2017-09-26T08:44:28.000Z"},"geometry":{"type":"Point","coordinates":[30.0558807950539,-16.7394808762193]}},{"type":"Feature","properties":{"id":3140,"title":"Missing Maps: Zimbabwe Malaria Elimination 187","status":"ARCHIVED","created":"2017","lastUpdated":"2017","lastActive":"no","area":937.2590776788466,"changesets":1586,"mappers":91,"roads":90.3014109310841,"buildings":15404,"edits":16226,"latest":"2017-06-11T01:17:15.000Z"},"geometry":{"type":"Point","coordinates":[30.5207663209278,-17.7013198529834]}},{"type":"Feature","properties":{"id":3107,"title":"Missing Maps: Zimbabwe Malaria Elimination 169","status":"ARCHIVED","created":"2017","lastUpdated":"2017","lastActive":"no","area":443.16012255776786,"changesets":1150,"mappers":24,"roads":0.0391507357625444,"buildings":16766,"edits":16814,"latest":"2017-05-31T13:18:58.000Z"},"geometry":{"type":"Point","coordinates":[29.3137196050391,-17.0302942814524]}},{"type":"Feature","properties":{"id":3125,"title":"Missing Maps: Zimbabwe Malaria Elimination 180","status":"ARCHIVED","created":"2017","lastUpdated":"2017","lastActive":"no","area":915.8677064310008,"changesets":1213,"mappers":22,"roads":1.20535631330813,"buildings":23100,"edits":23148,"latest":"2017-08-13T14:55:02.000Z"},"geometry":{"type":"Point","coordinates":[29.9664359926279,-17.4272110054248]}},{"type":"Feature","properties":{"id":3155,"title":"Missing Maps: Zimbabwe Malaria Elimination 191","status":"ARCHIVED","created":"2017","lastUpdated":"2017","lastActive":"no","area":964.2729539737234,"changesets":1510,"mappers":59,"roads":150.065367623053,"buildings":16180,"edits":16516,"latest":"2017-08-12T19:49:32.000Z"},"geometry":{"type":"Point","coordinates":[29.9504400616746,-17.972561015247]}},{"type":"Feature","properties":{"id":3130,"title":"Missing Maps: Zimbabwe Malaria Elimination 183","status":"ARCHIVED","created":"2017","lastUpdated":"2017","lastActive":"no","area":992.522657083943,"changesets":1340,"mappers":21,"roads":0.0389479538495962,"buildings":14675,"edits":14679,"latest":"2017-06-07T18:17:03.000Z"},"geometry":{"type":"Point","coordinates":[29.9090212806279,-17.7018306176114]}},{"type":"Feature","properties":{"id":3131,"title":"Missing Maps: Zimbabwe Malaria Elimination 184","status":"ARCHIVED","created":"2017","lastUpdated":"2017","lastActive":"no","area":490.2411132356081,"changesets":1949,"mappers":87,"roads":33.4056516437662,"buildings":17317,"edits":17625,"latest":"2017-06-14T18:33:33.000Z"},"geometry":{"type":"Point","coordinates":[30.088842103874,-17.6987363647752]}},{"type":"Feature","properties":{"id":3111,"title":"Missing Maps: Zimbabwe Malaria Elimination 171","status":"ARCHIVED","created":"2017","lastUpdated":"2017","lastActive":"no","area":1190.1669798875268,"changesets":1595,"mappers":36,"roads":11.7322879915586,"buildings":22240,"edits":22286,"latest":"2017-07-14T11:30:37.000Z"},"geometry":{"type":"Point","coordinates":[29.9113257369465,-17.0079121058246]}},{"type":"Feature","properties":{"id":2824,"title":"Missing Maps: Zimbabwe Malaria Elimination 42","status":"ARCHIVED","created":"2017","lastUpdated":"2017","lastActive":"no","area":51.82553130274262,"changesets":948,"mappers":58,"roads":8.20395216358484,"buildings":8169,"edits":8277,"latest":"2017-07-22T10:44:20.000Z"},"geometry":{"type":"Point","coordinates":[27.5038317782123,-18.239288526091]}},{"type":"Feature","properties":{"id":2713,"title":"Missing Maps: Zimbabwe Malaria Elimination 1","status":"ARCHIVED","created":"2017","lastUpdated":"2017","lastActive":"no","area":52.64943776315335,"changesets":3987,"mappers":82,"roads":211.669166556027,"buildings":61016,"edits":61840,"latest":"2017-08-08T06:21:22.000Z"},"geometry":{"type":"Point","coordinates":[25.8237251091071,-17.975146555194]}},{"type":"Feature","properties":{"id":2733,"title":"Missing Maps: Zimbabwe Malaria Elimination 6","status":"ARCHIVED","created":"2017","lastUpdated":"2017","lastActive":"no","area":44.557123688183076,"changesets":501,"mappers":33,"roads":44.2955303821529,"buildings":6123,"edits":6285,"latest":"2017-08-06T12:45:00.000Z"},"geometry":{"type":"Point","coordinates":[26.6248715109116,-18.3535843510078]}},{"type":"Feature","properties":{"id":2740,"title":"Missing Maps: Zimbabwe Malaria Elimination 8","status":"ARCHIVED","created":"2017","lastUpdated":"2017","lastActive":"no","area":53.976540311217235,"changesets":852,"mappers":55,"roads":40.8068893936693,"buildings":6356,"edits":6604,"latest":"2017-08-07T20:20:44.000Z"},"geometry":{"type":"Point","coordinates":[26.9619813827096,-18.4768455596947]}},{"type":"Feature","properties":{"id":2715,"title":"Missing Maps: Zimbabwe Malaria Elimination 3","status":"ARCHIVED","created":"2017","lastUpdated":"2017","lastActive":"no","area":43.36078770248983,"changesets":881,"mappers":29,"roads":0.0258635815165595,"buildings":10848,"edits":10864,"latest":"2017-04-21T18:27:19.000Z"},"geometry":{"type":"Point","coordinates":[26.0679375361601,-18.0655482265388]}},{"type":"Feature","properties":{"id":2758,"title":"Missing Maps: Zimbabwe Malaria Elimination 9","status":"ARCHIVED","created":"2017","lastUpdated":"2017","lastActive":"no","area":45.82807193453851,"changesets":900,"mappers":41,"roads":19.0038743691646,"buildings":9055,"edits":9101,"latest":"2017-04-25T05:41:50.000Z"},"geometry":{"type":"Point","coordinates":[27.1797077255989,-18.5842296424011]}},{"type":"Feature","properties":{"id":2767,"title":"Missing Maps: Zimbabwe Malaria Elimination 12","status":"ARCHIVED","created":"2017","lastUpdated":"2017","lastActive":"no","area":52.46287755513232,"changesets":1845,"mappers":23,"roads":25.1280726620968,"buildings":13388,"edits":13454,"latest":"2017-06-05T05:24:05.000Z"},"geometry":{"type":"Point","coordinates":[27.5547130959351,-18.7362558441293]}},{"type":"Feature","properties":{"id":2286,"title":"Missing Maps: Mwezeni District, Zimbabwe (roads and settlements)","status":"PUBLISHED","created":"2016","lastUpdated":"2018","lastActive":"no","area":13275.258682859241,"changesets":4131,"mappers":371,"roads":12590.212089941,"buildings":12704,"edits":42335,"latest":"2018-12-05T12:09:09.000Z"},"geometry":{"type":"Point","coordinates":[30.6917474873179,-21.3654288722803]}},{"type":"Feature","properties":{"id":3114,"title":"Missing Maps: Zimbabwe Malaria Elimination 174","status":"ARCHIVED","created":"2017","lastUpdated":"2017","lastActive":"no","area":464.3670595776729,"changesets":1107,"mappers":19,"roads":0.121977359004775,"buildings":16773,"edits":16794,"latest":"2017-06-02T09:17:01.000Z"},"geometry":{"type":"Point","coordinates":[29.4309662406615,-17.1695322087636]}},{"type":"Feature","properties":{"id":2796,"title":"Missing Maps: Zimbabwe Malaria Elimination 25","status":"ARCHIVED","created":"2017","lastUpdated":"2017","lastActive":"no","area":45.85638042435993,"changesets":482,"mappers":33,"roads":1.22833834371314,"buildings":5227,"edits":5249,"latest":"2017-08-08T14:59:25.000Z"},"geometry":{"type":"Point","coordinates":[28.2540239676393,-18.9750709551126]}},{"type":"Feature","properties":{"id":2777,"title":"Missing Maps: Zimbabwe Malaria Elimination 14","status":"ARCHIVED","created":"2017","lastUpdated":"2017","lastActive":"no","area":55.1831291374278,"changesets":738,"mappers":43,"roads":9.83023570054232,"buildings":6035,"edits":6087,"latest":"2017-04-09T10:56:59.000Z"},"geometry":{"type":"Point","coordinates":[28.0905040818829,-19.2291901737157]}},{"type":"Feature","properties":{"id":2800,"title":"Missing Maps: Zimbabwe Malaria Elimination 29","status":"ARCHIVED","created":"2017","lastUpdated":"2017","lastActive":"no","area":46.47237344679929,"changesets":820,"mappers":22,"roads":0,"buildings":6164,"edits":6164,"latest":"2017-04-21T10:49:28.000Z"},"geometry":{"type":"Point","coordinates":[28.6552352432403,-18.888544992424]}},{"type":"Feature","properties":{"id":1901,"title":"Missing Maps: Saba Ward, Binga, Zimbabwe","status":"ARCHIVED","created":"2016","lastUpdated":"2017","lastActive":"no","area":383.1619835284508,"changesets":966,"mappers":70,"roads":780.222158409574,"buildings":3709,"edits":10432,"latest":"2016-06-21T17:25:00.000Z"},"geometry":{"type":"Point","coordinates":[27.1044725626404,-18.0597293992554]}},{"type":"Feature","properties":{"id":1670,"title":"Missing Maps: East Harare, Zimbabwe - Step 3 (Landuse/water)","status":"PUBLISHED","created":"2016","lastUpdated":"2018","lastActive":"no","area":93.59195553967234,"changesets":256,"mappers":37,"roads":123.636950855435,"buildings":529,"edits":1673,"latest":"2018-07-03T14:06:18.000Z"},"geometry":{"type":"Point","coordinates":[31.2254495959293,-17.8468300136206]}},{"type":"Feature","properties":{"id":2867,"title":"Missing Maps: Zimbabwe Malaria Elimination 75","status":"ARCHIVED","created":"2017","lastUpdated":"2017","lastActive":"no","area":740.6622618775401,"changesets":1683,"mappers":55,"roads":2.28046855795788,"buildings":12609,"edits":12635,"latest":"2017-04-28T00:03:07.000Z"},"geometry":{"type":"Point","coordinates":[28.7455847396214,-20.4801111932253]}},{"type":"Feature","properties":{"id":2847,"title":"Missing Maps: Zimbabwe Malaria Elimination 59","status":"ARCHIVED","created":"2017","lastUpdated":"2017","lastActive":"no","area":829.220245941652,"changesets":1963,"mappers":59,"roads":2.53297070449732,"buildings":23460,"edits":23544,"latest":"2017-04-30T22:21:05.000Z"},"geometry":{"type":"Point","coordinates":[27.6656707349427,-19.8497886574977]}},{"type":"Feature","properties":{"id":2828,"title":"Missing Maps: Zimbabwe Malaria Elimination 46","status":"ARCHIVED","created":"2017","lastUpdated":"2017","lastActive":"no","area":481.7779551930585,"changesets":914,"mappers":25,"roads":5.42857159978263,"buildings":9438,"edits":9442,"latest":"2017-04-16T21:09:16.000Z"},"geometry":{"type":"Point","coordinates":[27.277959630279,-19.8898886047823]}},{"type":"Feature","properties":{"id":2839,"title":"Missing Maps: Zimbabwe Malaria Elimination 54","status":"ARCHIVED","created":"2017","lastUpdated":"2017","lastActive":"no","area":815.85996589587,"changesets":1111,"mappers":33,"roads":3.93318396762469,"buildings":6601,"edits":6711,"latest":"2017-04-18T02:57:54.000Z"},"geometry":{"type":"Point","coordinates":[28.3379642994802,-18.9554518337328]}},{"type":"Feature","properties":{"id":2833,"title":"Missing Maps: Zimbabwe Malaria Elimination 50","status":"ARCHIVED","created":"2017","lastUpdated":"2017","lastActive":"no","area":962.7333121425393,"changesets":1536,"mappers":45,"roads":2.24032648920317,"buildings":10009,"edits":10053,"latest":"2017-04-20T08:33:54.000Z"},"geometry":{"type":"Point","coordinates":[27.7605133099368,-18.6522710514284]}},{"type":"Feature","properties":{"id":2853,"title":"Missing Maps: Zimbabwe Malaria Elimination 63","status":"ARCHIVED","created":"2017","lastUpdated":"2017","lastActive":"no","area":916.6075134002016,"changesets":1990,"mappers":63,"roads":4.03984666550672,"buildings":19449,"edits":19577,"latest":"2017-04-25T20:25:19.000Z"},"geometry":{"type":"Point","coordinates":[28.7789580707398,-20.0465723050696]}},{"type":"Feature","properties":{"id":2869,"title":"Missing Maps: Zimbabwe Malaria Elimination 77","status":"ARCHIVED","created":"2017","lastUpdated":"2017","lastActive":"no","area":1058.8975882422094,"changesets":1502,"mappers":51,"roads":0.00887618031487875,"buildings":10085,"edits":10099,"latest":"2017-08-20T11:52:13.000Z"},"geometry":{"type":"Point","coordinates":[28.6298970195823,-20.73053495796]}},{"type":"Feature","properties":{"id":2857,"title":"Missing Maps: Zimbabwe Malaria Elimination 67","status":"ARCHIVED","created":"2017","lastUpdated":"2017","lastActive":"no","area":687.2949974537985,"changesets":2094,"mappers":62,"roads":533.381866617391,"buildings":18094,"edits":18690,"latest":"2017-07-20T01:41:34.000Z"},"geometry":{"type":"Point","coordinates":[27.8373658434661,-20.6454672002378]}},{"type":"Feature","properties":{"id":2862,"title":"Missing Maps: Zimbabwe Malaria Elimination 71","status":"ARCHIVED","created":"2017","lastUpdated":"2017","lastActive":"no","area":1808.533577225679,"changesets":2045,"mappers":67,"roads":18.8668282308748,"buildings":23963,"edits":24132,"latest":"2017-07-25T14:24:02.000Z"},"geometry":{"type":"Point","coordinates":[29.2120512683079,-19.9256899887822]}},{"type":"Feature","properties":{"id":2845,"title":"Missing Maps: Zimbabwe Malaria Elimination 57","status":"ARCHIVED","created":"2017","lastUpdated":"2017","lastActive":"no","area":1252.3804758153187,"changesets":2141,"mappers":96,"roads":24.377626823065,"buildings":20046,"edits":20307,"latest":"2017-04-22T14:38:12.000Z"},"geometry":{"type":"Point","coordinates":[27.1953587216309,-19.568178812722]}},{"type":"Feature","properties":{"id":2822,"title":"Do Not Use, Replaced","status":"ARCHIVED","created":"2017","lastUpdated":"2017","lastActive":"no","area":31.829364067013838,"changesets":66,"mappers":4,"roads":5.36282874107658,"buildings":498,"edits":558,"latest":"2017-04-14T15:12:47.000Z"},"geometry":{"type":"Point","coordinates":[27.963676673531,-18.1915000434159]}},{"type":"Feature","properties":{"id":2826,"title":"Missing Maps: Zimbabwe Malaria Elimination 44","status":"ARCHIVED","created":"2017","lastUpdated":"2017","lastActive":"no","area":51.380981834550795,"changesets":578,"mappers":27,"roads":1.87456503928098,"buildings":4402,"edits":4433,"latest":"2017-08-01T10:49:28.000Z"},"geometry":{"type":"Point","coordinates":[27.7066372072242,-18.2654421778537]}},{"type":"Feature","properties":{"id":2802,"title":"Missing Maps: Zimbabwe Malaria Elimination 31","status":"ARCHIVED","created":"2017","lastUpdated":"2017","lastActive":"no","area":44.24206343560368,"changesets":822,"mappers":51,"roads":7.71612793662579,"buildings":9834,"edits":9936,"latest":"2017-04-13T22:29:00.000Z"},"geometry":{"type":"Point","coordinates":[28.0875686261313,-17.3224101956608]}},{"type":"Feature","properties":{"id":2781,"title":"Missing Maps: Zimbabwe Malaria Elimination 16","status":"ARCHIVED","created":"2017","lastUpdated":"2017","lastActive":"no","area":54.524228200349675,"changesets":655,"mappers":28,"roads":8.12802604316382,"buildings":8114,"edits":8140,"latest":"2017-05-07T19:27:38.000Z"},"geometry":{"type":"Point","coordinates":[28.1720460436227,-19.1659467860027]}},{"type":"Feature","properties":{"id":2798,"title":"Missing Maps: Zimbabwe Malaria Elimination 27","status":"ARCHIVED","created":"2017","lastUpdated":"2017","lastActive":"no","area":52.10723573815526,"changesets":809,"mappers":38,"roads":13.6033509127482,"buildings":10460,"edits":10519,"latest":"2017-08-16T06:42:56.000Z"},"geometry":{"type":"Point","coordinates":[28.871461901241,-18.9936531309858]}},{"type":"Feature","properties":{"id":2784,"title":"Missing Maps: Zimbabwe Malaria Elimination 17","status":"ARCHIVED","created":"2017","lastUpdated":"2017","lastActive":"no","area":45.12631020028363,"changesets":575,"mappers":22,"roads":4.92549359582094,"buildings":5083,"edits":5155,"latest":"2017-04-10T09:02:59.000Z"},"geometry":{"type":"Point","coordinates":[28.7781850714007,-19.2660494470956]}},{"type":"Feature","properties":{"id":1673,"title":"Missing Maps: Binga, Zimbabwe","status":"ARCHIVED","created":"2016","lastUpdated":"2017","lastActive":"no","area":9344.363560618078,"changesets":5225,"mappers":357,"roads":4686.15908138148,"buildings":37186,"edits":70736,"latest":"2017-04-25T03:45:53.000Z"},"geometry":{"type":"Point","coordinates":[27.7482693875358,-17.682082046419]}},{"type":"Feature","properties":{"id":2814,"title":"Missing Maps: Zimbabwe Malaria Elimination 38","status":"ARCHIVED","created":"2017","lastUpdated":"2017","lastActive":"no","area":42.40124102645142,"changesets":617,"mappers":18,"roads":0.889965735511969,"buildings":3984,"edits":4044,"latest":"2017-04-14T07:35:06.000Z"},"geometry":{"type":"Point","coordinates":[27.6185339725165,-18.0599988962223]}},{"type":"Feature","properties":{"id":2809,"title":"Missing Maps: Zimbabwe Malaria Elimination 36","status":"ARCHIVED","created":"2017","lastUpdated":"2017","lastActive":"no","area":45.3934103521741,"changesets":771,"mappers":47,"roads":0.0576499027470581,"buildings":7291,"edits":7461,"latest":"2017-04-16T07:38:15.000Z"},"geometry":{"type":"Point","coordinates":[27.2865359736849,-18.089567727614]}},{"type":"Feature","properties":{"id":766,"title":"Missing Maps: Harare","status":"ARCHIVED","created":"2014","lastUpdated":"2017","lastActive":"no","area":66.16353342571773,"changesets":0,"mappers":0,"roads":0,"buildings":0,"edits":0,"latest":null},"geometry":{"type":"Point","coordinates":[30.9558677643983,-17.8322506203324]}},{"type":"Feature","properties":{"id":3912,"title":"Road network Zimbabwe (4)","status":"ARCHIVED","created":"2017","lastUpdated":"2018","lastActive":"no","area":1677.6794478491497,"changesets":2085,"mappers":108,"roads":6862.01144656863,"buildings":4646,"edits":47550,"latest":"2018-06-11T12:52:10.000Z"},"geometry":{"type":"Point","coordinates":[31.662859106183,-19.6829027180726]}},{"type":"Feature","properties":{"id":1041,"title":"Mana Pools National Park","status":"PUBLISHED","created":"2015","lastUpdated":"2016","lastActive":"no","area":3529.1711488545197,"changesets":32,"mappers":2,"roads":82.3485720188739,"buildings":182,"edits":387,"latest":"2018-01-01T07:39:53.000Z"},"geometry":{"type":"Point","coordinates":[29.5515707124025,-15.9166126189793]}},{"type":"Feature","properties":{"id":3889,"title":"Road network Zimbabwe (1)","status":"ARCHIVED","created":"2017","lastUpdated":"2018","lastActive":"no","area":1245.9465836749403,"changesets":1196,"mappers":156,"roads":4457.27905970679,"buildings":728,"edits":25266,"latest":"2018-03-06T20:27:20.000Z"},"geometry":{"type":"Point","coordinates":[31.1223739425421,-19.5591192978281]}},{"type":"Feature","properties":{"id":2816,"title":"Missing Maps: Zimbabwe Malaria Elimination 40","status":"ARCHIVED","created":"2017","lastUpdated":"2017","lastActive":"no","area":51.4248306400692,"changesets":706,"mappers":39,"roads":0.19982778328813,"buildings":6980,"edits":7641,"latest":"2017-04-17T07:51:50.000Z"},"geometry":{"type":"Point","coordinates":[27.937381281095,-18.0801972687255]}},{"type":"Feature","properties":{"id":2812,"title":"Mistake Do Not Use","status":"ARCHIVED","created":"2017","lastUpdated":"2017","lastActive":"no","area":45.3934103521741,"changesets":0,"mappers":0,"roads":0,"buildings":0,"edits":0,"latest":null},"geometry":{"type":"Point","coordinates":[27.2865359736849,-18.089567727614]}},{"type":"Feature","properties":{"id":2804,"title":"Missing Maps: Zimbabwe Malaria Elimination 33","status":"ARCHIVED","created":"2017","lastUpdated":"2017","lastActive":"no","area":52.73428641057945,"changesets":856,"mappers":46,"roads":22.9513921247637,"buildings":4905,"edits":5747,"latest":"2017-04-20T02:44:20.000Z"},"geometry":{"type":"Point","coordinates":[27.4979620373617,-17.6628478532143]}},{"type":"Feature","properties":{"id":5521,"title":"Harare STI prevention: CHEIDZA project 1","status":"PUBLISHED","created":"2018","lastUpdated":"2018","lastActive":"yes","area":10.021200083164546,"changesets":737,"mappers":23,"roads":55.605372734895,"buildings":22978,"edits":24211,"latest":"2018-12-22T00:58:20.000Z"},"geometry":{"type":"Point","coordinates":[30.9975580340305,-17.937825347822]}},{"type":"Feature","properties":{"id":506,"title":"Harare, Zimbabwe (GWU Mapathon)","status":"ARCHIVED","created":"2014","lastUpdated":"2015","lastActive":"no","area":51.66353701728344,"changesets":0,"mappers":0,"roads":0,"buildings":0,"edits":0,"latest":null},"geometry":{"type":"Point","coordinates":[31.0555926597735,-17.8190302780837]}}],"Chad":[{"type":"Feature","properties":{"id":3941,"title":"Mapping for mine-clearing for Handicap International in Chad","status":"ARCHIVED","created":"2017","lastUpdated":"2018","lastActive":"no","area":237.73599778829367,"changesets":1911,"mappers":75,"roads":148.149356988023,"buildings":10997,"edits":11785,"latest":"2018-08-23T09:58:13.000Z"},"geometry":{"type":"Point","coordinates":[18.7594254409711,17.9963974499912]}},{"type":"Feature","properties":{"id":771,"title":"Untitled project","status":"PUBLISHED","created":"2014","lastUpdated":"2017","lastActive":"no","area":10.610181118755149,"changesets":0,"mappers":0,"roads":0,"buildings":0,"edits":0,"latest":null},"geometry":{"type":"Point","coordinates":[16.4911865871927,13.6455546527846]}},{"type":"Feature","properties":{"id":166,"title":"Eurosha Chad, N'Djamena, Sabangali, travail sur le terrain","status":"PUBLISHED","created":"2013","lastUpdated":"2015","lastActive":"no","area":1.5836669384393804,"changesets":439,"mappers":29,"roads":137.352005957885,"buildings":27946,"edits":34679,"latest":"2018-12-07T07:52:41.000Z"},"geometry":{"type":"Point","coordinates":[15.0601553735323,12.0942988627664]}},{"type":"Feature","properties":{"id":4199,"title":"Lake Chad Region","status":"ARCHIVED","created":"2018","lastUpdated":"2018","lastActive":"no","area":9277.85681376314,"changesets":3137,"mappers":488,"roads":1609.04895288625,"buildings":59405,"edits":63643,"latest":"2018-12-04T23:06:03.000Z"},"geometry":{"type":"Point","coordinates":[14.3260552617894,13.4265457896431]}},{"type":"Feature","properties":{"id":2015,"title":"Missing Maps: Hadjer Lamis villages, Chad (buildings and residential road networks)","status":"ARCHIVED","created":"2016","lastUpdated":"2016","lastActive":"no","area":5.817702907701794,"changesets":500,"mappers":48,"roads":2929.30336506175,"buildings":8875,"edits":15782,"latest":"2016-11-16T17:36:55.000Z"},"geometry":{"type":"Point","coordinates":[16.6070750752654,12.4940845608571]}},{"type":"Feature","properties":{"id":925,"title":"Missing Maps: Moissala, Chad","status":"ARCHIVED","created":"2015","lastUpdated":"2015","lastActive":"no","area":2914.524814812069,"changesets":30,"mappers":5,"roads":277.904769306328,"buildings":17,"edits":253,"latest":"2016-12-13T12:07:40.000Z"},"geometry":{"type":"Point","coordinates":[17.9675922771924,8.26293166286619]}},{"type":"Feature","properties":{"id":772,"title":"Untitled project","status":"PUBLISHED","created":"2014","lastUpdated":"2018","lastActive":"no","area":29.790459340151454,"changesets":0,"mappers":0,"roads":0,"buildings":0,"edits":0,"latest":null},"geometry":{"type":"Point","coordinates":[15.7969489035237,9.31171170585642]}},{"type":"Feature","properties":{"id":1879,"title":"Missing Maps: Hadjer Lamis, Chad (Task 3 - residential areas and buildings)","status":"PUBLISHED","created":"2016","lastUpdated":"2018","lastActive":"no","area":1569.1477746266557,"changesets":1418,"mappers":198,"roads":735.882858968056,"buildings":11727,"edits":13213,"latest":"2016-11-23T10:39:52.000Z"},"geometry":{"type":"Point","coordinates":[16.9748136570323,12.7129348040636]}},{"type":"Feature","properties":{"id":924,"title":"PLEASE DELETE - SQUARES TOO BIG!","status":"ARCHIVED","created":"2015","lastUpdated":"2015","lastActive":"no","area":2914.524814812069,"changesets":0,"mappers":0,"roads":0,"buildings":0,"edits":0,"latest":null},"geometry":{"type":"Point","coordinates":[17.9675922771924,8.26293166286619]}},{"type":"Feature","properties":{"id":770,"title":"Untitled project","status":"PUBLISHED","created":"2014","lastUpdated":"2018","lastActive":"no","area":35.82529217699998,"changesets":0,"mappers":0,"roads":0,"buildings":0,"edits":0,"latest":null},"geometry":{"type":"Point","coordinates":[22.1932524280984,13.455683250092]}},{"type":"Feature","properties":{"id":1354,"title":"Lake Chad - NE Nigeria Crisis","status":"ARCHIVED","created":"2015","lastUpdated":"2016","lastActive":"no","area":29496.817061769463,"changesets":88,"mappers":12,"roads":450.976563365175,"buildings":157,"edits":605,"latest":"2016-12-29T14:36:38.000Z"},"geometry":{"type":"Point","coordinates":[14.1169406511814,13.5330241997285]}},{"type":"Feature","properties":{"id":5362,"title":"Missing Maps: Chad, Moissala (part 1: Beboro)","status":"PUBLISHED","created":"2018","lastUpdated":"2018","lastActive":"no","area":12.848637099762149,"changesets":527,"mappers":96,"roads":112.805803919961,"buildings":11447,"edits":12471,"latest":"2018-12-19T02:03:34.000Z"},"geometry":{"type":"Point","coordinates":[17.6917335812731,8.57754029308444]}},{"type":"Feature","properties":{"id":2307,"title":"Missing Maps: Hadjer Lamis, Chad (Task 5 - residential areas and buildings)","status":"PUBLISHED","created":"2016","lastUpdated":"2018","lastActive":"no","area":1595.3383421542803,"changesets":2176,"mappers":150,"roads":179.013041197971,"buildings":7931,"edits":8558,"latest":"2016-12-22T19:57:17.000Z"},"geometry":{"type":"Point","coordinates":[16.6744365001661,12.7949426223825]}},{"type":"Feature","properties":{"id":5366,"title":"Missing Maps: Chad, Moissala (part 2: Dembo)","status":"PUBLISHED","created":"2018","lastUpdated":"2018","lastActive":"no","area":9.071317307796765,"changesets":510,"mappers":109,"roads":80.8045594046518,"buildings":9045,"edits":9555,"latest":"2018-12-18T15:22:30.000Z"},"geometry":{"type":"Point","coordinates":[17.8173184189204,8.18323055515136]}},{"type":"Feature","properties":{"id":5178,"title":"Missing Maps: Residential areas in Moissala, Chad (2)","status":"PUBLISHED","created":"2018","lastUpdated":"2018","lastActive":"no","area":119.18146383567192,"changesets":351,"mappers":109,"roads":304.494002155823,"buildings":2336,"edits":2869,"latest":"2018-11-22T14:51:06.000Z"},"geometry":{"type":"Point","coordinates":[17.4658674340618,8.28219282860165]}},{"type":"Feature","properties":{"id":521,"title":"Chad Southern Borders: location names from NGA-GNS","status":"PUBLISHED","created":"2014","lastUpdated":"2018","lastActive":"no","area":305439.2050940806,"changesets":0,"mappers":0,"roads":0,"buildings":0,"edits":0,"latest":null},"geometry":{"type":"Point","coordinates":[19.9130856521325,9.14892325404925]}},{"type":"Feature","properties":{"id":408,"title":"Abeche (Tchad)","status":"PUBLISHED","created":"2014","lastUpdated":"2017","lastActive":"no","area":35.85209429131716,"changesets":165,"mappers":1,"roads":69.0260503588322,"buildings":19176,"edits":21715,"latest":"2017-08-19T10:36:20.000Z"},"geometry":{"type":"Point","coordinates":[20.8322433505929,13.8276267524644]}},{"type":"Feature","properties":{"id":394,"title":"Moundou centre (Tchad)","status":"PUBLISHED","created":"2013","lastUpdated":"2015","lastActive":"no","area":8.163574928865069,"changesets":0,"mappers":0,"roads":0,"buildings":0,"edits":0,"latest":null},"geometry":{"type":"Point","coordinates":[16.0800282295895,8.56886703806914]}},{"type":"Feature","properties":{"id":372,"title":"Tchad, Sarh","status":"PUBLISHED","created":"2013","lastUpdated":"2015","lastActive":"no","area":30.300927795340233,"changesets":0,"mappers":0,"roads":0,"buildings":0,"edits":0,"latest":null},"geometry":{"type":"Point","coordinates":[18.3879100535996,9.13880420170371]}},{"type":"Feature","properties":{"id":101,"title":"Eurosha Southern Chad, Amboko and Gondje camps and outskirts ","status":"PUBLISHED","created":"2012","lastUpdated":"2015","lastActive":"no","area":192.7188962749428,"changesets":495,"mappers":39,"roads":324.194114735616,"buildings":34,"edits":1480,"latest":"2018-10-05T10:40:28.000Z"},"geometry":{"type":"Point","coordinates":[16.5795230979395,7.94805714870361]}},{"type":"Feature","properties":{"id":161,"title":"Eurosha Chad, Maro: mapping roads and buildings","status":"PUBLISHED","created":"2013","lastUpdated":"2015","lastActive":"no","area":333.5494011931731,"changesets":783,"mappers":83,"roads":312.836051264439,"buildings":53799,"edits":56579,"latest":"2018-10-18T15:03:38.000Z"},"geometry":{"type":"Point","coordinates":[18.7779075683371,8.4169852814643]}},{"type":"Feature","properties":{"id":163,"title":"Eurosha Chad, N'Djamena, Sabangali, cartographie  distance","status":"PUBLISHED","created":"2013","lastUpdated":"2017","lastActive":"no","area":1.5945349784724938,"changesets":196,"mappers":17,"roads":613.698032888293,"buildings":8355,"edits":11557,"latest":"2018-08-15T06:45:33.000Z"},"geometry":{"type":"Point","coordinates":[15.060241119821,12.0941883283578]}},{"type":"Feature","properties":{"id":157,"title":"Eurosha Chad, Doba: mapping roads and buidlings","status":"PUBLISHED","created":"2013","lastUpdated":"2017","lastActive":"no","area":77.58413458043995,"changesets":482,"mappers":30,"roads":33.764764224325,"buildings":67532,"edits":70222,"latest":"2018-11-02T04:26:34.000Z"},"geometry":{"type":"Point","coordinates":[16.8527525338501,8.67678765942999]}},{"type":"Feature","properties":{"id":182,"title":"Cartopartie au Centre National D'appui  la Recherche (CNAR) ","status":"PUBLISHED","created":"2013","lastUpdated":"2014","lastActive":"no","area":0.23611033208695512,"changesets":10,"mappers":1,"roads":5.03559569430326,"buildings":0,"edits":349,"latest":"2017-02-17T17:58:34.000Z"},"geometry":{"type":"Point","coordinates":[15.0348234386193,12.1231891680602]}},{"type":"Feature","properties":{"id":216,"title":"EUROSHA TCHAD MONGO","status":"PUBLISHED","created":"2013","lastUpdated":"2014","lastActive":"no","area":20.011164825142863,"changesets":102,"mappers":2,"roads":22.9830823914315,"buildings":759,"edits":979,"latest":"2018-05-05T03:39:13.000Z"},"geometry":{"type":"Point","coordinates":[18.68852067645,12.1850277079153]}}],"Bangladesh":[{"type":"Feature","properties":{"id":3676,"title":"Missing Maps: Kurigram, Bangladesh 2","status":"PUBLISHED","created":"2017","lastUpdated":"2018","lastActive":"no","area":829.0799917696243,"changesets":4968,"mappers":330,"roads":2265.51294775805,"buildings":101160,"edits":115098,"latest":"2018-12-01T14:48:20.000Z"},"geometry":{"type":"Point","coordinates":[89.691792930978,26.0022392334667]}},{"type":"Feature","properties":{"id":1186,"title":"Gandaria, Dhaka, Bangladesh","status":"ARCHIVED","created":"2015","lastUpdated":"2016","lastActive":"no","area":12.929189077024681,"changesets":1836,"mappers":22,"roads":16.1306031406695,"buildings":1570,"edits":3295,"latest":"2016-03-12T03:44:37.000Z"},"geometry":{"type":"Point","coordinates":[90.4252406437414,23.7030670404877]}},{"type":"Feature","properties":{"id":1063,"title":"Gandaria, Dhaka","status":"ARCHIVED","created":"2015","lastUpdated":"2015","lastActive":"no","area":10.661015232397972,"changesets":0,"mappers":0,"roads":0,"buildings":0,"edits":0,"latest":null},"geometry":{"type":"Point","coordinates":[90.424087196085,23.70418187235]}},{"type":"Feature","properties":{"id":4145,"title":"Bangladesh Refugee Crisis - Kutupalong camp shelters (new area 14)","status":"ARCHIVED","created":"2018","lastUpdated":"2018","lastActive":"no","area":0.6770310679773668,"changesets":478,"mappers":56,"roads":4.79389392618713,"buildings":11076,"edits":11710,"latest":"2018-02-21T02:42:17.000Z"},"geometry":{"type":"Point","coordinates":[92.1561954122302,21.1903851920751]}},{"type":"Feature","properties":{"id":4137,"title":"Bangladesh Refugee Crisis - Kutupalong camp shelters (new area 12)","status":"ARCHIVED","created":"2018","lastUpdated":"2018","lastActive":"no","area":1.3116723369043854,"changesets":585,"mappers":55,"roads":4.1022575970082,"buildings":10000,"edits":11128,"latest":"2018-02-04T09:36:52.000Z"},"geometry":{"type":"Point","coordinates":[92.1473765782023,21.1902776747792]}},{"type":"Feature","properties":{"id":4196,"title":"Bangladesh Refugee Crisis - Kutupalong camp shelters (new area 16)","status":"ARCHIVED","created":"2018","lastUpdated":"2018","lastActive":"no","area":0.7464430169477224,"changesets":440,"mappers":52,"roads":5.55095267577989,"buildings":3293,"edits":3607,"latest":"2018-02-23T20:45:26.000Z"},"geometry":{"type":"Point","coordinates":[92.142771220254,21.2026621791434]}},{"type":"Feature","properties":{"id":4200,"title":"Bangladesh Refugee Crisis - Kutupalong camp shelters (new area 17)","status":"ARCHIVED","created":"2018","lastUpdated":"2018","lastActive":"no","area":0.2739405073645721,"changesets":105,"mappers":30,"roads":7.83174031794166,"buildings":1280,"edits":1494,"latest":"2018-02-26T10:55:13.000Z"},"geometry":{"type":"Point","coordinates":[92.1503377538941,21.1961051271021]}},{"type":"Feature","properties":{"id":379,"title":"Mapping in Jamalpur City, Jamalpur District, Bangladesh - SA activities","status":"PUBLISHED","created":"2013","lastUpdated":"2017","lastActive":"no","area":11.305254865523564,"changesets":0,"mappers":0,"roads":0,"buildings":0,"edits":0,"latest":null},"geometry":{"type":"Point","coordinates":[89.9456457469483,24.9206035422861]}},{"type":"Feature","properties":{"id":4003,"title":"Bangladesh Refugee Crisis - Kutupalong camp shelters (update 1)","status":"ARCHIVED","created":"2018","lastUpdated":"2018","lastActive":"no","area":0.560551829908655,"changesets":638,"mappers":39,"roads":5.37360285596247,"buildings":5769,"edits":6443,"latest":"2018-01-17T21:55:57.000Z"},"geometry":{"type":"Point","coordinates":[92.1650902627661,21.2118115897629]}},{"type":"Feature","properties":{"id":3635,"title":"Bangladesh Floods: Birganj, Dinajpur","status":"ARCHIVED","created":"2017","lastUpdated":"2017","lastActive":"no","area":411.4458972479278,"changesets":1670,"mappers":115,"roads":2364.87154651896,"buildings":1289,"edits":16806,"latest":"2017-11-23T17:28:44.000Z"},"geometry":{"type":"Point","coordinates":[88.6260635863027,25.9293342334293]}},{"type":"Feature","properties":{"id":3672,"title":"Missing Maps: Kurigram, Bangladesh 3","status":"PUBLISHED","created":"2017","lastUpdated":"2018","lastActive":"no","area":556.4887451906692,"changesets":2197,"mappers":118,"roads":1149.57400028338,"buildings":122342,"edits":127132,"latest":"2018-05-31T05:51:33.000Z"},"geometry":{"type":"Point","coordinates":[89.7679617942303,25.5488366434994]}},{"type":"Feature","properties":{"id":1093,"title":"Missing Maps: Durgapur Upazila, Bangladesh (a Y Care Int DRR & Health Project)","status":"ARCHIVED","created":"2015","lastUpdated":"2015","lastActive":"no","area":194.38095483799592,"changesets":551,"mappers":30,"roads":253.66175562413,"buildings":314,"edits":1888,"latest":"2015-09-09T05:35:00.000Z"},"geometry":{"type":"Point","coordinates":[90.6737194443905,25.0866424174674]}},{"type":"Feature","properties":{"id":4609,"title":"Bangladesh Refugee Crisis camp mapping - Shamlapur camp","status":"ARCHIVED","created":"2018","lastUpdated":"2018","lastActive":"no","area":10.655696364982774,"changesets":255,"mappers":24,"roads":16.5129615330417,"buildings":5320,"edits":5725,"latest":"2018-07-10T20:18:41.000Z"},"geometry":{"type":"Point","coordinates":[92.1436713031273,21.07621360468]}},{"type":"Feature","properties":{"id":3544,"title":"Bangladesh Floods: Nawabgonj, Dinajpur","status":"ARCHIVED","created":"2017","lastUpdated":"2017","lastActive":"no","area":317.83190896477026,"changesets":824,"mappers":105,"roads":1919.91884732739,"buildings":1015,"edits":15331,"latest":"2017-09-14T11:25:22.000Z"},"geometry":{"type":"Point","coordinates":[89.0901860852451,25.4199718715204]}},{"type":"Feature","properties":{"id":3636,"title":"Bangladesh Floods: Birampur, Dinajpur","status":"ARCHIVED","created":"2017","lastUpdated":"2017","lastActive":"no","area":214.00709510313644,"changesets":1025,"mappers":79,"roads":1085.94805721375,"buildings":1332,"edits":14801,"latest":"2018-01-03T00:04:00.000Z"},"geometry":{"type":"Point","coordinates":[88.9633234339553,25.3798285622054]}},{"type":"Feature","properties":{"id":4578,"title":"Bangladesh Refugee Crisis - Teknaf camp shelters (new area 20)","status":"ARCHIVED","created":"2018","lastUpdated":"2018","lastActive":"no","area":1.7077918888633548,"changesets":360,"mappers":21,"roads":16.5980527629591,"buildings":5289,"edits":5748,"latest":"2018-06-03T21:25:53.000Z"},"geometry":{"type":"Point","coordinates":[92.2602092870735,20.9381257997458]}},{"type":"Feature","properties":{"id":4473,"title":"Bangladesh Refugee Crisis - Kutupalong camp shelters (new area 18)","status":"ARCHIVED","created":"2018","lastUpdated":"2018","lastActive":"no","area":2.007783828831955,"changesets":622,"mappers":91,"roads":28.4368366133859,"buildings":6510,"edits":8396,"latest":"2018-05-27T17:52:35.000Z"},"geometry":{"type":"Point","coordinates":[92.1420695382031,21.1932191290579]}},{"type":"Feature","properties":{"id":4006,"title":"Bangladesh Refugee Crisis - Kutupalong camp roads (global update)","status":"ARCHIVED","created":"2018","lastUpdated":"2018","lastActive":"no","area":37.58708302411728,"changesets":1462,"mappers":88,"roads":855.744077342016,"buildings":15897,"edits":56880,"latest":"2018-01-31T15:39:32.000Z"},"geometry":{"type":"Point","coordinates":[92.1512344720882,21.1911921601746]}},{"type":"Feature","properties":{"id":4143,"title":"Bangladesh Refugee Crisis - Kutupalong camp shelters (new area 13)","status":"ARCHIVED","created":"2018","lastUpdated":"2018","lastActive":"no","area":0.43804531230520205,"changesets":299,"mappers":37,"roads":3.29874808660354,"buildings":5835,"edits":6433,"latest":"2018-02-05T03:53:17.000Z"},"geometry":{"type":"Point","coordinates":[92.1628945486189,21.2069335354152]}},{"type":"Feature","properties":{"id":4030,"title":"Bangladesh Refugee Crisis - Kutupalong camp shelters (area 2)","status":"ARCHIVED","created":"2018","lastUpdated":"2018","lastActive":"no","area":0.2723513470762284,"changesets":500,"mappers":50,"roads":10.7746943143898,"buildings":4248,"edits":4380,"latest":"2018-01-17T20:58:43.000Z"},"geometry":{"type":"Point","coordinates":[92.1526544026047,21.208510937612]}},{"type":"Feature","properties":{"id":4117,"title":"Bangladesh Refugee Crisis - Kutupalong camp shelters (new area 11)","status":"ARCHIVED","created":"2018","lastUpdated":"2018","lastActive":"no","area":0.7890758538219015,"changesets":555,"mappers":66,"roads":2.88641338019215,"buildings":6688,"edits":7640,"latest":"2018-02-03T15:57:22.000Z"},"geometry":{"type":"Point","coordinates":[92.1682255424455,21.2040223577882]}},{"type":"Feature","properties":{"id":4040,"title":"Bangladesh Refugee Crisis - Kutupalong camp shelters (new area 4)","status":"ARCHIVED","created":"2018","lastUpdated":"2018","lastActive":"no","area":0.6259929529305098,"changesets":430,"mappers":52,"roads":1.88416159791042,"buildings":9476,"edits":9830,"latest":"2018-01-24T09:33:40.000Z"},"geometry":{"type":"Point","coordinates":[92.1554038558946,21.205509142876]}},{"type":"Feature","properties":{"id":4146,"title":"Bangladesh Refugee Crisis - Kutupalong camp shelters (new area 15)","status":"ARCHIVED","created":"2018","lastUpdated":"2018","lastActive":"no","area":1.1711380424532771,"changesets":828,"mappers":98,"roads":11.4060399496943,"buildings":9940,"edits":10857,"latest":"2018-02-13T14:03:16.000Z"},"geometry":{"type":"Point","coordinates":[92.1643718910906,21.1924972954646]}},{"type":"Feature","properties":{"id":4081,"title":"Bangladesh Refugee Crisis - Kutupalong camp shelters (new area 9)","status":"ARCHIVED","created":"2018","lastUpdated":"2018","lastActive":"no","area":0.7507063738047272,"changesets":875,"mappers":60,"roads":6.8634771237288,"buildings":9550,"edits":10993,"latest":"2018-01-30T15:55:37.000Z"},"geometry":{"type":"Point","coordinates":[92.1598023596382,21.2001267152425]}},{"type":"Feature","properties":{"id":3554,"title":"Bangladesh Floods: Hakimpur, Dinajpur","status":"ARCHIVED","created":"2017","lastUpdated":"2017","lastActive":"no","area":101.5610777608057,"changesets":667,"mappers":93,"roads":771.648143961837,"buildings":1068,"edits":9746,"latest":"2018-01-19T05:35:51.000Z"},"geometry":{"type":"Point","coordinates":[89.0595911888746,25.2923414577371]}},{"type":"Feature","properties":{"id":4063,"title":"Bangladesh Refugee Crisis - Kutupalong camp shelters (new area 6)","status":"ARCHIVED","created":"2018","lastUpdated":"2018","lastActive":"no","area":0.6557090054624053,"changesets":663,"mappers":45,"roads":2.84719413861605,"buildings":3972,"edits":4289,"latest":"2018-01-25T11:10:53.000Z"},"geometry":{"type":"Point","coordinates":[92.1473609876732,21.201114668552]}},{"type":"Feature","properties":{"id":4067,"title":"Bangladesh Refugee Crisis - Kutupalong camp shelters (new area 8)","status":"ARCHIVED","created":"2018","lastUpdated":"2018","lastActive":"no","area":1.8199746017972194,"changesets":771,"mappers":81,"roads":12.2703185613898,"buildings":11463,"edits":12641,"latest":"2018-01-27T16:19:38.000Z"},"geometry":{"type":"Point","coordinates":[92.1410262715345,21.1807598113435]}},{"type":"Feature","properties":{"id":3730,"title":"Bangladesh Population Movement - Kutupalong camp and surrounding settlements","status":"ARCHIVED","created":"2017","lastUpdated":"2018","lastActive":"no","area":16.438765314744483,"changesets":2307,"mappers":235,"roads":245.627656963081,"buildings":55037,"edits":64568,"latest":"2017-11-28T07:56:59.000Z"},"geometry":{"type":"Point","coordinates":[92.1537221740418,21.1930919498782]}},{"type":"Feature","properties":{"id":3580,"title":"Bangladesh Floods: Ghoraghat, Dinajpur","status":"ARCHIVED","created":"2017","lastUpdated":"2017","lastActive":"no","area":151.14083195125795,"changesets":916,"mappers":71,"roads":716.853596077043,"buildings":780,"edits":8986,"latest":"2017-09-20T11:39:52.000Z"},"geometry":{"type":"Point","coordinates":[89.2142113441278,25.2864946936718]}},{"type":"Feature","properties":{"id":3854,"title":"Bangladesh Population Movement - Kutupalong camp and surrounding settlements","status":"ARCHIVED","created":"2017","lastUpdated":"2018","lastActive":"no","area":1.5851833211456114,"changesets":426,"mappers":61,"roads":15.7049207848477,"buildings":6563,"edits":7079,"latest":"2017-12-04T05:39:49.000Z"},"geometry":{"type":"Point","coordinates":[92.1548454994368,21.2012082033631]}},{"type":"Feature","properties":{"id":5252,"title":"Bangladesh Refugee Crisis camp mapping - Update (3)","status":"ARCHIVED","created":"2018","lastUpdated":"2018","lastActive":"no","area":0.012926602231904005,"changesets":14,"mappers":3,"roads":2.80921812093854,"buildings":357,"edits":426,"latest":"2018-09-26T11:01:06.000Z"},"geometry":{"type":"Point","coordinates":[92.1638024899217,21.2076188045245]}},{"type":"Feature","properties":{"id":973,"title":"Dhalla and Jamitra Unions, Bangladesh","status":"PUBLISHED","created":"2015","lastUpdated":"2017","lastActive":"no","area":46.39385404526128,"changesets":1060,"mappers":11,"roads":58.0695797919128,"buildings":593,"edits":1015,"latest":"2016-08-06T16:34:50.000Z"},"geometry":{"type":"Point","coordinates":[90.2141850274716,23.7983079424083]}},{"type":"Feature","properties":{"id":4797,"title":"Bangladesh Refugee Crisis camp mapping - NW of megacamp 2 Update","status":"ARCHIVED","created":"2018","lastUpdated":"2018","lastActive":"no","area":0.22455568991710326,"changesets":338,"mappers":36,"roads":18.9723021238568,"buildings":1545,"edits":2749,"latest":"2018-07-03T14:31:24.000Z"},"geometry":{"type":"Point","coordinates":[92.1421345434211,21.2064290590785]}},{"type":"Feature","properties":{"id":830,"title":"TEST - PLEASE DELETE","status":"ARCHIVED","created":"2015","lastUpdated":"2015","lastActive":"no","area":5.285380020613458,"changesets":0,"mappers":0,"roads":0,"buildings":0,"edits":0,"latest":null},"geometry":{"type":"Point","coordinates":[90.3678377901422,23.7207993455729]}},{"type":"Feature","properties":{"id":935,"title":"Khulna Southeast - TTU & USAID Mapping Exercise","status":"ARCHIVED","created":"2015","lastUpdated":"2016","lastActive":"no","area":300.92607525702783,"changesets":592,"mappers":57,"roads":89.4976664874804,"buildings":1854,"edits":2575,"latest":"2016-11-26T10:38:23.000Z"},"geometry":{"type":"Point","coordinates":[89.7152833216934,22.5842498336721]}},{"type":"Feature","properties":{"id":828,"title":"TEST - PLEASE DELETE","status":"ARCHIVED","created":"2014","lastUpdated":"2014","lastActive":"no","area":17.803158894780722,"changesets":0,"mappers":0,"roads":0,"buildings":0,"edits":0,"latest":null},"geometry":{"type":"Point","coordinates":[90.3646605407612,23.734788035174]}},{"type":"Feature","properties":{"id":3582,"title":"Bangladesh Floods: Dinajpur, Dinajpur","status":"ARCHIVED","created":"2017","lastUpdated":"2017","lastActive":"no","area":360.96701703796793,"changesets":2262,"mappers":155,"roads":2049.15312879816,"buildings":1163,"edits":25345,"latest":"2017-10-23T06:28:37.000Z"},"geometry":{"type":"Point","coordinates":[88.6764837309964,25.6087234129727]}},{"type":"Feature","properties":{"id":1817,"title":"Missing Maps : DRR programs in Ramna Union, Chilmari Upazila, Kurigram District, Bangladesh","status":"PUBLISHED","created":"2016","lastUpdated":"2018","lastActive":"no","area":20.940577932128985,"changesets":195,"mappers":19,"roads":67.2539227013279,"buildings":320,"edits":814,"latest":"2016-12-15T14:09:11.000Z"},"geometry":{"type":"Point","coordinates":[89.6693223415741,25.5589109172546]}},{"type":"Feature","properties":{"id":5478,"title":"Missing Maps: Teknaf, Cox's Bazar, Bangladesh (2)","status":"PUBLISHED","created":"2018","lastUpdated":"2018","lastActive":"yes","area":29.654833641202238,"changesets":585,"mappers":72,"roads":95.0568285907348,"buildings":2065,"edits":3275,"latest":"2018-12-21T15:38:17.000Z"},"geometry":{"type":"Point","coordinates":[92.3060051117919,20.8144810746799]}},{"type":"Feature","properties":{"id":3439,"title":"Mapping Flood Affected Community in Bangladesh (Kajla and Kamalpur district) - additional data","status":"PUBLISHED","created":"2017","lastUpdated":"2017","lastActive":"no","area":89.3773764699791,"changesets":218,"mappers":52,"roads":168.93574156142,"buildings":5049,"edits":6999,"latest":"2017-09-10T19:43:46.000Z"},"geometry":{"type":"Point","coordinates":[89.628360802902,24.8883441744202]}},{"type":"Feature","properties":{"id":3429,"title":"Mapping Flood Affected Community in Bangladesh (Kajla and Kamalpur district)","status":"ARCHIVED","created":"2017","lastUpdated":"2017","lastActive":"no","area":89.3773764699791,"changesets":938,"mappers":82,"roads":370.252896871297,"buildings":11280,"edits":16020,"latest":"2017-09-09T12:42:15.000Z"},"geometry":{"type":"Point","coordinates":[89.628360802902,24.8883441744202]}},{"type":"Feature","properties":{"id":4331,"title":"Solidarit International, refugees crisis, Bandarban (Bengladesh)","status":"PUBLISHED","created":"2018","lastUpdated":"2018","lastActive":"no","area":145.63066042938559,"changesets":824,"mappers":105,"roads":526.29112530064,"buildings":11715,"edits":14487,"latest":"2018-12-13T11:24:17.000Z"},"geometry":{"type":"Point","coordinates":[92.1970987244855,21.3889549752086]}},{"type":"Feature","properties":{"id":3630,"title":"Mapping Flood Affected Communities in Bangladesh (Panchagarh, Rangpur)","status":"PUBLISHED","created":"2017","lastUpdated":"2018","lastActive":"no","area":1368.7065038384933,"changesets":24508,"mappers":1109,"roads":18093.9565792255,"buildings":976050,"edits":1117277,"latest":"2018-11-13T01:32:14.000Z"},"geometry":{"type":"Point","coordinates":[88.5754590338312,26.2851291051997]}},{"type":"Feature","properties":{"id":4170,"title":"Mirzapur, Bangladesh: Typhoid Burden Assessment","status":"PUBLISHED","created":"2018","lastUpdated":"2018","lastActive":"no","area":218.91877670477695,"changesets":1175,"mappers":78,"roads":771.443533008432,"buildings":95805,"edits":98475,"latest":"2018-06-05T11:08:04.000Z"},"geometry":{"type":"Point","coordinates":[90.1027374467937,24.0936633181173]}},{"type":"Feature","properties":{"id":4002,"title":"Missing Maps: Bangladesh, Barisal Sadar West","status":"ARCHIVED","created":"2018","lastUpdated":"2018","lastActive":"no","area":105.30820518035584,"changesets":2106,"mappers":252,"roads":770.254087610049,"buildings":98421,"edits":104839,"latest":"2018-09-22T09:38:51.000Z"},"geometry":{"type":"Point","coordinates":[90.329930590656,22.7145787795814]}},{"type":"Feature","properties":{"id":4005,"title":"Missing Maps: Barguna Sadar Northeast, Bangladesh","status":"ARCHIVED","created":"2018","lastUpdated":"2018","lastActive":"no","area":184.33000832032738,"changesets":2174,"mappers":257,"roads":833.2621098176,"buildings":50886,"edits":54603,"latest":"2018-11-08T13:13:46.000Z"},"geometry":{"type":"Point","coordinates":[90.1457719023543,22.1835531221325]}},{"type":"Feature","properties":{"id":4032,"title":"Missing Maps: Pirojpur Sadar, Bangladesh","status":"ARCHIVED","created":"2018","lastUpdated":"2018","lastActive":"no","area":163.27718741770573,"changesets":993,"mappers":81,"roads":376.604296754097,"buildings":40057,"edits":41522,"latest":"2018-08-04T13:38:46.000Z"},"geometry":{"type":"Point","coordinates":[89.9810714962393,22.6087544216835]}},{"type":"Feature","properties":{"id":968,"title":"Madan/Atpara Upazilas, Bangladesh Health Workers Map","status":"PUBLISHED","created":"2015","lastUpdated":"2018","lastActive":"no","area":425.14427175378165,"changesets":1373,"mappers":86,"roads":1292.93529551555,"buildings":58064,"edits":63648,"latest":"2018-09-22T09:15:29.000Z"},"geometry":{"type":"Point","coordinates":[90.9251916015637,24.7305153109152]}},{"type":"Feature","properties":{"id":966,"title":"Netrokona Sadar Upazila, Bangladesh Health Workers Map","status":"ARCHIVED","created":"2015","lastUpdated":"2018","lastActive":"no","area":336.33039895503003,"changesets":1470,"mappers":30,"roads":1049.28331346091,"buildings":126943,"edits":132489,"latest":"2018-08-27T11:35:24.000Z"},"geometry":{"type":"Point","coordinates":[90.7373756904843,24.8867548060413]}},{"type":"Feature","properties":{"id":3651,"title":"can be deleted","status":"ARCHIVED","created":"2017","lastUpdated":"2017","lastActive":"no","area":4472.115634364655,"changesets":0,"mappers":0,"roads":0,"buildings":0,"edits":0,"latest":null},"geometry":{"type":"Point","coordinates":[91.8343689213137,22.4432644673298]}},{"type":"Feature","properties":{"id":5303,"title":"Mapping Hydro-logical features, Road Networks & Households in Polder 43/2B at Amkhola Union under Patuakhali District, Bangladesh","status":"PUBLISHED","created":"2018","lastUpdated":"2018","lastActive":"no","area":57.37618647677307,"changesets":380,"mappers":11,"roads":160.539673997933,"buildings":14208,"edits":16220,"latest":"2018-10-13T15:20:00.000Z"},"geometry":{"type":"Point","coordinates":[90.3726859596052,22.2423257936285]}},{"type":"Feature","properties":{"id":4573,"title":"Bangladesh Refugee Crisis - Teknaf camp shelters (new area 19)","status":"ARCHIVED","created":"2018","lastUpdated":"2018","lastActive":"no","area":0.34956551761876054,"changesets":139,"mappers":12,"roads":0.00197602296146943,"buildings":2300,"edits":2355,"latest":"2018-05-24T09:54:10.000Z"},"geometry":{"type":"Point","coordinates":[92.252873870817,20.9455177795897]}},{"type":"Feature","properties":{"id":4651,"title":"Bangladesh Refugee Crisis - Teknaf camp shelters (new area 21)","status":"ARCHIVED","created":"2018","lastUpdated":"2018","lastActive":"no","area":0.338285962560821,"changesets":276,"mappers":18,"roads":6.52330328892298,"buildings":2044,"edits":2286,"latest":"2018-06-07T11:51:31.000Z"},"geometry":{"type":"Point","coordinates":[92.2537198202293,20.9585820642033]}},{"type":"Feature","properties":{"id":3673,"title":"Missing Maps: Kurigram, Bangladesh 1","status":"PUBLISHED","created":"2017","lastUpdated":"2018","lastActive":"no","area":899.6888154386502,"changesets":6907,"mappers":623,"roads":2966.70870450637,"buildings":154502,"edits":180552,"latest":"2018-11-10T11:38:00.000Z"},"geometry":{"type":"Point","coordinates":[89.6521537853908,25.7482328833387]}},{"type":"Feature","properties":{"id":5251,"title":"Delete -squares are too small","status":"ARCHIVED","created":"2018","lastUpdated":"2018","lastActive":"no","area":0.012926602231904005,"changesets":6,"mappers":1,"roads":0.0548106953006689,"buildings":29,"edits":35,"latest":"2018-09-20T17:18:03.000Z"},"geometry":{"type":"Point","coordinates":[92.1638024899217,21.2076188045245]}},{"type":"Feature","properties":{"id":5275,"title":"Bangladesh Refugee Crisis camp mapping - Update (4)","status":"ARCHIVED","created":"2018","lastUpdated":"2018","lastActive":"no","area":0.034184560501277717,"changesets":42,"mappers":4,"roads":0.979128562991105,"buildings":364,"edits":466,"latest":"2018-10-01T05:59:13.000Z"},"geometry":{"type":"Point","coordinates":[92.16360926092,21.205985895755]}},{"type":"Feature","properties":{"id":4796,"title":"Bangladesh Refugee Crisis camp mapping - NW of megacamp 1 Update","status":"ARCHIVED","created":"2018","lastUpdated":"2018","lastActive":"no","area":0.21214589831320188,"changesets":167,"mappers":29,"roads":13.9014035246205,"buildings":288,"edits":651,"latest":"2018-06-27T09:06:10.000Z"},"geometry":{"type":"Point","coordinates":[92.1381699557021,21.2124977008707]}},{"type":"Feature","properties":{"id":4891,"title":"Bangladesh Refugee Crisis camp mapping - NW of megacamp 3 Update","status":"ARCHIVED","created":"2018","lastUpdated":"2018","lastActive":"no","area":0.4833315559159053,"changesets":125,"mappers":15,"roads":17.3371883879362,"buildings":5254,"edits":6040,"latest":"2018-08-09T09:18:16.000Z"},"geometry":{"type":"Point","coordinates":[92.1428704148335,21.2111616930025]}},{"type":"Feature","properties":{"id":1103,"title":"Missing Maps: Kaligram, Bangladesh (a Y Care Int DRR & Health Project) ","status":"ARCHIVED","created":"2015","lastUpdated":"2015","lastActive":"no","area":10.283199205864989,"changesets":199,"mappers":18,"roads":77.9872603294316,"buildings":1838,"edits":2074,"latest":"2015-08-17T18:38:15.000Z"},"geometry":{"type":"Point","coordinates":[89.9690569341416,23.2138609302256]}},{"type":"Feature","properties":{"id":1097,"title":"Missing Maps: Durgapur Upazila, Bangladesh (a Y Care Int DRR & Health Project) BUILDINGS TASK","status":"ARCHIVED","created":"2015","lastUpdated":"2015","lastActive":"no","area":23.94116250003314,"changesets":271,"mappers":9,"roads":53.0256921219507,"buildings":1250,"edits":1659,"latest":"2015-07-09T12:21:03.000Z"},