{"totalEdits":39701090,"totalBuildings":32587008,"totalRoads":846701.058037061,"mappersOnline":28,"totalTasksMapped":1563893,"totalMappers":129646,"totalProjects":1617,"Vietnam":[{"type":"Feature","properties":{"title":"Missing Maps: Cam Pho Ward, Da Nang, Viet Nam","id":4601,"area":1.3191805454564582,"year":"2018","lastUpdated":"2018-07-31T01:51:24.586522","changesets":202,"mappers":47,"roads":1.13768643219975,"buildings":485,"edits":547,"latest":"2018-07-31T01:51:16.000Z"},"geometry":{"type":"Point","coordinates":[108.32319234706529,15.880939585337895]}},{"type":"Feature","properties":{"title":"Missing Maps: Hoa Phong, Da Nang, Viet Nam","id":4596,"area":18.72213133977016,"year":"2018","lastUpdated":"2018-07-30T17:55:22.366517","changesets":794,"mappers":78,"roads":43.6665995371026,"buildings":11212,"edits":11779,"latest":"2018-07-30T17:54:57.000Z"},"geometry":{"type":"Point","coordinates":[108.12719193824998,15.989098513575062]}},{"type":"Feature","properties":{"title":"Missing Maps: Viet Nam, Can Tho, Bhin Thuy 3","id":4231,"area":12.159936973857945,"year":"2018","lastUpdated":"2018-07-19T05:21:45.596033","changesets":387,"mappers":34,"roads":2.41565497903031,"buildings":2869,"edits":2895,"latest":"2018-07-26T03:45:49.000Z"},"geometry":{"type":"Point","coordinates":[105.68512976258306,10.069209062099718]}},{"type":"Feature","properties":{"title":"Missing Maps: Viet Nam, Can Tho, Bhin Thuy 1","id":4229,"area":17.220255872830155,"year":"2018","lastUpdated":"2018-07-18T07:45:42.723719","changesets":451,"mappers":61,"roads":6.36916965593425,"buildings":3035,"edits":3143,"latest":"2018-07-25T07:56:22.000Z"},"geometry":{"type":"Point","coordinates":[105.7478608999426,10.065514099191459]}},{"type":"Feature","properties":{"title":"Can Tho Core City Mapathon Area","id":3895,"area":149.1174397768337,"year":"2018","lastUpdated":"2018-04-27T16:26:46.935925","changesets":484,"mappers":21,"roads":49.8156810371734,"buildings":4694,"edits":6133,"latest":"2018-04-27T16:33:46.000Z"},"geometry":{"type":"Point","coordinates":[105.71904173803547,10.03014896250419]}},{"type":"Feature","properties":{"title":"Missing Maps: Viet Nam, Can Tho, Bhin Thuy 2","id":4230,"area":10.207076955580114,"year":"2018","lastUpdated":"2018-07-19T03:16:20.840866","changesets":550,"mappers":25,"roads":0.00105022403918742,"buildings":1339,"edits":1378,"latest":"2018-07-25T08:17:22.000Z"},"geometry":{"type":"Point","coordinates":[105.71058748956719,10.087919204625848]}},{"type":"Feature","properties":{"title":"Missing Maps: Tam Ky, Vietnam 1","id":3867,"area":29.782527531875047,"year":"2018","lastUpdated":"2018-08-01T04:06:29.721843","changesets":5130,"mappers":46,"roads":62.7615273619727,"buildings":17426,"edits":18843,"latest":"2018-08-01T04:06:09.000Z"},"geometry":{"type":"Point","coordinates":[108.47375611872688,15.555141490567896]}},{"type":"Feature","properties":{"title":"Missing Maps: Ha Tinh, Vietnam 2","id":3866,"area":39.30564147265127,"year":"2018","lastUpdated":"2018-08-01T04:18:57.342922","changesets":594,"mappers":74,"roads":66.2970888399494,"buildings":4319,"edits":5225,"latest":"2018-07-13T20:27:47.000Z"},"geometry":{"type":"Point","coordinates":[105.89258069216868,18.356182891614953]}},{"type":"Feature","properties":{"title":"Sentinel Asia Mini-Project: Vu Gia Thu Bon river basin, Vietnam","id":1374,"area":9200.467345858582,"year":"2017","lastUpdated":"2017-11-26T11:02:50.399046","changesets":152,"mappers":19,"roads":5766.02757826086,"buildings":4232,"edits":42236,"latest":"2017-11-28T15:12:17.000Z"},"geometry":{"type":"Point","coordinates":[107.90731716815813,15.569732746626746]}},{"type":"Feature","properties":{"title":"Sentinel Asia Mini-Project: Ha Tinh province, Vietnam","id":747,"area":206.63304319804345,"year":"2017","lastUpdated":"2017-09-23T02:02:22.340470","changesets":59,"mappers":21,"roads":1751.04685485703,"buildings":793,"edits":19402,"latest":"2018-05-31T16:02:42.000Z"},"geometry":{"type":"Point","coordinates":[105.61603546142574,18.596598988171976]}}],"totalArea":5828697.852409873,"Tanzania":[{"type":"Feature","properties":{"title":"Misungwi, Mwanza, Tanzania Mini Grids Project 01","id":4620,"area":1505.6277470567059,"year":"2018","lastUpdated":"2018-06-29T06:38:32.988800","changesets":2108,"mappers":68,"roads":13.4694336037439,"buildings":52916,"edits":53379,"latest":"2018-07-27T10:35:50.000Z"},"geometry":{"type":"Point","coordinates":[32.97328190476263,-3.0581235714285717]}},{"type":"Feature","properties":{"title":"Kasulu, Kasulu, Tanzania Mini Grids Project 04","id":4571,"area":2136.1760422465886,"year":"2018","lastUpdated":"2018-07-16T06:27:37.607948","changesets":2501,"mappers":67,"roads":13.8254831502391,"buildings":55848,"edits":56667,"latest":"2018-07-16T06:27:29.000Z"},"geometry":{"type":"Point","coordinates":[29.98247064013143,-4.6984841931908]}},{"type":"Feature","properties":{"title":"Lindi - Mini Grids","id":4260,"area":235.67207484051517,"year":"2018","lastUpdated":"2018-04-18T21:53:41.412313","changesets":133,"mappers":23,"roads":23.0772557724216,"buildings":2266,"edits":2684,"latest":"2018-04-18T21:53:28.000Z"},"geometry":{"type":"Point","coordinates":[39.305670260454285,-10.707404745317382]}},{"type":"Feature","properties":{"title":"Lindi, Lindi, Tanzania Mini Grids Project 05","id":4499,"area":1350.3603655694978,"year":"2018","lastUpdated":"2018-06-29T06:38:06.752377","changesets":1100,"mappers":66,"roads":1.12477553899274,"buildings":28479,"edits":28638,"latest":"2018-06-29T06:31:34.000Z"},"geometry":{"type":"Point","coordinates":[39.68909574499,-9.801786594046861]}},{"type":"Feature","properties":{"title":"Urambo, Tabora, Tanzania Mini Grids Project 05","id":4352,"area":1522.3866868404682,"year":"2018","lastUpdated":"2018-06-29T06:39:44.799826","changesets":1812,"mappers":63,"roads":47.1194316793102,"buildings":61111,"edits":61203,"latest":"2018-07-02T05:53:02.000Z"},"geometry":{"type":"Point","coordinates":[31.750896252665452,-5.017669822392724]}},{"type":"Feature","properties":{"title":"Lindi, Lindi, Tanzania Mini Grids Project 02","id":4488,"area":1271.4706951916876,"year":"2018","lastUpdated":"2018-07-10T07:57:50.042617","changesets":883,"mappers":66,"roads":0.580704859074677,"buildings":12370,"edits":12419,"latest":"2018-07-10T07:18:13.000Z"},"geometry":{"type":"Point","coordinates":[39.32480989462478,-9.704243210868535]}},{"type":"Feature","properties":{"title":"Manyoni, Singida, Tanzania Mini Grids Project 05","id":4555,"area":2172.2334385231957,"year":"2018","lastUpdated":"2018-05-24T13:47:51.718614","changesets":1476,"mappers":57,"roads":0.354646008845444,"buildings":32058,"edits":32104,"latest":"2018-05-24T13:46:32.000Z"},"geometry":{"type":"Point","coordinates":[34.89457414391987,-6.337178718154652]}},{"type":"Feature","properties":{"title":"Mbozi, Mbeya, Tanzania Mini Grids Project 07","id":4350,"area":908.5380955685306,"year":"2018","lastUpdated":"2018-06-29T06:38:11.249834","changesets":1211,"mappers":61,"roads":663.566242525814,"buildings":34908,"edits":35996,"latest":"2018-06-29T06:38:08.000Z"},"geometry":{"type":"Point","coordinates":[32.511668384650065,-8.419049370379382]}},{"type":"Feature","properties":{"title":"Central Singida, Singida, Tanzania Mini Grids Project 05 East","id":4529,"area":1299.832349107584,"year":"2018","lastUpdated":"2018-05-17T09:08:08.102064","changesets":829,"mappers":53,"roads":0.392972178332061,"buildings":16651,"edits":16659,"latest":"2018-05-17T11:23:30.000Z"},"geometry":{"type":"Point","coordinates":[35.19340611670751,-4.901696314033335]}},{"type":"Feature","properties":{"title":"Tunduru, Ruvuma, Tanzania Mini Grids Project 01","id":4423,"area":1513.3163670277308,"year":"2018","lastUpdated":"2018-06-29T11:40:34.768077","changesets":748,"mappers":73,"roads":0.672637130613432,"buildings":15105,"edits":15129,"latest":"2018-06-29T11:40:17.000Z"},"geometry":{"type":"Point","coordinates":[37.15242795625945,-11.620027648839601]}},{"type":"Feature","properties":{"title":"Igalula Ward, Kigoma, Tanzania Mini Grids Project 01","id":4386,"area":1169.7270185651328,"year":"2018","lastUpdated":"2018-04-17T14:00:20.573026","changesets":912,"mappers":37,"roads":0.00817977234302703,"buildings":9782,"edits":9783,"latest":"2018-04-17T14:00:26.000Z"},"geometry":{"type":"Point","coordinates":[30.054356569129087,-6.011588890040766]}},{"type":"Feature","properties":{"title":"Kasulu, Kasulu, Tanzania Mini Grids Project 02","id":4569,"area":1983.2479906601172,"year":"2018","lastUpdated":"2018-06-21T06:42:11.871140","changesets":1354,"mappers":62,"roads":1.61439788714098,"buildings":46289,"edits":46619,"latest":"2018-06-20T13:13:28.000Z"},"geometry":{"type":"Point","coordinates":[30.10818888197763,-4.140006794490141]}},{"type":"Feature","properties":{"title":"Kipili Ward, Rukwa, Tanzania Mini Grids Project 01","id":4401,"area":180.26824654575853,"year":"2018","lastUpdated":"2018-05-08T10:13:30.293395","changesets":455,"mappers":51,"roads":0.000599220796289046,"buildings":9512,"edits":9513,"latest":"2018-05-08T10:13:16.000Z"},"geometry":{"type":"Point","coordinates":[30.596896102411772,-7.461640143485554]}},{"type":"Feature","properties":{"title":"S. Monduli, Simanjiro, Tanzania Mini Grids - MapSwipe Project 04 - 02","id":4479,"area":131.2262807333246,"year":"2018","lastUpdated":"2018-05-04T09:42:42.952002","changesets":136,"mappers":50,"roads":0.000165500103078919,"buildings":1412,"edits":1414,"latest":"2018-05-04T09:36:27.000Z"},"geometry":{"type":"Point","coordinates":[37.140374705660484,-4.974450733390372]}},{"type":"Feature","properties":{"title":"Missing Maps: Mbeya - Data Zetu","id":3697,"area":39.48024643275634,"year":"2018","lastUpdated":"2018-03-05T06:16:20.685049","changesets":2341,"mappers":21,"roads":8.22290546014696,"buildings":79468,"edits":79939,"latest":"2018-07-25T09:58:02.000Z"},"geometry":{"type":"Point","coordinates":[33.45143106176986,-8.924156507539553]}},{"type":"Feature","properties":{"title":"Kalobe-Data Zetu","id":4242,"area":5.581452341462152,"year":"2018","lastUpdated":"2018-03-07T09:09:27.180898","changesets":531,"mappers":5,"roads":0.0106237188235286,"buildings":6096,"edits":6109,"latest":"2018-03-07T09:02:49.000Z"},"geometry":{"type":"Point","coordinates":[33.4084716088529,-8.914847386034923]}},{"type":"Feature","properties":{"title":"Kigoma_7","id":4088,"area":2.1750746662810996,"year":"2018","lastUpdated":"2018-02-14T06:34:17.900163","changesets":64,"mappers":6,"roads":0,"buildings":770,"edits":770,"latest":"2018-02-14T06:35:46.000Z"},"geometry":{"type":"Point","coordinates":[29.747221030052973,-6.0249577041517295]}},{"type":"Feature","properties":{"title":"Urambo, Tabora, Tanzania Mini Grids Project 08","id":4355,"area":1512.9535222617567,"year":"2018","lastUpdated":"2018-06-29T06:36:14.716443","changesets":1803,"mappers":62,"roads":0.0539411172980745,"buildings":55003,"edits":55009,"latest":"2018-06-29T06:38:59.000Z"},"geometry":{"type":"Point","coordinates":[31.652766553125133,-4.666160203174864]}},{"type":"Feature","properties":{"title":"Tunduru, Ruvuma, Tanzania Mini Grids Project 06-07","id":4420,"area":2221.546325309108,"year":"2018","lastUpdated":"2018-06-26T09:46:42.343600","changesets":2472,"mappers":65,"roads":8.35441218309258,"buildings":33151,"edits":33219,"latest":"2018-06-26T09:49:39.000Z"},"geometry":{"type":"Point","coordinates":[37.34039799071685,-10.737231230373672]}},{"type":"Feature","properties":{"title":"Kasulu, Kasulu, Tanzania Mini Grids Project 03","id":4570,"area":1652.0254948432712,"year":"2018","lastUpdated":"2018-07-12T13:57:48.201517","changesets":774,"mappers":62,"roads":0.25450019539659,"buildings":10336,"edits":10388,"latest":"2018-07-18T11:48:21.000Z"},"geometry":{"type":"Point","coordinates":[30.549761183673645,-4.348750979042502]}},{"type":"Feature","properties":{"title":"Tabora, Tabora, Tanzania Mini Grids Project 04","id":4611,"area":1431.5287309262178,"year":"2018","lastUpdated":"2018-06-21T06:43:17.878145","changesets":1290,"mappers":60,"roads":17.4569544106012,"buildings":23456,"edits":24034,"latest":"2018-06-21T06:42:56.000Z"},"geometry":{"type":"Point","coordinates":[32.9989006523097,-5.09063064812292]}},{"type":"Feature","properties":{"title":"Tabora, Tabora, Tanzania Mini Grids Project 01","id":4583,"area":1907.1663208860407,"year":"2018","lastUpdated":"2018-06-21T06:39:06.778869","changesets":1628,"mappers":58,"roads":1.72537869257951,"buildings":34604,"edits":34909,"latest":"2018-06-21T06:45:40.000Z"},"geometry":{"type":"Point","coordinates":[32.59170617851557,-4.606714194976095]}},{"type":"Feature","properties":{"title":"Urambo, Tabora, Tanzania Mini Grids Project 09-10","id":4377,"area":1677.5206088742302,"year":"2018","lastUpdated":"2018-05-21T13:20:07.112179","changesets":1703,"mappers":67,"roads":0.363745706229784,"buildings":26610,"edits":26624,"latest":"2018-05-21T13:49:44.000Z"},"geometry":{"type":"Point","coordinates":[32.006976077428725,-4.486466132072692]}},{"type":"Feature","properties":{"title":"Karema Ward, Katavi, Tanzania Mini Grids Project 01","id":4402,"area":49.87575499116186,"year":"2018","lastUpdated":"2018-04-12T09:55:34.291247","changesets":83,"mappers":11,"roads":0,"buildings":1985,"edits":1985,"latest":"2018-04-12T09:55:03.000Z"},"geometry":{"type":"Point","coordinates":[30.45028626808132,-6.824839702555798]}},{"type":"Feature","properties":{"title":"Rungwe, Mbeya, Tanzania Mini Grids Project 01","id":4392,"area":1330.3320402972577,"year":"2018","lastUpdated":"2018-05-30T05:59:04.640865","changesets":2885,"mappers":74,"roads":21.3821929149524,"buildings":119621,"edits":120470,"latest":"2018-05-30T06:51:18.000Z"},"geometry":{"type":"Point","coordinates":[33.5756407980469,-9.244759979750832]}},{"type":"Feature","properties":{"title":"Manyoni, Singida, Tanzania Mini Grids Project 06","id":4556,"area":3110.180831968628,"year":"2018","lastUpdated":"2018-07-11T13:35:23.793716","changesets":1901,"mappers":69,"roads":0.0988541090635963,"buildings":35125,"edits":35164,"latest":"2018-07-11T13:29:54.000Z"},"geometry":{"type":"Point","coordinates":[34.04246656080447,-6.8440179852491845]}},{"type":"Feature","properties":{"title":"Zanzibar Roads - Unguja Island - 03","id":3670,"area":891.0473088683418,"year":"2017","lastUpdated":"2017-10-05T10:03:33.314686","changesets":411,"mappers":17,"roads":2063.39671273259,"buildings":162,"edits":11431,"latest":"2018-06-18T12:26:16.000Z"},"geometry":{"type":"Point","coordinates":[39.43088050601065,-6.258244508731397]}},{"type":"Feature","properties":{"title":"kagera_2","id":4071,"area":3.850874321865156,"year":"2018","lastUpdated":"2018-01-27T16:40:53.676551","changesets":0,"mappers":0,"roads":0,"buildings":0,"edits":0,"latest":null},"geometry":{"type":"Point","coordinates":[32.119615051499174,-1.4696475246974754]}},{"type":"Feature","properties":{"title":"Kigoma_8","id":4089,"area":3.170194931843662,"year":"2018","lastUpdated":"2018-02-14T08:58:00.280285","changesets":175,"mappers":7,"roads":0.00164720947993757,"buildings":5558,"edits":5558,"latest":"2018-02-15T13:52:57.000Z"},"geometry":{"type":"Point","coordinates":[29.77626862798747,-6.004675849692375]}},{"type":"Feature","properties":{"title":"Tanzania Development Trust: Morogoro Community Mapping Project","id":4852,"area":11.997049798456361,"year":"2018","lastUpdated":"2018-08-01T22:14:41.025182","changesets":572,"mappers":89,"roads":71.0267896987414,"buildings":12298,"edits":13206,"latest":"2018-08-01T22:13:49.000Z"},"geometry":{"type":"Point","coordinates":[37.68097780644893,-6.8100910041755895]}},{"type":"Feature","properties":{"title":"S. Monduli, Simanjiro, Tanzania Mini Grids - MapSwipe Project 04 - 03","id":4478,"area":166.70877071205354,"year":"2018","lastUpdated":"2018-05-07T07:19:53.188978","changesets":123,"mappers":47,"roads":0,"buildings":1480,"edits":1480,"latest":"2018-05-04T09:16:49.000Z"},"geometry":{"type":"Point","coordinates":[37.56197930444573,-5.003146663344777]}},{"type":"Feature","properties":{"title":"Priority Villages, Ruvuma Region, Tanzania Mini Grids Project","id":4801,"area":491.345226887175,"year":"2018","lastUpdated":"2018-07-03T15:18:55.293383","changesets":586,"mappers":30,"roads":0.0476650649909273,"buildings":26872,"edits":26882,"latest":"2018-06-28T09:53:53.000Z"},"geometry":{"type":"Point","coordinates":[35.45485146842986,-10.678797947427933]}},{"type":"Feature","properties":{"title":"Kigoma_5","id":4086,"area":3.7491092848574272,"year":"2018","lastUpdated":"2018-02-09T15:21:14.358247","changesets":156,"mappers":6,"roads":0.459783989828362,"buildings":1942,"edits":1948,"latest":"2018-02-07T11:29:30.000Z"},"geometry":{"type":"Point","coordinates":[30.01864971055042,-6.469512478105855]}},{"type":"Feature","properties":{"title":"Mbeya minigrids","id":4208,"area":381.3150730146897,"year":"2018","lastUpdated":"2018-04-11T07:15:52.458810","changesets":8229,"mappers":81,"roads":545.472150450804,"buildings":454625,"edits":458780,"latest":"2018-03-29T12:55:24.000Z"},"geometry":{"type":"Point","coordinates":[33.273085375143864,-8.927145320940063]}},{"type":"Feature","properties":{"title":"Tanzania Development Trust: Shinyanga East community mapping project","id":4166,"area":1007.0589397559861,"year":"2018","lastUpdated":"2018-08-02T01:12:59.951050","changesets":2435,"mappers":343,"roads":1503.85511993049,"buildings":24722,"edits":30780,"latest":"2018-08-02T02:52:04.000Z"},"geometry":{"type":"Point","coordinates":[33.66405700164086,-3.5303866913753184]}},{"type":"Feature","properties":{"title":"Missing Maps: Dar es Salaam - Ramani Huria 2.0 - 06","id":3351,"area":42.09056201926153,"year":"2017","lastUpdated":"2017-09-18T13:32:44.404729","changesets":1060,"mappers":98,"roads":583.340797762564,"buildings":2543,"edits":21480,"latest":"2017-09-18T13:34:28.000Z"},"geometry":{"type":"Point","coordinates":[39.08745002746582,-6.700853885903787]}},{"type":"Feature","properties":{"title":"Tanzania Development Trust: Rusesa, Kwaga and Kigembe districts community mapping project ","id":3134,"area":554.3164257263877,"year":"2017","lastUpdated":"2017-12-12T20:58:40.374306","changesets":0,"mappers":0,"roads":0,"buildings":0,"edits":0,"latest":null},"geometry":{"type":"Point","coordinates":[30.003875680949932,-4.84165310145059]}},{"type":"Feature","properties":{"title":"Shinyanga_Tabora_Geita","id":4076,"area":3994.8430365253507,"year":"2018","lastUpdated":"2018-03-16T14:29:11.097041","changesets":47,"mappers":13,"roads":0.000161002645333808,"buildings":2061,"edits":2064,"latest":"2018-03-16T14:28:46.000Z"},"geometry":{"type":"Point","coordinates":[32.00242391521419,-4.080067283243879]}},{"type":"Feature","properties":{"title":"Tanzania Development Trust: Mwanza West Community Mapping Project","id":4358,"area":1290.9455273129195,"year":"2018","lastUpdated":"2018-08-02T04:12:11.204858","changesets":15115,"mappers":1095,"roads":7965.16131356651,"buildings":140428,"edits":194209,"latest":"2018-08-02T05:09:13.000Z"},"geometry":{"type":"Point","coordinates":[32.548552534014256,-2.6391112035937363]}},{"type":"Feature","properties":{"title":"Tanzania Development Trust: Simiyu district mapping project part 1","id":2501,"area":6430.819090940454,"year":"2018","lastUpdated":"2018-01-24T12:18:11.755027","changesets":0,"mappers":0,"roads":0,"buildings":0,"edits":0,"latest":null},"geometry":{"type":"Point","coordinates":[33.963684082031236,-2.4816321015734735]}},{"type":"Feature","properties":{"title":"PEPFAR Tanzania: Shinyanga","id":2301,"area":565.5201463076456,"year":"2017","lastUpdated":"2017-11-16T23:33:37.890014","changesets":5198,"mappers":302,"roads":2277.42607148261,"buildings":46163,"edits":71621,"latest":"2017-11-16T23:33:01.000Z"},"geometry":{"type":"Point","coordinates":[33.44573190915658,-3.633071239733379]}},{"type":"Feature","properties":{"title":"MSD & JSI/USAID Tanzania Road Import - Mwanza region","id":2138,"area":18452.858077930265,"year":"2017","lastUpdated":"2017-09-04T11:31:29.126756","changesets":149,"mappers":15,"roads":3770.57157796073,"buildings":105,"edits":5447,"latest":"2016-11-14T12:29:58.000Z"},"geometry":{"type":"Point","coordinates":[32.94155795664897,-2.648829790193047]}},{"type":"Feature","properties":{"title":"Tanzania Development Trust: Maswa district mapping project part 1","id":2578,"area":159.57894576974346,"year":"2017","lastUpdated":"2017-10-19T10:37:48.653512","changesets":0,"mappers":0,"roads":0,"buildings":0,"edits":0,"latest":null},"geometry":{"type":"Point","coordinates":[33.817882557580745,-3.2813052403453997]}},{"type":"Feature","properties":{"title":"Tanzania Development Trust: Simiyu district mapping project part 1 - Updated Imagery","id":3177,"area":1361.7036746910928,"year":"2018","lastUpdated":"2018-07-26T13:31:18.776274","changesets":0,"mappers":0,"roads":0,"buildings":0,"edits":0,"latest":null},"geometry":{"type":"Point","coordinates":[34.246062786235,-2.4162541152175003]}},{"type":"Feature","properties":{"title":"Missing Maps: Dar es Salaam - Ramani Huria 2.0 - 21","id":3388,"area":69.65587897048133,"year":"2017","lastUpdated":"2017-08-29T20:18:54.288698","changesets":1939,"mappers":75,"roads":6.84000186734417,"buildings":36784,"edits":37868,"latest":"2017-08-11T12:28:34.000Z"},"geometry":{"type":"Point","coordinates":[39.1238626216775,-6.897961178878595]}},{"type":"Feature","properties":{"title":"PEPFAR Tanzania: Kyela (Coast)","id":3204,"area":267.9000890686287,"year":"2018","lastUpdated":"2018-07-09T06:56:38.771652","changesets":2082,"mappers":220,"roads":832.347920963761,"buildings":19676,"edits":28587,"latest":"2018-07-12T23:12:42.000Z"},"geometry":{"type":"Point","coordinates":[33.86047686452975,-9.648327731192193]}},{"type":"Feature","properties":{"title":"Tanzania Development Trust: Manyoni district mapping project part 2","id":3389,"area":7477.8484249126495,"year":"2018","lastUpdated":"2018-08-01T23:42:26.013562","changesets":0,"mappers":0,"roads":0,"buildings":0,"edits":0,"latest":null},"geometry":{"type":"Point","coordinates":[35.27572631835939,-4.379171736396492]}},{"type":"Feature","properties":{"title":"Tanzania Development Trust: Manyoni district mapping project","id":3253,"area":1144.4488878187772,"year":"2018","lastUpdated":"2018-02-19T11:31:46.467382","changesets":0,"mappers":0,"roads":0,"buildings":0,"edits":0,"latest":null},"geometry":{"type":"Point","coordinates":[34.83352661132815,-5.7092421794668216]}},{"type":"Feature","properties":{"title":"Peace Corps Tanzania -- Lushoto","id":1903,"area":69.21165370312055,"year":"2017","lastUpdated":"2017-09-19T04:44:26.195543","changesets":640,"mappers":88,"roads":126.39665147357,"buildings":9101,"edits":10836,"latest":"2017-07-28T23:41:56.000Z"},"geometry":{"type":"Point","coordinates":[38.303773299507476,-4.810238891566513]}},{"type":"Feature","properties":{"title":"MSD & JSI/USAID Tanzania Road Import - Kagera region","id":2000,"area":20054.048144070715,"year":"2017","lastUpdated":"2017-08-17T15:35:09.385364","changesets":0,"mappers":0,"roads":0,"buildings":0,"edits":0,"latest":null},"geometry":{"type":"Point","coordinates":[31.041926812127926,-2.3254413013888326]}},{"type":"Feature","properties":{"title":"MSD & JSI/USAID Tanzania Road Import - Dodoma region","id":2012,"area":30070.63156173727,"year":"2016","lastUpdated":"2016-09-16T13:16:37.526872","changesets":0,"mappers":0,"roads":0,"buildings":0,"edits":0,"latest":null},"geometry":{"type":"Point","coordinates":[35.84633163505444,-5.8241716175440175]}},{"type":"Feature","properties":{"title":"MSD & JSI/USAID Tanzania Road Import - Iringa region","id":2157,"area":30284.59973311939,"year":"2016","lastUpdated":"2016-10-20T13:22:29.952382","changesets":85,"mappers":13,"roads":2909.39047680426,"buildings":712,"edits":3579,"latest":"2016-10-19T21:15:43.000Z"},"geometry":{"type":"Point","coordinates":[35.12966588259462,-8.90039717715023]}},{"type":"Feature","properties":{"title":"Missing Maps: Dar es Salaam - Ramani Huria 7","id":2125,"area":15.59172030179052,"year":"2017","lastUpdated":"2017-12-11T17:19:29.232404","changesets":681,"mappers":54,"roads":23.3546858581493,"buildings":15759,"edits":16703,"latest":"2017-12-11T17:19:19.000Z"},"geometry":{"type":"Point","coordinates":[39.22768489444798,-6.724982791087041]}},{"type":"Feature","properties":{"title":"MSD & JSI/USAID Tanzania Road Import - Morogoro region","id":2050,"area":28136.915277094853,"year":"2016","lastUpdated":"2016-08-23T17:28:25.347311","changesets":0,"mappers":0,"roads":0,"buildings":0,"edits":0,"latest":null},"geometry":{"type":"Point","coordinates":[36.961234396207985,-7.8614884864610755]}},{"type":"Feature","properties":{"title":"MSD & JSI/USAID Tanzania Road Import - Singida region","id":1999,"area":26074.754451063287,"year":"2016","lastUpdated":"2016-09-25T10:42:24.947931","changesets":0,"mappers":0,"roads":0,"buildings":0,"edits":0,"latest":null},"geometry":{"type":"Point","coordinates":[34.50140704015796,-5.676229952710943]}},{"type":"Feature","properties":{"title":"MSD & JSI/USAID Tanzania Road Import - Mara region","id":2095,"area":18583.120612545095,"year":"2016","lastUpdated":"2016-12-02T22:50:50.785436","changesets":0,"mappers":0,"roads":0,"buildings":0,"edits":0,"latest":null},"geometry":{"type":"Point","coordinates":[34.25431061911746,-1.7219985711602823]}},{"type":"Feature","properties":{"title":"MSD & JSI/USAID Tanzania Road Import - Manyara region","id":1973,"area":40580.74888215921,"year":"2016","lastUpdated":"2016-07-03T20:50:06.210422","changesets":0,"mappers":0,"roads":0,"buildings":0,"edits":0,"latest":null},"geometry":{"type":"Point","coordinates":[36.2647809052761,-4.352401182141463]}},{"type":"Feature","properties":{"title":"MSD & JSI/USAID Tanzania Road Import - Mbeya region","id":2111,"area":19769.484038509396,"year":"2016","lastUpdated":"2016-09-26T19:17:08.424814","changesets":79,"mappers":5,"roads":2211.37645137462,"buildings":3314,"edits":7568,"latest":"2016-10-05T18:18:41.000Z"},"geometry":{"type":"Point","coordinates":[33.53129587985334,-8.652609274565219]}},{"type":"Feature","properties":{"title":"MSD & JSI/USAID Tanzania Road Import - West Ruvuma region","id":1256,"area":10512.14514732082,"year":"2016","lastUpdated":"2016-04-04T16:27:39.061397","changesets":0,"mappers":0,"roads":0,"buildings":0,"edits":0,"latest":null},"geometry":{"type":"Point","coordinates":[35.73071423073114,-10.644452430898227]}},{"type":"Feature","properties":{"title":"MSD & JSI/USAID Tanzania Road Import - Kigoma and Tabora regions","id":1233,"area":55716.44775664574,"year":"2017","lastUpdated":"2017-09-08T08:29:26.684641","changesets":89,"mappers":5,"roads":7164.0075520837,"buildings":137,"edits":14011,"latest":"2015-10-15T16:49:58.000Z"},"geometry":{"type":"Point","coordinates":[32.221144436424595,-4.716038295525221]}},{"type":"Feature","properties":{"title":"Mivumoni Village, Pangani District, Tanzania Mini Grids Project","id":4699,"area":0.818188879689272,"year":"2018","lastUpdated":"2018-06-07T14:22:25.703646","changesets":78,"mappers":17,"roads":0.0276900086096642,"buildings":366,"edits":370,"latest":"2018-06-07T14:01:00.000Z"},"geometry":{"type":"Point","coordinates":[38.903763126037596,-5.307186790941633]}},{"type":"Feature","properties":{"title":"Njombe Region, Tanzania Mini Grids Project 02","id":4723,"area":1983.7355070009462,"year":"2018","lastUpdated":"2018-06-13T09:33:57.429622","changesets":1103,"mappers":56,"roads":0.208227637578225,"buildings":50720,"edits":50749,"latest":"2018-06-13T07:14:52.000Z"},"geometry":{"type":"Point","coordinates":[35.0200613677803,-9.007969824925567]}},{"type":"Feature","properties":{"title":"Songea Rural, Ruvuma, Tanzania Mini Grids Project 04","id":4705,"area":2147.5450650948856,"year":"2018","lastUpdated":"2018-06-11T12:32:37.891253","changesets":969,"mappers":50,"roads":0.278493274043511,"buildings":10699,"edits":10720,"latest":"2018-06-11T13:01:29.000Z"},"geometry":{"type":"Point","coordinates":[35.393237159829305,-10.381420075475273]}},{"type":"Feature","properties":{"title":"Njombe Region, Tanzania Mini Grids Project 04","id":4749,"area":2091.750428289223,"year":"2018","lastUpdated":"2018-06-18T07:46:36.914192","changesets":1152,"mappers":60,"roads":0.294694169499839,"buildings":42342,"edits":42390,"latest":"2018-06-25T11:40:34.000Z"},"geometry":{"type":"Point","coordinates":[33.9500057389153,-9.205214087122197]}},{"type":"Feature","properties":{"title":"Buigiri, Tanzania Mini Grids Project","id":4716,"area":70.76658506869626,"year":"2018","lastUpdated":"2018-06-11T10:35:13.436272","changesets":35,"mappers":19,"roads":0,"buildings":1370,"edits":1370,"latest":"2018-06-11T06:47:36.000Z"},"geometry":{"type":"Point","coordinates":[36.08954750040804,-6.160921675583066]}},{"type":"Feature","properties":{"title":"Chato District Villages, Geita Region, Tanzania Mini Grids Project","id":4778,"area":4421.105608459506,"year":"2018","lastUpdated":"2018-06-27T00:16:36.042505","changesets":4915,"mappers":59,"roads":55.2059060410998,"buildings":265957,"edits":266455,"latest":"2018-06-26T09:15:00.000Z"},"geometry":{"type":"Point","coordinates":[31.98540590093474,-2.8573699057934006]}},{"type":"Feature","properties":{"title":"Priority Villages, Shinyanga Region, Tanzania Mini Grids Project","id":4804,"area":1465.614946569395,"year":"2018","lastUpdated":"2018-06-30T09:05:38.841863","changesets":1318,"mappers":44,"roads":0.119656619425065,"buildings":61843,"edits":61882,"latest":"2018-06-30T09:36:52.000Z"},"geometry":{"type":"Point","coordinates":[32.9753779163862,-4.003000230638431]}},{"type":"Feature","properties":{"title":"Priority Villages, Kigoma Region, Tanzania Mini Grids Project","id":4779,"area":2340.2938543456194,"year":"2018","lastUpdated":"2018-06-27T23:26:21.748956","changesets":1670,"mappers":48,"roads":0.846639744708577,"buildings":80160,"edits":80298,"latest":"2018-06-28T06:27:08.000Z"},"geometry":{"type":"Point","coordinates":[30.81891173150636,-3.4042847246900707]}},{"type":"Feature","properties":{"title":"Rufiji, Pwani, Tanzania Mini Grids Project 03","id":4623,"area":1539.3249459809983,"year":"2018","lastUpdated":"2018-06-13T04:54:39.869414","changesets":1141,"mappers":46,"roads":0.239674830143507,"buildings":25465,"edits":25525,"latest":"2018-06-13T07:45:23.000Z"},"geometry":{"type":"Point","coordinates":[39.34482040828832,-7.830360285671785]}},{"type":"Feature","properties":{"title":"Mbozi, Mbeya, Tanzania Mini Grids Project 02","id":4287,"area":1464.4147850208826,"year":"2018","lastUpdated":"2018-03-28T14:39:26.288008","changesets":3239,"mappers":63,"roads":3419.72220762668,"buildings":69891,"edits":79035,"latest":"2018-03-28T14:41:07.000Z"},"geometry":{"type":"Point","coordinates":[32.46601435345758,-9.102106023061891]}},{"type":"Feature","properties":{"title":"Tabora, Tabora, Tanzania Mini Grids Project 02","id":4584,"area":2042.6757607922066,"year":"2018","lastUpdated":"2018-06-20T13:56:00.211684","changesets":1784,"mappers":62,"roads":5.15594602627106,"buildings":37695,"edits":38500,"latest":"2018-06-20T13:55:11.000Z"},"geometry":{"type":"Point","coordinates":[33.55636968293966,-4.778208007358041]}},{"type":"Feature","properties":{"title":"Urambo, Tabora, Tanzania Mini Grids Project 07","id":4354,"area":1417.644733786158,"year":"2018","lastUpdated":"2018-07-02T08:16:09.808700","changesets":1438,"mappers":66,"roads":0.235986987394966,"buildings":40728,"edits":40743,"latest":"2018-07-02T08:15:16.000Z"},"geometry":{"type":"Point","coordinates":[31.960650180526155,-4.799811038966155]}},{"type":"Feature","properties":{"title":"Lindi, Lindi, Tanzania Mini Grids Project 04","id":4495,"area":2400.161505147141,"year":"2018","lastUpdated":"2018-07-02T06:32:32.947392","changesets":1774,"mappers":65,"roads":3.81934683994176,"buildings":47301,"edits":47458,"latest":"2018-06-29T06:39:00.000Z"},"geometry":{"type":"Point","coordinates":[39.76326133480001,-10.168453829364001]}},{"type":"Feature","properties":{"title":"Kasulu, Kasulu, Tanzania Mini Grids Project 01","id":4563,"area":1132.117945620699,"year":"2018","lastUpdated":"2018-06-22T13:47:54.809568","changesets":1683,"mappers":62,"roads":6.80675700959666,"buildings":46061,"edits":46543,"latest":"2018-06-22T13:37:34.000Z"},"geometry":{"type":"Point","coordinates":[30.223387298585,-4.60036034805499]}},{"type":"Feature","properties":{"title":"Tanzania Development Trust: Salesforce Manyara FGM 3","id":4896,"area":2283.4732623040454,"year":"2018","lastUpdated":"2018-08-01T09:11:45.794951","changesets":7,"mappers":2,"roads":4.20423837073822,"buildings":12,"edits":22,"latest":"2018-07-26T12:47:18.000Z"},"geometry":{"type":"Point","coordinates":[37.05802023052,-5.535989971496]}},{"type":"Feature","properties":{"title":"Tabora, Tabora, Tanzania Mini Grids Project 05","id":4612,"area":1989.4559724518444,"year":"2018","lastUpdated":"2018-06-01T09:04:16.418927","changesets":1027,"mappers":62,"roads":1.12987965804484,"buildings":17432,"edits":17662,"latest":"2018-06-01T13:36:34.000Z"},"geometry":{"type":"Point","coordinates":[33.40266077376074,-5.09063064812292]}},{"type":"Feature","properties":{"title":"TZ IFC Mini-grids house count test-2","id":4036,"area":481.70619678590833,"year":"2018","lastUpdated":"2018-02-15T13:20:01.029773","changesets":2181,"mappers":13,"roads":36.3868917119351,"buildings":181981,"edits":182647,"latest":"2018-02-23T15:15:42.000Z"},"geometry":{"type":"Point","coordinates":[34.581446410258884,-7.300716320272623]}},{"type":"Feature","properties":{"title":"Kigoma_17","id":4105,"area":4.227050493859274,"year":"2018","lastUpdated":"2018-02-15T09:58:31.382396","changesets":84,"mappers":8,"roads":0.193564177598396,"buildings":1322,"edits":1325,"latest":"2018-02-22T12:12:21.000Z"},"geometry":{"type":"Point","coordinates":[29.924467030509287,-5.732861759308482]}},{"type":"Feature","properties":{"title":"Missing Maps: Dar es Salaam - Ramani Huria 2.0 - 33","id":3455,"area":156.72153831900792,"year":"2018","lastUpdated":"2018-03-05T15:30:37.208960","changesets":2954,"mappers":102,"roads":579.977370621098,"buildings":21094,"edits":39085,"latest":"2017-10-29T15:21:56.000Z"},"geometry":{"type":"Point","coordinates":[39.06687201276458,-6.7708713265034515]}},{"type":"Feature","properties":{"title":"Lindi, Lindi, Tanzania Mini Grids Project 03","id":4489,"area":1972.6554027241687,"year":"2018","lastUpdated":"2018-07-04T09:39:41.831448","changesets":1117,"mappers":68,"roads":0.712816430807669,"buildings":37574,"edits":37626,"latest":"2018-07-04T09:33:22.000Z"},"geometry":{"type":"Point","coordinates":[39.183662563828705,-10.12342916029111]}},{"type":"Feature","properties":{"title":"Itona_Kilosa","id":4179,"area":741.6959938125862,"year":"2018","lastUpdated":"2018-04-11T06:43:22.814485","changesets":409,"mappers":55,"roads":1.35885332610885,"buildings":3691,"edits":3744,"latest":"2018-04-11T07:21:08.000Z"},"geometry":{"type":"Point","coordinates":[35.53547612786605,-8.535150251339573]}},{"type":"Feature","properties":{"title":"Songea Rural, Ruvuma, Tanzania Mini Grids Project 07","id":4721,"area":2150.916415219976,"year":"2018","lastUpdated":"2018-06-14T07:42:10.260484","changesets":527,"mappers":55,"roads":0.110758162123934,"buildings":9680,"edits":9693,"latest":"2018-06-13T11:23:25.000Z"},"geometry":{"type":"Point","coordinates":[35.565031022546556,-11.40219846168882]}},{"type":"Feature","properties":{"title":"Kigoma_12","id":4098,"area":3.729917625288736,"year":"2018","lastUpdated":"2018-02-12T06:54:13.338393","changesets":479,"mappers":6,"roads":0.434900266530263,"buildings":2941,"edits":2951,"latest":"2018-02-12T06:53:36.000Z"},"geometry":{"type":"Point","coordinates":[29.9389865678107,-5.924358173879355]}},{"type":"Feature","properties":{"title":"Mwanza","id":4074,"area":121.88924319716057,"year":"2018","lastUpdated":"2018-03-27T15:42:41.221237","changesets":6,"mappers":3,"roads":0.470326699343026,"buildings":24,"edits":42,"latest":"2018-03-27T15:44:50.000Z"},"geometry":{"type":"Point","coordinates":[33.126132567191135,-1.9238324242353735]}},{"type":"Feature","properties":{"title":"Heru Shingo Ward, Kigoma, Tanzania Mini Grids Project 01","id":4387,"area":789.0955168862893,"year":"2018","lastUpdated":"2018-06-27T06:10:33.707732","changesets":1455,"mappers":37,"roads":4.58334806253399,"buildings":33003,"edits":33301,"latest":"2018-06-01T13:26:31.000Z"},"geometry":{"type":"Point","coordinates":[30.310435947907735,-4.113678655615293]}},{"type":"Feature","properties":{"title":"Missing Maps: Temeke - Data Zetu","id":3699,"area":14.051390146474496,"year":"2018","lastUpdated":"2018-03-04T22:52:17.712834","changesets":931,"mappers":30,"roads":58.5254100191776,"buildings":29137,"edits":33372,"latest":"2018-03-09T20:29:21.000Z"},"geometry":{"type":"Point","coordinates":[39.26423919262868,-6.891846441400092]}},{"type":"Feature","properties":{"title":"Zanzibar Roads - Unguja Island - 01","id":3650,"area":234.75514110431052,"year":"2017","lastUpdated":"2017-10-07T12:29:26.306281","changesets":573,"mappers":18,"roads":1191.68951939582,"buildings":43,"edits":17373,"latest":"2017-10-07T12:28:50.000Z"},"geometry":{"type":"Point","coordinates":[39.248176202742364,-6.1821500381296275]}},{"type":"Feature","properties":{"title":"Kigoma_1","id":4082,"area":3.220895758602432,"year":"2018","lastUpdated":"2018-01-30T09:22:24.958026","changesets":128,"mappers":5,"roads":0,"buildings":3113,"edits":3113,"latest":"2018-02-19T11:05:31.000Z"},"geometry":{"type":"Point","coordinates":[30.44210254746399,-6.82158989076395]}},{"type":"Feature","properties":{"title":"Kigoma_2","id":4083,"area":1.965158778543636,"year":"2018","lastUpdated":"2018-01-30T14:05:17.983249","changesets":127,"mappers":2,"roads":0,"buildings":458,"edits":458,"latest":"2018-01-30T14:04:27.000Z"},"geometry":{"type":"Point","coordinates":[30.490210022071953,-6.813742245754607]}},{"type":"Feature","properties":{"title":"Mara","id":4073,"area":3.087873440053216,"year":"2018","lastUpdated":"2018-01-29T14:51:44.742950","changesets":0,"mappers":0,"roads":0,"buildings":0,"edits":0,"latest":null},"geometry":{"type":"Point","coordinates":[33.70828711361714,-1.4058350861409175]}},{"type":"Feature","properties":{"title":"Missing Maps: Dar es Salaam - Ramani Huria 2.0 - 20","id":3387,"area":92.06647987703117,"year":"2018","lastUpdated":"2018-03-05T15:38:02.296786","changesets":1407,"mappers":57,"roads":12.7576761938866,"buildings":34483,"edits":36868,"latest":"2017-08-15T08:33:29.000Z"},"geometry":{"type":"Point","coordinates":[39.115395701674714,-6.820271980216828]}},{"type":"Feature","properties":{"title":"Central Singida, Singida, Tanzania Mini Grids Project 00 North","id":4508,"area":2138.0235797080213,"year":"2018","lastUpdated":"2018-07-13T13:11:39.577533","changesets":2429,"mappers":66,"roads":2.19560796896209,"buildings":85349,"edits":85596,"latest":"2018-07-13T13:11:37.000Z"},"geometry":{"type":"Point","coordinates":[34.85630752643853,-4.7195257307215375]}},{"type":"Feature","properties":{"title":"S. Monduli, Simanjiro, Tanzania Mini Grids - MapSwipe Project 01","id":4422,"area":918.2087603729018,"year":"2018","lastUpdated":"2018-05-08T13:55:46.077666","changesets":4703,"mappers":86,"roads":7.83174281046291,"buildings":50610,"edits":50723,"latest":"2018-05-11T06:32:20.000Z"},"geometry":{"type":"Point","coordinates":[36.6096116860842,-3.632909796231658]}},{"type":"Feature","properties":{"title":"S. Monduli, Simanjiro, Tanzania Mini Grids - MapSwipe Project 04 - 01","id":4480,"area":133.48441769177396,"year":"2018","lastUpdated":"2018-06-29T10:36:33.994267","changesets":554,"mappers":60,"roads":0,"buildings":4661,"edits":4661,"latest":"2018-06-29T09:11:00.000Z"},"geometry":{"type":"Point","coordinates":[36.51598942107269,-5.009138210253439]}},{"type":"Feature","properties":{"title":"Tunduru, Ruvuma, Tanzania Mini Grids Project 05","id":4411,"area":1479.9129003136538,"year":"2018","lastUpdated":"2018-05-17T04:42:53.781681","changesets":1947,"mappers":62,"roads":3.59696148842831,"buildings":30085,"edits":30123,"latest":"2018-05-17T04:42:41.000Z"},"geometry":{"type":"Point","coordinates":[37.235568507342286,-10.889137167904732]}},{"type":"Feature","properties":{"title":"Central Singida, Singida, Tanzania Mini Grids Project 03","id":4519,"area":2105.041518258272,"year":"2018","lastUpdated":"2018-05-16T13:46:42.174753","changesets":1720,"mappers":63,"roads":0.0426727988520717,"buildings":55117,"edits":55135,"latest":"2018-05-16T14:10:04.000Z"},"geometry":{"type":"Point","coordinates":[34.9139572099927,-4.933032473319332]}},{"type":"Feature","properties":{"title":"Missing Maps: Dar es Salaam - Ramani Huria 2.0 - 39","id":3505,"area":96.83711970341507,"year":"2018","lastUpdated":"2018-03-04T23:01:32.143525","changesets":3897,"mappers":79,"roads":269.298159883004,"buildings":48923,"edits":63495,"latest":"2017-09-18T11:50:06.000Z"},"geometry":{"type":"Point","coordinates":[39.305843254526984,-6.840568905719535]}},{"type":"Feature","properties":{"title":"Missing Maps: Dar es Salaam - Ramani Huria 2.0 - 34","id":3456,"area":196.89167630800463,"year":"2018","lastUpdated":"2018-03-05T15:30:13.278824","changesets":3676,"mappers":139,"roads":587.388974612296,"buildings":20987,"edits":38292,"latest":"2017-11-13T11:24:48.000Z"},"geometry":{"type":"Point","coordinates":[39.100288211273984,-6.877221494935376]}},{"type":"Feature","properties":{"title":"Zanzibar Roads - Unguja Island - 02","id":3666,"area":467.0999763333136,"year":"2017","lastUpdated":"2017-10-02T18:35:16.494476","changesets":182,"mappers":13,"roads":1127.1061948184,"buildings":5,"edits":6570,"latest":"2017-10-04T08:29:26.000Z"},"geometry":{"type":"Point","coordinates":[39.26414174907967,-5.856335474346869]}},{"type":"Feature","properties":{"title":"Kagera_Goziba","id":4079,"area":1.1395975392255964,"year":"2018","lastUpdated":"2018-01-29T07:04:24.380360","changesets":0,"mappers":0,"roads":0,"buildings":0,"edits":0,"latest":null},"geometry":{"type":"Point","coordinates":[32.61356799061652,-1.4704301698877245]}},{"type":"Feature","properties":{"title":"Ikuna Ward Mapping Project","id":3203,"area":224.51296025612464,"year":"2018","lastUpdated":"2018-03-05T15:47:24.873442","changesets":335,"mappers":7,"roads":742.813559438956,"buildings":4401,"edits":9943,"latest":"2017-10-31T12:28:59.000Z"},"geometry":{"type":"Point","coordinates":[34.9328327178955,-9.190730246414187]}}],"Uganda":[{"type":"Feature","properties":{"title":"Uganda Crowd-sourcing Non-Camp Refugee Data Nyakabande, Kagoma,Mutolere Villages, Kisoro District Base Mapping","id":4288,"area":49.58167859253421,"year":"2018","lastUpdated":"2018-03-27T18:21:23.444372","changesets":539,"mappers":42,"roads":7.95023042536063,"buildings":6741,"edits":6803,"latest":"2018-03-27T19:25:55.000Z"},"geometry":{"type":"Point","coordinates":[29.747966832204348,-1.3098261507978273]}},{"type":"Feature","properties":{"title":"Uganda Crowd-sourcing Non-Camp Refugee Data, Rwebisengo, Kahondo, Makondo Villages, Ntoroko District Base Mapping","id":4295,"area":162.10041758428503,"year":"2018","lastUpdated":"2018-05-25T05:31:04.061957","changesets":1286,"mappers":54,"roads":10.4920207350625,"buildings":3532,"edits":3557,"latest":"2018-04-04T00:30:34.000Z"},"geometry":{"type":"Point","coordinates":[30.27564502638289,1.0482015863826952]}},{"type":"Feature","properties":{"title":"Uganda Crowd-sourcing Non-Camp Refugee Data - Roads (GPX Tracks) Mapping Arua District","id":4701,"area":4395.597295670786,"year":"2018","lastUpdated":"2018-08-01T14:31:04.106323","changesets":522,"mappers":50,"roads":4204.21987574194,"buildings":3799,"edits":15289,"latest":"2018-08-01T14:50:56.000Z"},"geometry":{"type":"Point","coordinates":[31.074578862085442,2.9228176868678046]}},{"type":"Feature","properties":{"title":"Uganda Crowd-Sourcing Non-Camp Refugee Data,Rwanzu, Busanza,Nyamagana,Busengo Villages Kisoro District","id":4297,"area":54.61581088784912,"year":"2018","lastUpdated":"2018-05-23T05:39:56.832232","changesets":1018,"mappers":75,"roads":23.0541164186441,"buildings":7173,"edits":7248,"latest":"2018-05-23T05:38:36.000Z"},"geometry":{"type":"Point","coordinates":[29.617397280324827,-1.2450696703101722]}},{"type":"Feature","properties":{"title":"Salesforce, Uganda Crowd-Sourcing Non-Camp Refugee Data (Urban Mapping) Rubaga Division Part 1, Kampala District","id":4327,"area":8.40126840870032,"year":"2018","lastUpdated":"2018-07-05T08:54:53.734362","changesets":3095,"mappers":186,"roads":4.91097859192049,"buildings":18597,"edits":18724,"latest":"2018-07-25T17:55:29.000Z"},"geometry":{"type":"Point","coordinates":[32.54524653779347,0.3421427883853258]}},{"type":"Feature","properties":{"title":"Uganda Crowdsourcing Non-Camp Refugee Data, Rwamwanja Refugee Settlement, Kamwenge District","id":4798,"area":343.59803817321034,"year":"2018","lastUpdated":"2018-07-31T21:13:59.057843","changesets":1694,"mappers":160,"roads":175.245177317624,"buildings":24291,"edits":26113,"latest":"2018-08-01T06:55:42.000Z"},"geometry":{"type":"Point","coordinates":[30.67052946158785,0.3056601787846434]}},{"type":"Feature","properties":{"title":"Uganda Crowdsourcing Non-Camp Refugee Data (Urban Mapping) Kampala Nakawa Division Part 1","id":4371,"area":27.407181548683663,"year":"2018","lastUpdated":"2018-08-01T16:00:53.221094","changesets":2681,"mappers":397,"roads":69.496345370614,"buildings":65892,"edits":67216,"latest":"2018-08-02T05:08:43.000Z"},"geometry":{"type":"Point","coordinates":[32.64702688918785,0.3114578744389416]}},{"type":"Feature","properties":{"title":"Uganda Crowd-sourcing Non-Camp Refugee Data (Urban Mapping), Hoima Municipality, Hoima District","id":4593,"area":40.21494542121517,"year":"2018","lastUpdated":"2018-07-31T17:34:43.730931","changesets":781,"mappers":155,"roads":14.253258609454,"buildings":8556,"edits":8715,"latest":"2018-07-31T17:39:34.000Z"},"geometry":{"type":"Point","coordinates":[31.345254619743375,1.4316581460231461]}},{"type":"Feature","properties":{"title":"Uganda Crowd-sourcing Non-Camp Refugee Data,Vurra Subcounty, Arua","id":4686,"area":125.97781211607399,"year":"2018","lastUpdated":"2018-08-01T13:10:13.305709","changesets":1454,"mappers":233,"roads":54.9844227077687,"buildings":19556,"edits":19969,"latest":"2018-08-01T13:09:47.000Z"},"geometry":{"type":"Point","coordinates":[30.908277625357083,2.891373568463031]}},{"type":"Feature","properties":{"title":"Camp mapping HCR - Kiryandongo - Ouganda","id":4857,"area":1.1402716815376035,"year":"2018","lastUpdated":"2018-07-13T09:09:36.664046","changesets":126,"mappers":22,"roads":29.2359959229702,"buildings":1130,"edits":1407,"latest":"2018-07-16T11:29:31.000Z"},"geometry":{"type":"Point","coordinates":[32.16817791697557,1.9412349152392125]}},{"type":"Feature","properties":{"title":"Uganda Crowdsourcing Non-Camp Refugee Data, Oruchinga, Isingiro District","id":4829,"area":362.6687747467698,"year":"2018","lastUpdated":"2018-07-26T22:14:25.665693","changesets":195,"mappers":38,"roads":0.237151960695747,"buildings":3464,"edits":3481,"latest":"2018-07-31T13:35:41.000Z"},"geometry":{"type":"Point","coordinates":[30.65006556725022,-0.936229954514776]}},{"type":"Feature","properties":{"title":"Salesforce, Uganda Crowd-sourcing Non-Camp Refugee Data (Urban Mapping), Ndeeba, Wankulukuku","id":4135,"area":4.371431618487186,"year":"2018","lastUpdated":"2018-03-27T16:15:22.176595","changesets":1031,"mappers":144,"roads":9.2957439216178,"buildings":10517,"edits":10741,"latest":"2018-04-03T08:49:40.000Z"},"geometry":{"type":"Point","coordinates":[32.55563010348889,0.2863901650888876]}},{"type":"Feature","properties":{"title":"Salesforce, Uganda Crowd-sourcing Non-Camp Refugee Data (Urban Mapping), Kibuye, Katwe, Makindye","id":4134,"area":5.069268955123824,"year":"2018","lastUpdated":"2018-06-26T15:44:40.229402","changesets":1990,"mappers":176,"roads":10.3876149291967,"buildings":11870,"edits":12279,"latest":"2018-06-26T15:43:56.000Z"},"geometry":{"type":"Point","coordinates":[32.578041636227496,0.29224840556124765]}},{"type":"Feature","properties":{"title":"Salesforce, Uganda Crowd-sourcing Non-Camp Refugee Data (Urban Mapping), Kansanga, Kibuli, Namuwongo","id":4133,"area":5.519847154808274,"year":"2018","lastUpdated":"2018-03-23T08:13:18.528307","changesets":1289,"mappers":114,"roads":1.69459137017284,"buildings":6253,"edits":6365,"latest":"2018-03-14T19:38:14.000Z"},"geometry":{"type":"Point","coordinates":[32.60050128803857,0.30110921276286007]}},{"type":"Feature","properties":{"title":"Maji Refugee Settlements, Adjumani Area","id":3187,"area":13.620559082078705,"year":"2017","lastUpdated":"2017-09-11T11:18:07.032226","changesets":492,"mappers":43,"roads":135.22450885648,"buildings":8791,"edits":12095,"latest":"2017-09-25T08:43:59.000Z"},"geometry":{"type":"Point","coordinates":[31.656158617762284,3.204269803158863]}},{"type":"Feature","properties":{"title":"Adjumani Town","id":3193,"area":12.19607221223854,"year":"2018","lastUpdated":"2018-03-04T20:23:05.222565","changesets":660,"mappers":41,"roads":139.726730765495,"buildings":12885,"edits":15350,"latest":"2017-09-24T10:56:17.000Z"},"geometry":{"type":"Point","coordinates":[31.787351208518825,3.368821069260979]}},{"type":"Feature","properties":{"title":"MapUganda - Phase 2: Tororo (Butaleja, Namutumba, Bugiri, Namiyango and Busia)","id":1437,"area":5529.26414171349,"year":"2018","lastUpdated":"2018-05-21T15:50:07.552229","changesets":462,"mappers":96,"roads":798.507032670049,"buildings":8011,"edits":12424,"latest":"2018-06-19T13:11:03.000Z"},"geometry":{"type":"Point","coordinates":[33.95315401570563,0.6248404540072142]}},{"type":"Feature","properties":{"title":"PEPFAR Uganda: Rakai Coast, Kasensero Landing Site","id":2290,"area":390.7426047377783,"year":"2018","lastUpdated":"2018-02-21T23:52:45.656780","changesets":487,"mappers":33,"roads":447.456340402132,"buildings":9032,"edits":12430,"latest":"2018-02-21T23:52:26.000Z"},"geometry":{"type":"Point","coordinates":[31.789911428571425,-0.7308521428571428]}},{"type":"Feature","properties":{"title":"Uganda Bureau Of Statistics Educational Facilities Import","id":1434,"area":176984.6233742301,"year":"2017","lastUpdated":"2017-10-14T04:58:15.546262","changesets":0,"mappers":0,"roads":0,"buildings":0,"edits":0,"latest":null},"geometry":{"type":"Point","coordinates":[32.54942959729942,1.3571209017835755]}},{"type":"Feature","properties":{"title":"Peace Corps Uganda - Arua","id":1197,"area":7.649398362963315,"year":"2018","lastUpdated":"2018-01-12T01:22:10.507348","changesets":795,"mappers":45,"roads":86.0095814458602,"buildings":13691,"edits":15829,"latest":"2018-01-12T01:21:21.000Z"},"geometry":{"type":"Point","coordinates":[30.911480096670296,3.0199597258060704]}}],"Central African Republic":[{"type":"Feature","properties":{"title":"Concern Worldwide Disaster Risk Reduction (pilot) Gaga / Datoli, Central African Republic","id":4448,"area":3.1098974543285984,"year":"2018","lastUpdated":"2018-07-28T11:21:52.210724","changesets":118,"mappers":15,"roads":16.5589724494228,"buildings":1817,"edits":1969,"latest":"2018-07-28T11:21:51.000Z"},"geometry":{"type":"Point","coordinates":[16.97869646415265,5.48774680125175]}},{"type":"Feature","properties":{"title":"RCA, Haute-Kotto - Exercice Amliorer la prcision d'une route","id":543,"area":90.97436915671221,"year":"2014","lastUpdated":"2014-05-24T14:15:58.278562","changesets":76,"mappers":8,"roads":117.543124301111,"buildings":43,"edits":338,"latest":"2014-12-16T13:14:22.000Z"},"geometry":{"type":"Point","coordinates":[21.98999404601079,5.622464321419182]}},{"type":"Feature","properties":{"title":"Central African Republic, Lobaye, Mbaki","id":449,"area":9.413091416207873,"year":"2015","lastUpdated":"2015-04-19T17:57:40.334280","changesets":13,"mappers":8,"roads":43.2228441743804,"buildings":108,"edits":286,"latest":"2017-09-26T12:40:50.000Z"},"geometry":{"type":"Point","coordinates":[18.000240323421774,3.8817880432844687]}},{"type":"Feature","properties":{"title":"Central African Republic. Refugees in Cameroon, Gbiti","id":779,"area":1.0940632741990721,"year":"2015","lastUpdated":"2015-11-23T06:27:35.131096","changesets":0,"mappers":0,"roads":0,"buildings":0,"edits":0,"latest":null},"geometry":{"type":"Point","coordinates":[14.71109411715117,4.700695839244187]}},{"type":"Feature","properties":{"title":"Central African Republic, Nana-Mambr, Baoro","id":538,"area":11.464390888230284,"year":"2014","lastUpdated":"2014-05-25T20:17:01.976462","changesets":102,"mappers":15,"roads":147.032005582518,"buildings":5749,"edits":7525,"latest":"2014-06-20T08:28:45.000Z"},"geometry":{"type":"Point","coordinates":[15.955701825782551,5.694360584792088]}},{"type":"Feature","properties":{"title":"Chad Southern Borders: location names from NGA-GNS","id":521,"area":305439.2050940806,"year":"2018","lastUpdated":"2018-02-12T12:01:09.542238","changesets":5,"mappers":4,"roads":14.2949506131778,"buildings":0,"edits":19,"latest":"2018-02-12T12:06:37.000Z"},"geometry":{"type":"Point","coordinates":[19.51707458224299,8.687792977883097]}},{"type":"Feature","properties":{"title":"Rpublique Centrafricaine/Central African Republic, Ouham, Nana-Bakassa","id":380,"area":2.8174034001560324,"year":"2016","lastUpdated":"2016-04-29T09:24:19.984038","changesets":82,"mappers":16,"roads":55.9467500220722,"buildings":1085,"edits":2046,"latest":"2014-05-25T17:51:56.000Z"},"geometry":{"type":"Point","coordinates":[17.27673053501145,6.991901727991525]}},{"type":"Feature","properties":{"title":"Central African Republic/Rpublique Centrafricaine, Ouaka, Kouango","id":402,"area":5.368176724207296,"year":"2014","lastUpdated":"2014-02-10T00:14:15.493211","changesets":55,"mappers":6,"roads":24.117192784866,"buildings":2921,"edits":3118,"latest":"2017-07-25T18:11:10.000Z"},"geometry":{"type":"Point","coordinates":[19.972929951748572,4.9950149056893505]}},{"type":"Feature","properties":{"title":"Rpublique Centrafricaine/Central African Republic: Bangui, Nord","id":384,"area":124.40291775236224,"year":"2014","lastUpdated":"2014-02-10T00:14:14.176514","changesets":303,"mappers":19,"roads":735.912093048312,"buildings":6188,"edits":14326,"latest":"2014-01-22T14:19:12.000Z"},"geometry":{"type":"Point","coordinates":[18.53621005753861,4.488286808748186]}},{"type":"Feature","properties":{"title":"Central African Republic, Ouham Pend, Paoua","id":501,"area":15.314915541102634,"year":"2014","lastUpdated":"2014-04-28T00:57:51.365189","changesets":158,"mappers":22,"roads":347.015133240727,"buildings":5430,"edits":9431,"latest":"2016-11-21T22:05:05.000Z"},"geometry":{"type":"Point","coordinates":[16.430820462799254,7.245446614022317]}},{"type":"Feature","properties":{"title":"Central-African Republic World Resources Institute (WRI)","id":219,"area":737379.7092891647,"year":"2016","lastUpdated":"2016-11-26T10:20:34.384734","changesets":155,"mappers":5,"roads":1619.30133679952,"buildings":14,"edits":16970,"latest":"2016-10-27T02:51:28.000Z"},"geometry":{"type":"Point","coordinates":[20.306114780827503,6.34820156115798]}},{"type":"Feature","properties":{"title":"Central African Republic, Ouham, Markounda","id":526,"area":26.869048512066723,"year":"2016","lastUpdated":"2016-02-26T00:06:11.573890","changesets":60,"mappers":15,"roads":178.881869446715,"buildings":1061,"edits":2456,"latest":"2014-05-19T09:05:06.000Z"},"geometry":{"type":"Point","coordinates":[16.966448694815426,7.61868920108393]}},{"type":"Feature","properties":{"title":"Concern Worldwide Disaster Risk Reduction (pilot) Boyali, Central African Republic","id":4451,"area":1.9390617941603194,"year":"2018","lastUpdated":"2018-04-24T14:50:22.146428","changesets":0,"mappers":0,"roads":0,"buildings":0,"edits":0,"latest":null},"geometry":{"type":"Point","coordinates":[17.881910763609717,5.051965727912866]}},{"type":"Feature","properties":{"title":"Concern Worldwide Disaster Risk Reduction (pilot) Mbanko, Central African Republic","id":4450,"area":1.8526255318439828,"year":"2018","lastUpdated":"2018-04-24T15:27:49.285526","changesets":2,"mappers":1,"roads":5.62731420224133,"buildings":0,"edits":9,"latest":"2018-04-24T16:08:29.000Z"},"geometry":{"type":"Point","coordinates":[17.011505081182875,4.830940356346273]}},{"type":"Feature","properties":{"title":"Frontire Sud du Tchad : routes et zones rsidentielles/Chad Southern Border: roads and residential landuse","id":518,"area":308767.2532987346,"year":"2018","lastUpdated":"2018-06-12T12:36:02.768358","changesets":541,"mappers":36,"roads":1774.22244532686,"buildings":2214,"edits":6152,"latest":"2018-05-26T00:42:27.000Z"},"geometry":{"type":"Point","coordinates":[19.518585202362214,8.694653005390437]}}],"Colombia":[{"type":"Feature","properties":{"title":"Missing Maps: Turbaco, Colombia","id":4498,"area":37.402571812737214,"year":"2018","lastUpdated":"2018-07-18T21:43:05.422565","changesets":197,"mappers":27,"roads":16.2496098718118,"buildings":2125,"edits":2295,"latest":"2018-05-30T14:20:47.000Z"},"geometry":{"type":"Point","coordinates":[-75.45650482177734,10.34514778918985]}},{"type":"Feature","properties":{"title":"Missing Maps: San Juan de Pasto, Colombia","id":3967,"area":134.61429989136033,"year":"2018","lastUpdated":"2018-05-11T01:55:39.801162","changesets":3251,"mappers":292,"roads":252.506059048519,"buildings":35028,"edits":39239,"latest":"2018-05-07T21:23:10.000Z"},"geometry":{"type":"Point","coordinates":[-77.29604405173711,1.2270909116548077]}},{"type":"Feature","properties":{"title":"Missing Maps: Bucaramanga, Colombia","id":3975,"area":119.77785243564033,"year":"2018","lastUpdated":"2018-07-13T19:50:41.239988","changesets":3192,"mappers":517,"roads":369.654402083053,"buildings":55949,"edits":70952,"latest":"2018-07-28T17:19:32.000Z"},"geometry":{"type":"Point","coordinates":[-73.15325064346113,7.122835518515928]}},{"type":"Feature","properties":{"title":"Missing Maps: Manizales, Colombia","id":3966,"area":72.20940775033188,"year":"2018","lastUpdated":"2018-07-01T22:06:32.637965","changesets":3644,"mappers":272,"roads":262.4044442486,"buildings":48333,"edits":57649,"latest":"2018-07-09T08:28:11.000Z"},"geometry":{"type":"Point","coordinates":[-75.49124155213437,5.056056689553945]}},{"type":"Feature","properties":{"title":"CARTOCOSTA-URAB // COASTMAP-URAB, Turbo, Colombia (Turbo urban area)","id":3304,"area":25.20888360057874,"year":"2018","lastUpdated":"2018-03-02T13:27:22.208444","changesets":459,"mappers":53,"roads":16.8092113803972,"buildings":10439,"edits":10802,"latest":"2018-03-02T13:27:04.000Z"},"geometry":{"type":"Point","coordinates":[-76.7297885215835,8.09866496358627]}},{"type":"Feature","properties":{"title":"Miramar y Gambia, Buenaventura, Colombia","id":3662,"area":24.425411588105725,"year":"2017","lastUpdated":"2017-10-11T01:59:17.616071","changesets":36,"mappers":5,"roads":2.68141059086121,"buildings":253,"edits":286,"latest":"2017-10-11T02:16:55.000Z"},"geometry":{"type":"Point","coordinates":[-77.03279165683355,3.904580042454559]}},{"type":"Feature","properties":{"title":"Mt. Galeras, Colombia - Northern Cities at Risk","id":2783,"area":7.072281312205303,"year":"2018","lastUpdated":"2018-08-01T04:32:09.270815","changesets":245,"mappers":41,"roads":87.4910902112722,"buildings":2421,"edits":3242,"latest":"2018-08-01T04:31:45.000Z"},"geometry":{"type":"Point","coordinates":[-77.4152804023831,1.2881687207079593]}},{"type":"Feature","properties":{"title":"MAPCOAST-URABA, Turbo, Colombia (Eastern Side)","id":3302,"area":205.92340955355735,"year":"2017","lastUpdated":"2017-10-06T16:38:20.114660","changesets":469,"mappers":27,"roads":197.732662156157,"buildings":9154,"edits":10966,"latest":"2017-08-01T02:28:36.000Z"},"geometry":{"type":"Point","coordinates":[-76.73628486701675,8.078666963856094]}}],"Malawi":[{"type":"Feature","properties":{"title":"Katumba Songwe, Mbeya, Tanzania Mini Grids Project 01","id":4400,"area":38.180931167498045,"year":"2018","lastUpdated":"2018-04-12T09:09:59.185092","changesets":477,"mappers":58,"roads":1.86573763751187,"buildings":9477,"edits":9737,"latest":"2018-04-12T09:09:50.000Z"},"geometry":{"type":"Point","coordinates":[33.87519405982135,-9.66733130427923]}},{"type":"Feature","properties":{"title":"Missing Maps - Malawi - Nchewere","id":4786,"area":63.125753852058665,"year":"2018","lastUpdated":"2018-07-10T12:41:11.572302","changesets":387,"mappers":54,"roads":195.539001251755,"buildings":3212,"edits":3688,"latest":"2018-07-10T12:37:32.000Z"},"geometry":{"type":"Point","coordinates":[34.174610317515125,-10.321445695342208]}},{"type":"Feature","properties":{"title":"Missing Maps - Malawi - Chitipa","id":4139,"area":10483.53823408829,"year":"2018","lastUpdated":"2018-08-01T15:22:31.861808","changesets":7278,"mappers":696,"roads":10488.7671487201,"buildings":117147,"edits":166889,"latest":"2018-08-01T15:21:30.000Z"},"geometry":{"type":"Point","coordinates":[33.414076255588895,-9.822840295480221]}},{"type":"Feature","properties":{"title":"Missing Masp - Malawi - Bangula South-east","id":4113,"area":71.00413003396825,"year":"2018","lastUpdated":"2018-05-29T17:56:27.046186","changesets":223,"mappers":38,"roads":75.0060565637773,"buildings":2910,"edits":4201,"latest":"2018-05-29T18:28:32.000Z"},"geometry":{"type":"Point","coordinates":[35.16832243750663,-16.612015997197528]}},{"type":"Feature","properties":{"title":"Peace Corps Malawi -- Embangweni, Mzimba","id":2476,"area":269.5370587306771,"year":"2017","lastUpdated":"2017-09-20T12:23:35.488287","changesets":464,"mappers":128,"roads":518.557430006959,"buildings":3077,"edits":7777,"latest":"2018-03-14T12:42:31.000Z"},"geometry":{"type":"Point","coordinates":[33.4562284725,-12.130773614999999]}},{"type":"Feature","properties":{"title":"Missing Maps - Malawi - TA Chikumba (roads)","id":2298,"area":150.15157283923318,"year":"2017","lastUpdated":"2017-08-28T14:12:54.283306","changesets":1529,"mappers":119,"roads":1182.77977174999,"buildings":6958,"edits":22253,"latest":"2017-08-28T14:12:21.000Z"},"geometry":{"type":"Point","coordinates":[35.404504733227455,-16.041780590431358]}},{"type":"Feature","properties":{"title":"Missing Maps - Malawi - Nsanje South","id":3628,"area":66.18672691836431,"year":"2018","lastUpdated":"2018-01-31T00:01:17.095453","changesets":242,"mappers":25,"roads":199.681188672184,"buildings":5544,"edits":7837,"latest":"2018-01-31T00:01:13.000Z"},"geometry":{"type":"Point","coordinates":[35.25486946105957,-16.9723286413173]}},{"type":"Feature","properties":{"title":"Missing Maps - Malawi - Nsanje north-east","id":3952,"area":117.38792525999837,"year":"2018","lastUpdated":"2018-06-29T22:46:14.119636","changesets":1083,"mappers":166,"roads":588.500364020167,"buildings":17215,"edits":25494,"latest":"2018-06-29T22:46:10.000Z"},"geometry":{"type":"Point","coordinates":[35.27086703721364,-16.795308230120305]}},{"type":"Feature","properties":{"title":"Missing Maps - Malawi - TA Lundu (Buildings)","id":2311,"area":228.51892886625433,"year":"2017","lastUpdated":"2017-06-28T11:56:54.503004","changesets":836,"mappers":60,"roads":41.8100804549834,"buildings":11063,"edits":11364,"latest":"2017-02-21T17:45:05.000Z"},"geometry":{"type":"Point","coordinates":[34.861993300643434,-16.21781898586094]}},{"type":"Feature","properties":{"title":"Peace Corps Malawi -- Mikolongwe, Thyolo","id":2600,"area":36.17857650157155,"year":"2018","lastUpdated":"2018-06-20T04:21:05.997966","changesets":347,"mappers":47,"roads":155.91709837346,"buildings":6814,"edits":11822,"latest":"2018-06-20T04:17:47.000Z"},"geometry":{"type":"Point","coordinates":[35.164520800000005,-15.9033634]}},{"type":"Feature","properties":{"title":"Missing Maps - Malawi - TA Maseya (Buildings)","id":2309,"area":197.67633071782188,"year":"2016","lastUpdated":"2016-11-28T18:14:38.568203","changesets":1871,"mappers":77,"roads":137.092213223059,"buildings":9997,"edits":10424,"latest":"2017-01-26T07:04:12.000Z"},"geometry":{"type":"Point","coordinates":[34.866286169252206,-16.094315051572565]}},{"type":"Feature","properties":{"title":"Missing Maps - Malawi - Nsanje Southwest","id":3780,"area":30.89035919138131,"year":"2018","lastUpdated":"2018-03-18T14:18:56.171880","changesets":255,"mappers":35,"roads":107.045308155215,"buildings":1434,"edits":3575,"latest":"2018-03-18T14:25:09.000Z"},"geometry":{"type":"Point","coordinates":[35.191412624870914,-16.955228841779235]}},{"type":"Feature","properties":{"title":"Missing Maps: Lilongwe (north), Lilongwe District, Central Region, Malawi","id":2190,"area":215.24362358914928,"year":"2018","lastUpdated":"2018-06-25T04:39:35.531839","changesets":5489,"mappers":339,"roads":1569.76820208458,"buildings":49646,"edits":72461,"latest":"2018-07-05T05:47:22.000Z"},"geometry":{"type":"Point","coordinates":[33.79564905166625,-13.872780672455855]}},{"type":"Feature","properties":{"title":"Missing Maps - Malawi - Mwambo West (Buildings)","id":3100,"area":278.2275896931429,"year":"2017","lastUpdated":"2017-11-13T10:19:23.984291","changesets":1775,"mappers":93,"roads":17.0233371608273,"buildings":25502,"edits":25872,"latest":"2017-07-24T19:28:31.000Z"},"geometry":{"type":"Point","coordinates":[35.446619575884924,-15.453184046719608]}},{"type":"Feature","properties":{"title":"Missing Maps: Mzuzu, Malawi","id":1981,"area":43.59269845235998,"year":"2017","lastUpdated":"2017-02-14T15:44:34.992366","changesets":3354,"mappers":191,"roads":548.032225871739,"buildings":56545,"edits":72759,"latest":"2017-02-21T13:56:54.000Z"},"geometry":{"type":"Point","coordinates":[34.00998115539552,-11.44982566732664]}},{"type":"Feature","properties":{"title":"Malawi, Lower Shire Community Mapping, baseline data in flood prone areas","id":644,"area":6125.0729969100885,"year":"2017","lastUpdated":"2017-09-18T21:17:55.671597","changesets":0,"mappers":0,"roads":0,"buildings":0,"edits":0,"latest":null},"geometry":{"type":"Point","coordinates":[34.75555722358052,-16.26481306095839]}},{"type":"Feature","properties":{"title":"Peace Corps Malawi -- Chikwina","id":1847,"area":15.30237627828821,"year":"2017","lastUpdated":"2017-01-05T02:48:44.896301","changesets":262,"mappers":30,"roads":106.043879397822,"buildings":1138,"edits":2155,"latest":"2016-11-25T19:55:33.000Z"},"geometry":{"type":"Point","coordinates":[34.17408943176268,-11.395309126629073]}},{"type":"Feature","properties":{"title":"Peace Corps Malawi -- TA Chamba, Machinga","id":2599,"area":31.527637564309366,"year":"2018","lastUpdated":"2018-06-20T05:29:23.478733","changesets":251,"mappers":12,"roads":502.001448169999,"buildings":10788,"edits":14959,"latest":"2018-06-20T05:20:05.000Z"},"geometry":{"type":"Point","coordinates":[35.3974555,-15.19788]}},{"type":"Feature","properties":{"title":"Peace Corps Malawi -- Liwonde","id":2060,"area":223.5878549297584,"year":"2017","lastUpdated":"2017-10-16T14:55:21.323478","changesets":5412,"mappers":254,"roads":3040.87466745479,"buildings":29539,"edits":67223,"latest":"2018-02-18T00:17:20.000Z"},"geometry":{"type":"Point","coordinates":[35.2229118347168,-15.046146972913348]}},{"type":"Feature","properties":{"title":"Missing Maps - Malawi - Mangochi","id":2628,"area":42.67989252734085,"year":"2018","lastUpdated":"2018-03-05T15:55:57.062849","changesets":271,"mappers":37,"roads":85.1060703145913,"buildings":3050,"edits":4139,"latest":"2018-01-31T19:14:54.000Z"},"geometry":{"type":"Point","coordinates":[35.22654721275986,-14.417676907750192]}},{"type":"Feature","properties":{"title":"Missing Maps: Kasungu, Kasungu District, Central Region, Malawi","id":2305,"area":12.755952111791888,"year":"2018","lastUpdated":"2018-04-30T01:42:11.612704","changesets":1859,"mappers":75,"roads":0.740491095559204,"buildings":17244,"edits":17289,"latest":"2018-05-03T06:11:13.000Z"},"geometry":{"type":"Point","coordinates":[33.48679692848869,-13.036866216177447]}}],"Peru":[{"type":"Feature","properties":{"title":"Per Friaje (buildings)","id":4918,"area":22.54184080750059,"year":"2018","lastUpdated":"2018-08-02T02:35:17.591455","changesets":18,"mappers":7,"roads":13.9871414228341,"buildings":876,"edits":938,"latest":"2018-08-02T04:56:36.000Z"},"geometry":{"type":"Point","coordinates":[-75.62972482377388,-12.810101763687777]}},{"type":"Feature","properties":{"title":"Missing Maps - Peru - Iquitos","id":4586,"area":4968.712676885282,"year":"2018","lastUpdated":"2018-08-02T03:31:55.537419","changesets":1926,"mappers":215,"roads":447.631939101993,"buildings":16569,"edits":19115,"latest":"2018-08-02T03:28:25.000Z"},"geometry":{"type":"Point","coordinates":[-73.14220138876463,-3.6938852126741515]}},{"type":"Feature","properties":{"title":"La Convencin, Cusco, Peru","id":4689,"area":212.8099329331731,"year":"2018","lastUpdated":"2018-07-30T15:46:43.575583","changesets":475,"mappers":63,"roads":138.546609890052,"buildings":2527,"edits":3182,"latest":"2018-07-30T15:49:24.000Z"},"geometry":{"type":"Point","coordinates":[-72.44762454986555,-13.064793716872222]}},{"type":"Feature","properties":{"title":"Peru Flood Support 5: Cajamarquilla","id":2709,"area":2.4586436613224625,"year":"2018","lastUpdated":"2018-06-11T18:16:21.704604","changesets":335,"mappers":52,"roads":12.3498090151547,"buildings":6426,"edits":6837,"latest":"2018-06-11T18:13:47.000Z"},"geometry":{"type":"Point","coordinates":[-76.89585207559715,-11.974392120525716]}},{"type":"Feature","properties":{"title":"Peru Flood Support 4: Huarmey","id":2679,"area":26.19131548841877,"year":"2017","lastUpdated":"2017-11-23T22:12:34.419997","changesets":398,"mappers":76,"roads":124.370578824888,"buildings":7721,"edits":9553,"latest":"2017-11-23T22:12:17.000Z"},"geometry":{"type":"Point","coordinates":[-78.16002595984315,-10.086719711906468]}},{"type":"Feature","properties":{"title":"Chosica, Peru: Flood Prone Communities Mapathon 2017","id":2719,"area":44.733542291558976,"year":"2018","lastUpdated":"2018-03-23T20:54:29.418343","changesets":645,"mappers":57,"roads":71.7767115461587,"buildings":13487,"edits":14842,"latest":"2018-05-09T01:56:35.000Z"},"geometry":{"type":"Point","coordinates":[-76.71607020173401,-11.947297958484999]}},{"type":"Feature","properties":{"title":"Peru Flood Support 3: Yarabamba","id":2678,"area":16.628855937173377,"year":"2017","lastUpdated":"2017-03-31T02:42:57.223584","changesets":288,"mappers":23,"roads":218.371284808701,"buildings":6329,"edits":10429,"latest":"2017-04-03T18:08:12.000Z"},"geometry":{"type":"Point","coordinates":[-71.47170721776783,-16.540443813509714]}},{"type":"Feature","properties":{"title":"Missing Maps: Peru 2","id":3483,"area":1812.597278135107,"year":"2018","lastUpdated":"2018-07-21T10:41:47.110436","changesets":1578,"mappers":94,"roads":724.47255884779,"buildings":13029,"edits":18219,"latest":"2018-07-24T17:00:42.000Z"},"geometry":{"type":"Point","coordinates":[-76.41832351684572,-6.884780202993695]}},{"type":"Feature","properties":{"title":"Missing Maps: Chincha Alta, Peru","id":2668,"area":38.129794390110106,"year":"2018","lastUpdated":"2018-05-29T05:09:37.362477","changesets":4619,"mappers":286,"roads":31.8415239635002,"buildings":31617,"edits":32533,"latest":"2018-05-29T05:02:23.000Z"},"geometry":{"type":"Point","coordinates":[-76.14218099478583,-13.418756601711635]}},{"type":"Feature","properties":{"title":"Missing Maps: Peru 1","id":3482,"area":1305.0467467261167,"year":"2018","lastUpdated":"2018-06-23T20:39:21.412674","changesets":3961,"mappers":241,"roads":2228.97490371924,"buildings":28816,"edits":39598,"latest":"2018-06-23T20:39:20.000Z"},"geometry":{"type":"Point","coordinates":[-80.51987591911767,-5.580023059844556]}},{"type":"Feature","properties":{"title":"Cusco - MapGive Field Project","id":1159,"area":17.11640453338891,"year":"2017","lastUpdated":"2017-06-08T20:46:10.857165","changesets":371,"mappers":17,"roads":98.22305052942,"buildings":2736,"edits":4673,"latest":"2017-11-16T14:24:50.000Z"},"geometry":{"type":"Point","coordinates":[-71.94662683453983,-13.531786705480691]}},{"type":"Feature","properties":{"title":"Piura, Peru - West","id":1369,"area":141.85382801090756,"year":"2017","lastUpdated":"2017-03-30T04:42:12.703928","changesets":253,"mappers":53,"roads":35.6973703952655,"buildings":499,"edits":1726,"latest":"2018-01-04T16:48:43.000Z"},"geometry":{"type":"Point","coordinates":[-80.6360533020713,-5.1838490020712635]}}],"Liberia":[{"type":"Feature","properties":{"title":"Liberia, Harper City - Roads","id":4177,"area":69.41449577432539,"year":"2018","lastUpdated":"2018-07-18T19:36:59.551773","changesets":62,"mappers":15,"roads":36.14661357915,"buildings":285,"edits":510,"latest":"2018-07-17T04:33:42.000Z"},"geometry":{"type":"Point","coordinates":[-7.718349188329345,4.391962582234332]}},{"type":"Feature","properties":{"title":"Liberia LEGIT Project, Karnplay City","id":4935,"area":535.2995004776449,"year":"2018","lastUpdated":"2018-08-01T16:03:55.684486","changesets":288,"mappers":19,"roads":1.0089461419987,"buildings":2847,"edits":2907,"latest":"2018-08-01T16:03:44.000Z"},"geometry":{"type":"Point","coordinates":[-8.503938414759247,7.273782902248913]}},{"type":"Feature","properties":{"title":"Liberia, Harper City - Buildings","id":4176,"area":69.41449577432539,"year":"2018","lastUpdated":"2018-05-28T19:24:43.418800","changesets":396,"mappers":42,"roads":3.01488538310967,"buildings":2213,"edits":2267,"latest":"2018-05-28T18:36:47.000Z"},"geometry":{"type":"Point","coordinates":[-7.718349188329345,4.391962582234332]}},{"type":"Feature","properties":{"title":"Open Cities Africa, Monrovia - Liberia","id":4866,"area":0.7073673867283319,"year":"2018","lastUpdated":"2018-08-01T15:28:08.486376","changesets":72,"mappers":17,"roads":0.0555869747687268,"buildings":363,"edits":389,"latest":"2018-08-01T16:27:45.000Z"},"geometry":{"type":"Point","coordinates":[-10.792170767180165,6.328586129939864]}},{"type":"Feature","properties":{"title":"Missing Maps: Liberia HOT-DAI LEGIT Project, Zwedru City","id":2762,"area":525.9803600521059,"year":"2018","lastUpdated":"2018-02-01T11:52:49.121965","changesets":1022,"mappers":25,"roads":100.466430785606,"buildings":27321,"edits":32590,"latest":"2017-05-20T15:08:53.000Z"},"geometry":{"type":"Point","coordinates":[-8.134276408627542,6.068729914334357]}},{"type":"Feature","properties":{"title":"Missing Maps: Liberia HOT-DAI LEGIT Project, Gbarnga City","id":2774,"area":534.2429261970544,"year":"2017","lastUpdated":"2017-09-19T10:46:02.101523","changesets":1103,"mappers":9,"roads":132.494125350244,"buildings":22879,"edits":26361,"latest":"2017-04-27T05:12:27.000Z"},"geometry":{"type":"Point","coordinates":[-9.469451972634463,6.996262862242309]}},{"type":"Feature","properties":{"title":"UNMIL Liberia Places Import","id":652,"area":102973.57112477385,"year":"2015","lastUpdated":"2015-06-24T07:15:38.800120","changesets":0,"mappers":0,"roads":0,"buildings":0,"edits":0,"latest":null},"geometry":{"type":"Point","coordinates":[-9.919785110043811,7.052099714350509]}}],"Bangladesh":[{"type":"Feature","properties":{"title":"Bangladesh Refugee Crisis - tracing roads","id":4198,"area":26.01173793152424,"year":"2018","lastUpdated":"2018-03-01T17:21:16.866625","changesets":27,"mappers":5,"roads":11.5605598876846,"buildings":236,"edits":725,"latest":"2018-06-25T18:37:36.000Z"},"geometry":{"type":"Point","coordinates":[92.15142228477168,21.198855763106042]}},{"type":"Feature","properties":{"title":"Bangladesh Refugee Crisis camp mapping - NW of megacamp 3 Update","id":4891,"area":0.4833315559159053,"year":"2018","lastUpdated":"2018-07-29T17:28:52.440275","changesets":0,"mappers":0,"roads":0,"buildings":0,"edits":0,"latest":null},"geometry":{"type":"Point","coordinates":[92.14090672511095,21.210296467726188]}},{"type":"Feature","properties":{"title":"Mapping Flood Affected Communities in Bangladesh (Panchagarh, Rangpur)","id":3630,"area":1368.7065038384933,"year":"2018","lastUpdated":"2018-07-27T19:03:41.479339","changesets":23687,"mappers":1095,"roads":17146.9362860941,"buildings":931586,"edits":1068625,"latest":"2018-07-31T06:30:40.000Z"},"geometry":{"type":"Point","coordinates":[88.57763249131968,26.281538436679263]}},{"type":"Feature","properties":{"title":"Mirzapur, Bangladesh: Typhoid Burden Assessment","id":4170,"area":218.91877670477695,"year":"2018","lastUpdated":"2018-06-05T10:18:57.869782","changesets":1175,"mappers":78,"roads":771.443533008432,"buildings":95805,"edits":98475,"latest":"2018-06-05T11:08:04.000Z"},"geometry":{"type":"Point","coordinates":[90.09622216543468,24.098319907132247]}},{"type":"Feature","properties":{"title":"Missing Maps: Bangladesh, Barisal Sadar West","id":4002,"area":105.30820518035584,"year":"2018","lastUpdated":"2018-07-07T09:11:19.734798","changesets":1949,"mappers":252,"roads":620.033589593556,"buildings":75451,"edits":80211,"latest":"2018-07-21T09:43:41.000Z"},"geometry":{"type":"Point","coordinates":[90.30573887247904,22.732975915465744]}},{"type":"Feature","properties":{"title":"Mapping Flood Affected Communities in Bangladesh - Boalkhali, Chittagong","id":3653,"area":47.30207112961803,"year":"2018","lastUpdated":"2018-04-13T12:58:20.522063","changesets":1069,"mappers":142,"roads":136.299331779558,"buildings":8080,"edits":9911,"latest":"2018-04-13T12:57:34.000Z"},"geometry":{"type":"Point","coordinates":[91.99063814603366,22.42794566735508]}},{"type":"Feature","properties":{"title":"Mapping in Sirajganj, Bangladesh - SA activities","id":373,"area":12.233787905206839,"year":"2016","lastUpdated":"2016-12-16T10:21:55.994698","changesets":31,"mappers":4,"roads":36.8684954453731,"buildings":93,"edits":294,"latest":"2016-12-16T10:13:37.000Z"},"geometry":{"type":"Point","coordinates":[89.70885462874824,24.463170227477413]}},{"type":"Feature","properties":{"title":"Missing Maps : DRR programs in Ramna Union, Chilmari Upazila, Kurigram District, Bangladesh","id":1817,"area":20.940577932128985,"year":"2018","lastUpdated":"2018-03-05T16:15:33.763261","changesets":195,"mappers":19,"roads":67.2539227013279,"buildings":320,"edits":814,"latest":"2016-12-15T14:09:11.000Z"},"geometry":{"type":"Point","coordinates":[89.65631846414502,25.553206249992026]}}],"Turkey":[{"type":"Feature","properties":{"title":"Sultanbeyli district of Istanbul, Turkey","id":3649,"area":22.990164389266166,"year":"2017","lastUpdated":"2017-11-27T13:59:34.838531","changesets":944,"mappers":21,"roads":55.5558955147272,"buildings":36792,"edits":45887,"latest":"2017-11-08T01:42:09.000Z"},"geometry":{"type":"Point","coordinates":[29.27794587753237,40.96620316022682]}},{"type":"Feature","properties":{"title":"Bursa, TR - Missing Roads","id":4665,"area":134.8166451351369,"year":"2018","lastUpdated":"2018-06-19T10:42:41.324671","changesets":0,"mappers":0,"roads":0,"buildings":0,"edits":0,"latest":null},"geometry":{"type":"Point","coordinates":[28.90327635652379,40.20316575539866]}},{"type":"Feature","properties":{"title":"Bilecik, TR - Missing Roads","id":4663,"area":19.980684491644894,"year":"2018","lastUpdated":"2018-06-05T04:37:43.310811","changesets":0,"mappers":0,"roads":0,"buildings":0,"edits":0,"latest":null},"geometry":{"type":"Point","coordinates":[30.178193070111472,40.08540286856417]}},{"type":"Feature","properties":{"title":"Krklareli, TR - Missing Roads","id":4671,"area":23.070417115860916,"year":"2018","lastUpdated":"2018-07-26T08:45:35.499988","changesets":0,"mappers":0,"roads":0,"buildings":0,"edits":0,"latest":null},"geometry":{"type":"Point","coordinates":[27.391714163116273,41.60718562980086]}},{"type":"Feature","properties":{"title":"Sancaktepe District of Istanbul, Turkey","id":4205,"area":64.45740506563554,"year":"2018","lastUpdated":"2018-04-03T16:12:45.267358","changesets":1286,"mappers":143,"roads":46.7127395732424,"buildings":17146,"edits":18657,"latest":"2018-04-18T23:01:07.000Z"},"geometry":{"type":"Point","coordinates":[29.25523324685865,40.99946527670155]}},{"type":"Feature","properties":{"title":"Beyolu District of Istanbul, Turkey","id":4207,"area":8.976916187097956,"year":"2018","lastUpdated":"2018-07-22T18:07:52.746471","changesets":302,"mappers":34,"roads":1.67434867197883,"buildings":5117,"edits":5807,"latest":"2018-05-02T21:24:22.000Z"},"geometry":{"type":"Point","coordinates":[28.963020104785894,41.03966862443326]}}],"Democratic Republic of the Congo":[{"type":"Feature","properties":{"title":"DRC Road network: Equateur (main roads based on CI/OR data)","id":4530,"area":49783.31145279449,"year":"2018","lastUpdated":"2018-07-24T04:14:11.836571","changesets":0,"mappers":0,"roads":0,"buildings":0,"edits":0,"latest":null},"geometry":{"type":"Point","coordinates":[20.558732217941056,1.659996162720795]}},{"type":"Feature","properties":{"title":"Matete - Kisenso (DRR-Erosion)","id":4764,"area":5.970040735252853,"year":"2018","lastUpdated":"2018-08-01T16:31:55.379134","changesets":0,"mappers":0,"roads":0,"buildings":0,"edits":0,"latest":null},"geometry":{"type":"Point","coordinates":[15.339304126563874,-4.394328476368255]}},{"type":"Feature","properties":{"title":"2018 Ebola, Mangina, Nord-Kivu, DRC","id":4947,"area":177.96556480899602,"year":"2018","lastUpdated":"2018-08-02T05:56:56.913143","changesets":0,"mappers":0,"roads":0,"buildings":0,"edits":0,"latest":null},"geometry":{"type":"Point","coordinates":[29.3088623428375,0.6332459646849993]}},{"type":"Feature","properties":{"title":"Missing Maps: Sleeping Sickness in Maniema DR Congo - Lusangi","id":4839,"area":4259.872230869905,"year":"2018","lastUpdated":"2018-08-01T19:34:05.100291","changesets":0,"mappers":0,"roads":0,"buildings":0,"edits":0,"latest":null},"geometry":{"type":"Point","coordinates":[27.440327242821837,-4.520502235659915]}},{"type":"Feature","properties":{"title":"DRC Road network: Kivu (main roads based on CI/OR data)","id":4471,"area":38701.61965431843,"year":"2018","lastUpdated":"2018-08-01T18:16:53.120089","changesets":0,"mappers":0,"roads":0,"buildings":0,"edits":0,"latest":null},"geometry":{"type":"Point","coordinates":[27.499520779122957,-2.6038102755076293]}},{"type":"Feature","properties":{"title":"Missing Maps: Bachanga in South Kivu, Democratic Republic of Congo (Project 35)","id":4791,"area":0.5947063182625596,"year":"2018","lastUpdated":"2018-07-20T11:10:18.181407","changesets":0,"mappers":0,"roads":0,"buildings":0,"edits":0,"latest":null},"geometry":{"type":"Point","coordinates":[28.77049300345197,-4.91641637703107]}},{"type":"Feature","properties":{"title":"Missing Maps: Map Nyangi in South Kivu, Democratic Republic of Congo (Project 33)","id":4726,"area":1.491036847033257,"year":"2018","lastUpdated":"2018-07-27T07:35:16.195156","changesets":0,"mappers":0,"roads":0,"buildings":0,"edits":0,"latest":null},"geometry":{"type":"Point","coordinates":[28.839029505730498,-5.003375873425998]}},{"type":"Feature","properties":{"title":"Missing Maps: Sleeping Sickness in Maniema DR Congo - Samba","id":4472,"area":7333.222635221938,"year":"2018","lastUpdated":"2018-06-13T11:07:13.661632","changesets":0,"mappers":0,"roads":0,"buildings":0,"edits":0,"latest":null},"geometry":{"type":"Point","coordinates":[26.50016403861325,-4.518216616772377]}},{"type":"Feature","properties":{"title":"DRC Road network: Task 1/A (based on DIAF data in Kasai)","id":2881,"area":12996.209617402423,"year":"2018","lastUpdated":"2018-04-19T10:36:23.459056","changesets":0,"mappers":0,"roads":0,"buildings":0,"edits":0,"latest":null},"geometry":{"type":"Point","coordinates":[22.38012796538654,-4.787140318759613]}},{"type":"Feature","properties":{"title":"Missing Maps - Goma, DRC - Water and Sanitation - For intermediate mappers","id":2608,"area":53.739188152281926,"year":"2018","lastUpdated":"2018-07-23T14:11:41.294598","changesets":3307,"mappers":195,"roads":649.074396407178,"buildings":126765,"edits":148224,"latest":"2018-03-07T08:02:19.000Z"},"geometry":{"type":"Point","coordinates":[29.191817698016994,-1.6392672855790005]}},{"type":"Feature","properties":{"title":"Missing Maps: Map South Kivu, Democratic Republic of Congo (Project 27: Buildings)","id":4004,"area":16.160413324668365,"year":"2018","lastUpdated":"2018-06-12T15:20:05.015060","changesets":0,"mappers":0,"roads":0,"buildings":0,"edits":0,"latest":null},"geometry":{"type":"Point","coordinates":[29.136414914339618,-4.314837454773905]}},{"type":"Feature","properties":{"title":"Coastal Jiba HZ, Ituri, DRC","id":3477,"area":100.88965683887055,"year":"2017","lastUpdated":"2017-11-07T19:11:50.381921","changesets":107,"mappers":13,"roads":1.46307617982564,"buildings":197,"edits":277,"latest":"2017-11-07T19:11:08.000Z"},"geometry":{"type":"Point","coordinates":[30.77659077690273,1.7791525856931818]}},{"type":"Feature","properties":{"title":"Missing Maps: Sleeping Sickness in Maniema DR Congo - Kibombo","id":3288,"area":12606.952295364996,"year":"2018","lastUpdated":"2018-06-12T10:56:04.031896","changesets":524,"mappers":96,"roads":1390.07622955357,"buildings":1883,"edits":5082,"latest":"2018-06-10T07:15:38.000Z"},"geometry":{"type":"Point","coordinates":[25.431489186575085,-4.219075239036144]}},{"type":"Feature","properties":{"title":"Kinshasa Floods: Ndjili and surroundings - Streets, tracks, paths, waterways and landuse","id":1394,"area":116.43515629332788,"year":"2018","lastUpdated":"2018-04-18T09:42:25.857058","changesets":0,"mappers":0,"roads":0,"buildings":0,"edits":0,"latest":null},"geometry":{"type":"Point","coordinates":[15.391131770886144,-4.418562879455062]}},{"type":"Feature","properties":{"title":"DRC, Punia -- Updated Imagery, 26 September 2013","id":458,"area":122.47309125521444,"year":"2017","lastUpdated":"2017-02-28T22:42:27.499723","changesets":2042,"mappers":101,"roads":196.370317242088,"buildings":7786,"edits":10915,"latest":"2017-11-13T23:59:00.000Z"},"geometry":{"type":"Point","coordinates":[26.456089902567285,-1.4554908497974481]}},{"type":"Feature","properties":{"title":"Missing Maps: Map South Kivu, Democratic Republic of Congo (Project 19: Roads and residential areas)","id":1900,"area":818.0040497957068,"year":"2018","lastUpdated":"2018-06-16T14:01:59.446739","changesets":0,"mappers":0,"roads":0,"buildings":0,"edits":0,"latest":null},"geometry":{"type":"Point","coordinates":[28.955946986868536,-2.9191117856260433]}},{"type":"Feature","properties":{"title":"Kasese, DRC -- Updated Imagery, 15 September 2013","id":467,"area":128.861484993308,"year":"2016","lastUpdated":"2016-11-02T15:53:40.135705","changesets":46,"mappers":8,"roads":95.7653155482985,"buildings":306,"edits":663,"latest":"2015-02-15T02:18:48.000Z"},"geometry":{"type":"Point","coordinates":[27.083478915584788,-1.6022408997770268]}},{"type":"Feature","properties":{"title":"RD Congo, Sud-Kivu,  Uvira  *** Cholera","id":118,"area":379.32718130905545,"year":"2018","lastUpdated":"2018-01-13T22:29:35.160618","changesets":491,"mappers":18,"roads":1083.87440001913,"buildings":18759,"edits":26224,"latest":"2014-12-17T09:17:27.000Z"},"geometry":{"type":"Point","coordinates":[29.15451036260833,-3.3715125203645626]}},{"type":"Feature","properties":{"title":"RD Congo, Sud-Kivu, RN2 Kalengera - Burhale","id":140,"area":286.43473275139837,"year":"2017","lastUpdated":"2017-05-20T09:22:35.983280","changesets":278,"mappers":37,"roads":1187.56153726988,"buildings":3075,"edits":11427,"latest":"2017-12-21T08:16:51.000Z"},"geometry":{"type":"Point","coordinates":[28.681563983507512,-2.654987974630693]}},{"type":"Feature","properties":{"title":"Lac Kivu RD-Congo, Bukavu East","id":109,"area":53.120748552863866,"year":"2014","lastUpdated":"2014-12-04T16:09:58.684749","changesets":94,"mappers":8,"roads":145.694702944282,"buildings":1378,"edits":2988,"latest":"2013-01-06T23:41:47.000Z"},"geometry":{"type":"Point","coordinates":[28.876143364789694,-2.5301831318201486]}},{"type":"Feature","properties":{"title":"Kinshasa field data entry test VORONOI","id":2700,"area":133.89260629889745,"year":"2017","lastUpdated":"2017-05-24T08:58:02.021350","changesets":344,"mappers":2,"roads":1.40500077727434,"buildings":190,"edits":583,"latest":"2017-04-20T11:31:51.000Z"},"geometry":{"type":"Point","coordinates":[15.39942816735978,-4.416942874737792]}},{"type":"Feature","properties":{"title":"Missing Maps: Masisi territory, North Kivu, DRC (roads part 8)","id":2329,"area":391.02214329924004,"year":"2018","lastUpdated":"2018-03-16T16:31:10.923331","changesets":0,"mappers":0,"roads":0,"buildings":0,"edits":0,"latest":null},"geometry":{"type":"Point","coordinates":[29.055517397531492,-1.4509857210783343]}},{"type":"Feature","properties":{"title":"Missing Maps : Bunia, RDC","id":1910,"area":35.88869487068581,"year":"2018","lastUpdated":"2018-03-05T16:12:13.102204","changesets":2077,"mappers":142,"roads":324.222974555042,"buildings":33749,"edits":39586,"latest":"2016-09-08T13:37:18.000Z"},"geometry":{"type":"Point","coordinates":[30.251924270988688,1.555222300372935]}},{"type":"Feature","properties":{"title":"Missing Maps: Kambove, Katanga Province, Democratic Republic of Congo (DRC)","id":1655,"area":8.503859703790376,"year":"2018","lastUpdated":"2018-01-10T14:49:41.072180","changesets":0,"mappers":0,"roads":0,"buildings":0,"edits":0,"latest":null},"geometry":{"type":"Point","coordinates":[26.59701633453368,-10.87240201313124]}}],"Myanmar":[{"type":"Feature","properties":{"title":"Missing Maps: Mawlamyinegyun, Myanmar #4","id":3691,"area":508.81879909198335,"year":"2018","lastUpdated":"2018-07-19T06:09:16.973989","changesets":1637,"mappers":175,"roads":54.051024599214,"buildings":26187,"edits":26510,"latest":"2018-07-19T06:09:24.000Z"},"geometry":{"type":"Point","coordinates":[95.3965620438874,16.457677250918447]}},{"type":"Feature","properties":{"title":"Missing Maps: Thabaung, Myanmar 4","id":4162,"area":588.283853174881,"year":"2018","lastUpdated":"2018-07-02T15:31:09.817964","changesets":887,"mappers":101,"roads":189.43269413199,"buildings":5806,"edits":6385,"latest":"2018-07-02T15:31:15.000Z"},"geometry":{"type":"Point","coordinates":[94.62374782942722,17.19714219739823]}},{"type":"Feature","properties":{"title":"Missing Maps: Thabaung, Myanmar 2","id":4160,"area":440.6827719380873,"year":"2018","lastUpdated":"2018-07-29T22:22:17.472855","changesets":1371,"mappers":124,"roads":41.8816465052808,"buildings":21392,"edits":21673,"latest":"2018-07-29T22:22:14.000Z"},"geometry":{"type":"Point","coordinates":[94.9331397141187,17.066206912056927]}},{"type":"Feature","properties":{"title":"Missing Maps: Kangyidaunt, Myanmar 2","id":4159,"area":476.7682230265321,"year":"2018","lastUpdated":"2018-07-25T15:54:11.165083","changesets":2229,"mappers":199,"roads":237.867708168664,"buildings":21033,"edits":22237,"latest":"2018-07-26T14:13:42.000Z"},"geometry":{"type":"Point","coordinates":[94.94212214042263,16.85376643586638]}},{"type":"Feature","properties":{"title":"Missing Maps: Labutta, Myanmar 6","id":3746,"area":644.8385307654016,"year":"2018","lastUpdated":"2018-07-07T10:33:38.127202","changesets":0,"mappers":0,"roads":0,"buildings":0,"edits":0,"latest":null},"geometry":{"type":"Point","coordinates":[94.95503384677184,16.230090840628222]}},{"type":"Feature","properties":{"title":"Missing Maps: Ngapudaw, Myanmar 5","id":3809,"area":353.1244695270536,"year":"2018","lastUpdated":"2018-07-24T04:53:20.907031","changesets":1085,"mappers":106,"roads":128.529995487623,"buildings":11869,"edits":12662,"latest":"2018-07-24T04:53:21.000Z"},"geometry":{"type":"Point","coordinates":[94.50893752881959,16.40576127362447]}},{"type":"Feature","properties":{"title":"Missing Maps: Myaungmya, Myanmar (urban)","id":3798,"area":53.88744052798395,"year":"2018","lastUpdated":"2018-07-02T12:24:29.961264","changesets":1633,"mappers":143,"roads":11.3908745846784,"buildings":19424,"edits":20134,"latest":"2018-07-02T12:24:29.000Z"},"geometry":{"type":"Point","coordinates":[94.91455149550082,16.58923145052583]}},{"type":"Feature","properties":{"title":"Missing Maps: Ngapudaw, Myanmar 3","id":3807,"area":439.83707595362574,"year":"2018","lastUpdated":"2018-07-24T03:06:12.879033","changesets":1861,"mappers":185,"roads":182.222466685891,"buildings":28273,"edits":30346,"latest":"2018-07-24T03:06:08.000Z"},"geometry":{"type":"Point","coordinates":[94.59767165733061,16.392480203982295]}},{"type":"Feature","properties":{"title":"Missing Maps: Kyonmange, Myanmar (urban)","id":3799,"area":16.187365053806698,"year":"2018","lastUpdated":"2018-07-31T18:39:23.882447","changesets":525,"mappers":39,"roads":12.5220130115522,"buildings":5543,"edits":5815,"latest":"2018-07-31T18:37:50.000Z"},"geometry":{"type":"Point","coordinates":[95.1170449368066,16.435336118996727]}},{"type":"Feature","properties":{"title":"Missing Maps: Pyapon, Myanmar #2","id":3336,"area":569.7196286833451,"year":"2018","lastUpdated":"2018-07-04T05:11:53.365376","changesets":0,"mappers":0,"roads":0,"buildings":0,"edits":0,"latest":null},"geometry":{"type":"Point","coordinates":[95.61312064893197,15.968033641220504]}},{"type":"Feature","properties":{"title":"Missing Maps: Pyapon, Myanmar #1","id":3335,"area":704.0196862171777,"year":"2018","lastUpdated":"2018-07-06T15:57:50.231245","changesets":0,"mappers":0,"roads":0,"buildings":0,"edits":0,"latest":null},"geometry":{"type":"Point","coordinates":[95.35416484539562,15.788094481146144]}},{"type":"Feature","properties":{"title":"Missing Maps: Ngapudaw, Myanmar","id":2895,"area":236.3694164765761,"year":"2018","lastUpdated":"2018-07-03T11:49:47.700607","changesets":0,"mappers":0,"roads":0,"buildings":0,"edits":0,"latest":null},"geometry":{"type":"Point","coordinates":[94.70663942662026,16.51722917938823]}},{"type":"Feature","properties":{"title":"Mapping in Hpa-an, Myanmar - SA activities","id":368,"area":21.979402938789597,"year":"2017","lastUpdated":"2017-09-19T18:35:38.582658","changesets":252,"mappers":9,"roads":505.936266559858,"buildings":3574,"edits":6792,"latest":"2017-10-28T18:58:25.000Z"},"geometry":{"type":"Point","coordinates":[97.64815805984709,16.868976951016524]}},{"type":"Feature","properties":{"title":"Missing Maps: Dedaye, Myanmar #4","id":3343,"area":489.9566965470058,"year":"2018","lastUpdated":"2018-07-25T08:33:14.919841","changesets":0,"mappers":0,"roads":0,"buildings":0,"edits":0,"latest":null},"geometry":{"type":"Point","coordinates":[95.90425227572035,16.322551966730813]}},{"type":"Feature","properties":{"title":"Missing Maps: Mawlamyinegyun, Myanmar #2","id":3689,"area":543.1615470922078,"year":"2018","lastUpdated":"2018-07-19T07:17:48.806056","changesets":1273,"mappers":215,"roads":15.2356669115585,"buildings":18622,"edits":19066,"latest":"2018-07-19T07:17:50.000Z"},"geometry":{"type":"Point","coordinates":[95.2029856669928,16.336542852755816]}},{"type":"Feature","properties":{"title":"Myanmar Island Mapping","id":3422,"area":263.7703600625425,"year":"2018","lastUpdated":"2018-02-21T23:08:16.849174","changesets":73,"mappers":8,"roads":11.8503523208968,"buildings":357,"edits":429,"latest":"2018-02-21T23:07:16.000Z"},"geometry":{"type":"Point","coordinates":[98.10889107840401,12.211170939144498]}},{"type":"Feature","properties":{"title":"Missing Maps: Ngapudaw, Myanmar 2","id":3806,"area":652.3206626780748,"year":"2018","lastUpdated":"2018-07-21T15:43:37.972748","changesets":1552,"mappers":117,"roads":84.8134242900486,"buildings":27694,"edits":28723,"latest":"2018-07-21T15:49:19.000Z"},"geometry":{"type":"Point","coordinates":[94.31737836647596,16.14798338988928]}},{"type":"Feature","properties":{"title":"Missing Maps: Mawlamyinegyun, Myanmar #5 (urban)","id":3693,"area":147.4397184442369,"year":"2018","lastUpdated":"2018-07-06T16:04:07.770802","changesets":566,"mappers":126,"roads":9.54224261556333,"buildings":12794,"edits":13196,"latest":"2018-07-06T16:03:56.000Z"},"geometry":{"type":"Point","coordinates":[95.27690452913441,16.385542173430014]}},{"type":"Feature","properties":{"title":"Missing Maps: Mawlamyinegyun, Myanmar #1","id":3688,"area":267.95522733398417,"year":"2018","lastUpdated":"2018-07-19T07:03:50.101519","changesets":626,"mappers":100,"roads":9.92578145649791,"buildings":8026,"edits":8118,"latest":"2018-07-19T07:03:51.000Z"},"geometry":{"type":"Point","coordinates":[95.10533091768269,16.22352191657049]}}],"Benin":[{"type":"Feature","properties":{"title":"Map & Jerry","id":4343,"area":317.29186376347053,"year":"2018","lastUpdated":"2018-08-01T20:04:49.591150","changesets":0,"mappers":0,"roads":0,"buildings":0,"edits":0,"latest":null},"geometry":{"type":"Point","coordinates":[1.8034636010098666,6.321751338384097]}},{"type":"Feature","properties":{"title":"Cotonou Littoral Benin","id":3796,"area":72.19647399594001,"year":"2018","lastUpdated":"2018-07-01T11:51:21.342816","changesets":920,"mappers":34,"roads":15.7257696541386,"buildings":27166,"edits":27839,"latest":"2018-07-31T01:04:37.000Z"},"geometry":{"type":"Point","coordinates":[2.4267013848108645,6.363534284716102]}},{"type":"Feature","properties":{"title":"Peace Corps Benin -- Oroukayo","id":2244,"area":0.49873485017171465,"year":"2018","lastUpdated":"2018-08-01T05:32:33.993441","changesets":261,"mappers":15,"roads":8.8172689726943,"buildings":1231,"edits":1579,"latest":"2017-03-25T23:24:25.000Z"},"geometry":{"type":"Point","coordinates":[1.6565072536468497,10.298969593602916]}},{"type":"Feature","properties":{"title":" Benin, consolidated mapping, Base Roads Check","id":1232,"area":22236.18401687507,"year":"2017","lastUpdated":"2017-07-10T06:41:25.007061","changesets":1831,"mappers":35,"roads":22476.0004764725,"buildings":11519,"edits":56197,"latest":"2017-07-10T06:46:42.000Z"},"geometry":{"type":"Point","coordinates":[2.3016703566227097,9.031436130808252]}},{"type":"Feature","properties":{"title":"Cartographie de la commune de Parakou- Tche N2","id":1413,"area":36.958676327254,"year":"2017","lastUpdated":"2017-04-13T15:47:18.580172","changesets":0,"mappers":0,"roads":0,"buildings":0,"edits":0,"latest":null},"geometry":{"type":"Point","coordinates":[2.6311927683213177,9.377306528590461]}},{"type":"Feature","properties":{"title":"Peace Corps Benin ","id":2198,"area":55.38597882039444,"year":"2018","lastUpdated":"2018-08-01T05:41:13.513163","changesets":2535,"mappers":278,"roads":451.730414043168,"buildings":29663,"edits":37531,"latest":"2018-08-01T05:40:29.000Z"},"geometry":{"type":"Point","coordinates":[2.1458883063737737,10.231293024351888]}},{"type":"Feature","properties":{"title":"Cartographie de Parakou - EOF 2013","id":302,"area":22.41710471837181,"year":"2017","lastUpdated":"2017-04-23T12:32:48.996384","changesets":1837,"mappers":8,"roads":121.341340234675,"buildings":11879,"edits":12765,"latest":"2018-04-14T13:25:00.000Z"},"geometry":{"type":"Point","coordinates":[2.6231956478282625,9.340690595601995]}},{"type":"Feature","properties":{"title":"Cartographie de la commune de Porga-Benin","id":4914,"area":3.6335771421367755,"year":"2018","lastUpdated":"2018-07-26T21:12:55.636341","changesets":22,"mappers":4,"roads":0,"buildings":94,"edits":94,"latest":"2018-07-26T21:12:41.000Z"},"geometry":{"type":"Point","coordinates":[0.9914506256915466,11.004080474232538]}},{"type":"Feature","properties":{"title":"Missing Maps: Dangbo, Benin","id":2037,"area":8.901602462274079,"year":"2018","lastUpdated":"2018-04-08T14:34:10.968052","changesets":338,"mappers":31,"roads":56.9895503678963,"buildings":3437,"edits":4862,"latest":"2018-04-08T14:38:32.000Z"},"geometry":{"type":"Point","coordinates":[2.5524044036865225,6.58779057325721]}}],"Laos":[{"type":"Feature","properties":{"title":"LAOS - Attapeu Dam Collapse - Project 02","id":4946,"area":482.6506199745622,"year":"2018","lastUpdated":"2018-08-02T05:58:32.810296","changesets":173,"mappers":28,"roads":44.3992924731965,"buildings":1138,"edits":1283,"latest":"2018-08-02T05:28:57.000Z"},"geometry":{"type":"Point","coordinates":[106.228269226725,14.800602085815001]}},{"type":"Feature","properties":{"title":"Missing Maps - Nong district, Laos Step 1","id":2551,"area":83.38623118459611,"year":"2017","lastUpdated":"2017-09-02T18:51:43.430943","changesets":158,"mappers":30,"roads":200.345418159611,"buildings":210,"edits":998,"latest":"2017-09-02T18:50:31.000Z"},"geometry":{"type":"Point","coordinates":[106.41184573024294,16.460634750548884]}},