{"totalEdits":44942540,"totalBuildings":37468220,"totalRoads":942389.847303553,"mappersOnline":95,"totalTasksMapped":1786992,"totalMappers":153959,"totalProjects":4315,"Russia":[{"type":"Feature","properties":{"id":5080,"title":"Ryazan, RU - Road Alignment","status":"PUBLISHED","created":"2018","lastUpdated":"2018","lastActive":"no","area":28.47380571426955,"changesets":33,"mappers":1,"roads":1.42742427154212,"buildings":102,"edits":709,"latest":"2018-11-16T22:25:01.000Z"},"geometry":{"type":"Point","coordinates":[40.2725467479178,54.1247114552182]}},{"type":"Feature","properties":{"id":5078,"title":"Vladmi, RU - Road Alignment","status":"PUBLISHED","created":"2018","lastUpdated":"2018","lastActive":"no","area":19.39018729280983,"changesets":11,"mappers":1,"roads":0.0993819937216351,"buildings":0,"edits":136,"latest":"2018-11-15T20:12:22.000Z"},"geometry":{"type":"Point","coordinates":[41.4000375718571,56.0011972964679]}},{"type":"Feature","properties":{"id":5076,"title":"Kostroma, RU - Road Alignment","status":"PUBLISHED","created":"2018","lastUpdated":"2018","lastActive":"no","area":16.55786446991269,"changesets":15,"mappers":1,"roads":5.17449485836067,"buildings":50,"edits":265,"latest":"2018-11-13T22:32:46.000Z"},"geometry":{"type":"Point","coordinates":[43.391536924522,58.3815490365323]}},{"type":"Feature","properties":{"id":5117,"title":"Zabaykalsk, RU - Road Alignment","status":"PUBLISHED","created":"2018","lastUpdated":"2018","lastActive":"no","area":15.535301906848705,"changesets":0,"mappers":0,"roads":0,"buildings":0,"edits":0,"latest":null},"geometry":{"type":"Point","coordinates":[115.893622536766,50.898877166788]}},{"type":"Feature","properties":{"id":5115,"title":"Krasnoyarsk, RU - Road Alignment","status":"PUBLISHED","created":"2018","lastUpdated":"2018","lastActive":"no","area":22.824888459707374,"changesets":78,"mappers":1,"roads":15.4802476295007,"buildings":108,"edits":630,"latest":"2018-10-20T05:40:12.000Z"},"geometry":{"type":"Point","coordinates":[93.4116099617817,57.0117959504218]}},{"type":"Feature","properties":{"id":5081,"title":"Tambov, RU - Road Alignment","status":"PUBLISHED","created":"2018","lastUpdated":"2018","lastActive":"no","area":26.18715669406076,"changesets":2,"mappers":2,"roads":0.00403649833909725,"buildings":1,"edits":32,"latest":"2018-11-19T18:17:20.000Z"},"geometry":{"type":"Point","coordinates":[41.3729375849855,52.7601922019812]}},{"type":"Feature","properties":{"id":5097,"title":"Mari El, RU - Road Alignment","status":"PUBLISHED","created":"2018","lastUpdated":"2018","lastActive":"no","area":2.1194954020724452,"changesets":9,"mappers":1,"roads":0.126755578113588,"buildings":0,"edits":45,"latest":"2018-10-04T16:23:52.000Z"},"geometry":{"type":"Point","coordinates":[48.561181273909,56.5923240658307]}},{"type":"Feature","properties":{"id":5032,"title":"Murmansk, RU - Road Alignment","status":"PUBLISHED","created":"2018","lastUpdated":"2018","lastActive":"no","area":6.135141048257239,"changesets":14,"mappers":6,"roads":0.689965285509894,"buildings":0,"edits":42,"latest":"2018-12-24T16:27:16.000Z"},"geometry":{"type":"Point","coordinates":[32.1535937499972,68.1519441236096]}},{"type":"Feature","properties":{"id":5038,"title":"Novgorod, RU - Road Alignment","status":"PUBLISHED","created":"2018","lastUpdated":"2018","lastActive":"no","area":10.46150373873454,"changesets":0,"mappers":0,"roads":0,"buildings":0,"edits":0,"latest":null},"geometry":{"type":"Point","coordinates":[31.9263050659094,58.2489414609353]}},{"type":"Feature","properties":{"id":5046,"title":"Komi, RU - Road Alignment","status":"PUBLISHED","created":"2018","lastUpdated":"2018","lastActive":"no","area":14.971932687664575,"changesets":1,"mappers":1,"roads":0.00554685444333487,"buildings":0,"edits":3,"latest":"2018-10-09T20:34:56.000Z"},"geometry":{"type":"Point","coordinates":[54.8314035068119,63.1269365587441]}},{"type":"Feature","properties":{"id":5036,"title":"Kalingrad, RU - Road Alignment","status":"PUBLISHED","created":"2018","lastUpdated":"2018","lastActive":"no","area":8.85709870763704,"changesets":62,"mappers":4,"roads":21.3250871322619,"buildings":42,"edits":1565,"latest":"2018-11-29T21:32:22.000Z"},"geometry":{"type":"Point","coordinates":[21.2683677067525,54.7166459195005]}},{"type":"Feature","properties":{"id":5072,"title":"Oryol, RU - Road Alignment","status":"PUBLISHED","created":"2018","lastUpdated":"2018","lastActive":"no","area":16.540756268279804,"changesets":0,"mappers":0,"roads":0,"buildings":0,"edits":0,"latest":null},"geometry":{"type":"Point","coordinates":[36.5339864599229,52.7957040500738]}},{"type":"Feature","properties":{"id":5085,"title":"Kalmykia, RU - Road Alignment","status":"PUBLISHED","created":"2018","lastUpdated":"2018","lastActive":"no","area":10.056908395488977,"changesets":10,"mappers":1,"roads":4.37148898049341,"buildings":12,"edits":202,"latest":"2018-10-31T16:42:50.000Z"},"geometry":{"type":"Point","coordinates":[44.9932637551155,46.0090609593374]}},{"type":"Feature","properties":{"id":5091,"title":"Adygeya, RU - Road Alignment","status":"PUBLISHED","created":"2018","lastUpdated":"2018","lastActive":"no","area":3.5556777849193764,"changesets":13,"mappers":1,"roads":0.34216005800038,"buildings":2,"edits":224,"latest":"2018-10-29T19:34:26.000Z"},"geometry":{"type":"Point","coordinates":[39.6558268279716,44.8484239957608]}},{"type":"Feature","properties":{"id":5095,"title":"Ulianovsk, RU - Road Alignment","status":"PUBLISHED","created":"2018","lastUpdated":"2018","lastActive":"no","area":10.512720117766863,"changesets":13,"mappers":1,"roads":0.195155068289131,"buildings":0,"edits":78,"latest":"2018-11-01T07:42:38.000Z"},"geometry":{"type":"Point","coordinates":[48.0134617931904,53.772705368293]}},{"type":"Feature","properties":{"id":5087,"title":"Ingushetia, RU - Road Alignment","status":"PUBLISHED","created":"2018","lastUpdated":"2018","lastActive":"no","area":5.5580742626089785,"changesets":2,"mappers":1,"roads":0.037670290924601,"buildings":0,"edits":14,"latest":"2018-10-30T15:42:37.000Z"},"geometry":{"type":"Point","coordinates":[44.9998103358445,43.2859058104622]}},{"type":"Feature","properties":{"id":5107,"title":"Omsk, RU - Road Alignment","status":"PUBLISHED","created":"2018","lastUpdated":"2018","lastActive":"no","area":18.92588387234162,"changesets":5,"mappers":1,"roads":0.0915746009074978,"buildings":0,"edits":23,"latest":"2018-10-24T15:05:46.000Z"},"geometry":{"type":"Point","coordinates":[73.1251378094216,55.4331855578523]}},{"type":"Feature","properties":{"id":5083,"title":"Saratov, RU - Road Alignment","status":"PUBLISHED","created":"2018","lastUpdated":"2018","lastActive":"no","area":32.40097117720466,"changesets":34,"mappers":1,"roads":0.77353210229752,"buildings":6,"edits":341,"latest":"2018-10-28T13:14:20.000Z"},"geometry":{"type":"Point","coordinates":[46.1811223773877,51.5916763633425]}},{"type":"Feature","properties":{"id":5093,"title":"Stavropol, RU - Road Alignment","status":"PUBLISHED","created":"2018","lastUpdated":"2018","lastActive":"no","area":39.278249308473754,"changesets":9,"mappers":1,"roads":0.142855842145349,"buildings":0,"edits":56,"latest":"2018-11-01T06:46:47.000Z"},"geometry":{"type":"Point","coordinates":[42.9341936478082,44.7607848987624]}},{"type":"Feature","properties":{"id":5103,"title":"Perm, RU - Road Alignment","status":"PUBLISHED","created":"2018","lastUpdated":"2018","lastActive":"no","area":19.050963663499118,"changesets":36,"mappers":2,"roads":1.89355946602952,"buildings":10,"edits":284,"latest":"2018-10-17T18:01:41.000Z"},"geometry":{"type":"Point","coordinates":[55.8676360593071,57.9984261773804]}},{"type":"Feature","properties":{"id":5089,"title":"Kabardino-Balkaria, RU - Road Alignment","status":"PUBLISHED","created":"2018","lastUpdated":"2018","lastActive":"no","area":23.622718462797803,"changesets":66,"mappers":1,"roads":24.6938510572666,"buildings":1330,"edits":2024,"latest":"2018-11-23T20:22:29.000Z"},"geometry":{"type":"Point","coordinates":[43.9811521507747,43.5359455756532]}},{"type":"Feature","properties":{"id":5099,"title":"Samara, RU - Road Alignment","status":"PUBLISHED","created":"2018","lastUpdated":"2018","lastActive":"no","area":30.485075606543912,"changesets":154,"mappers":1,"roads":22.7766838309259,"buildings":611,"edits":2758,"latest":"2018-12-26T14:53:31.000Z"},"geometry":{"type":"Point","coordinates":[50.3445307565892,53.3708217054506]}},{"type":"Feature","properties":{"id":5113,"title":"Khakassia, RU - Road Alignment","status":"PUBLISHED","created":"2018","lastUpdated":"2018","lastActive":"no","area":2.2758892585070725,"changesets":15,"mappers":1,"roads":2.89320533561135,"buildings":1,"edits":62,"latest":"2018-10-28T13:13:05.000Z"},"geometry":{"type":"Point","coordinates":[91.0513384700272,53.6367519341592]}},{"type":"Feature","properties":{"id":5034,"title":"Leningrad, RU - Road Alignment","status":"PUBLISHED","created":"2018","lastUpdated":"2018","lastActive":"no","area":23.54027298174626,"changesets":2,"mappers":1,"roads":0.0224792879778619,"buildings":0,"edits":6,"latest":"2018-10-28T21:26:36.000Z"},"geometry":{"type":"Point","coordinates":[30.839409774744,60.1248894787618]}},{"type":"Feature","properties":{"id":5050,"title":"Moscow, RU - Road Alignment","status":"PUBLISHED","created":"2018","lastUpdated":"2019","lastActive":"yes","area":67.22729165523474,"changesets":1387,"mappers":30,"roads":499.479186542996,"buildings":3009,"edits":21285,"latest":"2019-01-21T09:45:34.000Z"},"geometry":{"type":"Point","coordinates":[37.5334085802161,55.6984793925584]}},{"type":"Feature","properties":{"id":5044,"title":"Arkhangelsk, RU - Road Alignment","status":"PUBLISHED","created":"2018","lastUpdated":"2018","lastActive":"no","area":12.606328751411732,"changesets":7,"mappers":1,"roads":0.839928983903169,"buildings":6,"edits":251,"latest":"2018-11-06T15:55:43.000Z"},"geometry":{"type":"Point","coordinates":[42.0930614019958,62.114544765511]}},{"type":"Feature","properties":{"id":5077,"title":"Ivanovo, RU - Road Alignment","status":"PUBLISHED","created":"2018","lastUpdated":"2018","lastActive":"no","area":13.702294049661324,"changesets":36,"mappers":1,"roads":1.82352967283976,"buildings":5,"edits":214,"latest":"2018-11-20T10:31:06.000Z"},"geometry":{"type":"Point","coordinates":[41.5762520611261,56.9819705148539]}},{"type":"Feature","properties":{"id":5048,"title":"Bryansk, RU - Road Alignment","status":"PUBLISHED","created":"2018","lastUpdated":"2018","lastActive":"no","area":30.262723825140842,"changesets":8,"mappers":1,"roads":1.09229506192473,"buildings":1,"edits":39,"latest":"2018-10-28T12:49:03.000Z"},"geometry":{"type":"Point","coordinates":[33.4570235672206,53.0043322730238]}},{"type":"Feature","properties":{"id":5075,"title":"Lipetsk, RU - Road Alignment","status":"PUBLISHED","created":"2018","lastUpdated":"2018","lastActive":"no","area":12.278823639779748,"changesets":24,"mappers":1,"roads":2.47261798372648,"buildings":281,"edits":652,"latest":"2018-11-10T00:49:57.000Z"},"geometry":{"type":"Point","coordinates":[39.1004986289472,52.6545859654903]}},{"type":"Feature","properties":{"id":5040,"title":"Tver, RU - Road Alignment","status":"PUBLISHED","created":"2018","lastUpdated":"2018","lastActive":"no","area":23.79800173254469,"changesets":30,"mappers":1,"roads":4.08514426550506,"buildings":13,"edits":377,"latest":"2018-11-06T18:49:45.000Z"},"geometry":{"type":"Point","coordinates":[34.6891817016017,56.9824041620985]}},{"type":"Feature","properties":{"id":5105,"title":"Kurgan, RU - Road Alignment","status":"PUBLISHED","created":"2018","lastUpdated":"2018","lastActive":"no","area":10.828553519234841,"changesets":19,"mappers":1,"roads":2.15622438545207,"buildings":1,"edits":123,"latest":"2018-10-28T13:16:40.000Z"},"geometry":{"type":"Point","coordinates":[65.1515824192141,55.1397216389689]}},{"type":"Feature","properties":{"id":5079,"title":"Nizhny Novgorod, RU - Road Alignment","status":"PUBLISHED","created":"2018","lastUpdated":"2018","lastActive":"no","area":23.49516750453581,"changesets":37,"mappers":2,"roads":6.19314781133766,"buildings":0,"edits":61,"latest":"2018-12-06T06:48:53.000Z"},"geometry":{"type":"Point","coordinates":[44.5683003348931,55.6787726091367]}},{"type":"Feature","properties":{"id":5119,"title":"Sakha, RU - Road Alignment","status":"PUBLISHED","created":"2018","lastUpdated":"2018","lastActive":"no","area":33.426355275199285,"changesets":0,"mappers":0,"roads":0,"buildings":0,"edits":0,"latest":null},"geometry":{"type":"Point","coordinates":[124.725706215512,61.3401873829566]}},{"type":"Feature","properties":{"id":5111,"title":"Tomsk, RU - Road Alignment","status":"PUBLISHED","created":"2018","lastUpdated":"2018","lastActive":"no","area":8.291597604665306,"changesets":5,"mappers":1,"roads":0.629914577296326,"buildings":5,"edits":37,"latest":"2018-10-20T21:50:51.000Z"},"geometry":{"type":"Point","coordinates":[83.3986752670868,57.7318453073323]}},{"type":"Feature","properties":{"id":5123,"title":"Magadan, RU - Road Alignment","status":"PUBLISHED","created":"2018","lastUpdated":"2018","lastActive":"no","area":5.034648396223297,"changesets":8,"mappers":2,"roads":0.100892516868918,"buildings":0,"edits":39,"latest":"2018-12-22T01:50:43.000Z"},"geometry":{"type":"Point","coordinates":[151.195448468034,60.5667867782767]}},{"type":"Feature","properties":{"id":5101,"title":"Orenburg, RU - Road Alignment","status":"PUBLISHED","created":"2018","lastUpdated":"2018","lastActive":"no","area":62.971849944699215,"changesets":22,"mappers":1,"roads":3.45699288107569,"buildings":53,"edits":181,"latest":"2018-10-24T08:43:40.000Z"},"geometry":{"type":"Point","coordinates":[54.8065548783445,52.0610390047715]}},{"type":"Feature","properties":{"id":5109,"title":"Khantia-Mansia, RU - Road Alignment","status":"PUBLISHED","created":"2018","lastUpdated":"2018","lastActive":"no","area":30.253087893790546,"changesets":15,"mappers":1,"roads":4.51497994941806,"buildings":10,"edits":99,"latest":"2018-11-06T07:57:43.000Z"},"geometry":{"type":"Point","coordinates":[71.975901037221,61.2624729564418]}},{"type":"Feature","properties":{"id":5121,"title":"Sakhalin, RU - Road Alignment","status":"PUBLISHED","created":"2018","lastUpdated":"2018","lastActive":"no","area":5.566677215936195,"changesets":5,"mappers":1,"roads":1.36468434946041,"buildings":3,"edits":40,"latest":"2018-10-24T17:19:44.000Z"},"geometry":{"type":"Point","coordinates":[142.738432590344,48.9062608568148]}}],"totalArea":2402878599.253697,"South Sudan":[{"type":"Feature","properties":{"id":739,"title":"Please delete","status":"ARCHIVED","created":"2014","lastUpdated":"2014","lastActive":"no","area":12.914225555426375,"changesets":0,"mappers":0,"roads":0,"buildings":0,"edits":0,"latest":null},"geometry":{"type":"Point","coordinates":[30.0993478082551,8.37008784333707]}},{"type":"Feature","properties":{"id":2524,"title":"Missing Maps: Aweil, South Sudan (part 2e - residential areas and buildings)","status":"ARCHIVED","created":"2017","lastUpdated":"2018","lastActive":"no","area":987.211933749271,"changesets":3810,"mappers":224,"roads":262.336186170847,"buildings":25208,"edits":26720,"latest":"2017-05-14T02:11:51.000Z"},"geometry":{"type":"Point","coordinates":[27.8258349790104,8.84254089128961]}},{"type":"Feature","properties":{"id":413,"title":"South Sudan, Upper Nile State, Malakal - NextView-2 imagery December 6, 2013 ","status":"PUBLISHED","created":"2014","lastUpdated":"2018","lastActive":"no","area":64.61008475631807,"changesets":0,"mappers":0,"roads":0,"buildings":0,"edits":0,"latest":null},"geometry":{"type":"Point","coordinates":[31.6713348377633,9.52861821939096]}},{"type":"Feature","properties":{"id":401,"title":"South Sudan, Lakes State, Minkamman","status":"PUBLISHED","created":"2014","lastUpdated":"2015","lastActive":"no","area":15.842749276188403,"changesets":0,"mappers":0,"roads":0,"buildings":0,"edits":0,"latest":null},"geometry":{"type":"Point","coordinates":[31.5038061105877,6.05181712251345]}},{"type":"Feature","properties":{"id":407,"title":"South Sudan, Unity State, Mayom","status":"PUBLISHED","created":"2014","lastUpdated":"2015","lastActive":"no","area":17.52412809521091,"changesets":1,"mappers":1,"roads":0,"buildings":1,"edits":1,"latest":"2018-09-13T19:20:34.000Z"},"geometry":{"type":"Point","coordinates":[29.1715769451834,9.22523656567327]}},{"type":"Feature","properties":{"id":938,"title":"Missing Maps: Mayendit region villages, South Sudan","status":"ARCHIVED","created":"2015","lastUpdated":"2016","lastActive":"no","area":200.2179534116658,"changesets":234,"mappers":21,"roads":181.5922188658,"buildings":2007,"edits":3172,"latest":"2015-04-02T11:28:55.000Z"},"geometry":{"type":"Point","coordinates":[30.1187961577049,8.70313198852207]}},{"type":"Feature","properties":{"id":3624,"title":"Missing Maps: Malakal, South Sudan (Buildings and roads)","status":"PUBLISHED","created":"2017","lastUpdated":"2018","lastActive":"no","area":722.7253359424985,"changesets":1768,"mappers":159,"roads":1195.7743673706,"buildings":16979,"edits":24091,"latest":"2018-12-28T20:06:29.000Z"},"geometry":{"type":"Point","coordinates":[31.8305434787959,9.68479232119759]}},{"type":"Feature","properties":{"id":2351,"title":"Humanitarian Contingency Planning.","status":"PUBLISHED","created":"2016","lastUpdated":"2017","lastActive":"no","area":97.390088646247,"changesets":78,"mappers":15,"roads":37.6352563041895,"buildings":462,"edits":1045,"latest":"2018-12-06T17:14:59.000Z"},"geometry":{"type":"Point","coordinates":[31.5812870236292,4.85521532217151]}},{"type":"Feature","properties":{"id":1049,"title":"Missing Maps: ACC, Unity State, South Sudan - Task 1","status":"ARCHIVED","created":"2015","lastUpdated":"2015","lastActive":"no","area":2116.899958643865,"changesets":0,"mappers":0,"roads":0,"buildings":0,"edits":0,"latest":null},"geometry":{"type":"Point","coordinates":[29.835547003451,9.00301969339811]}},{"type":"Feature","properties":{"id":2520,"title":"Missing Maps: Aweil, South Sudan (part 2a - residential areas and buildings)","status":"ARCHIVED","created":"2017","lastUpdated":"2018","lastActive":"no","area":982.1022110735039,"changesets":3939,"mappers":253,"roads":255.10945055196,"buildings":22161,"edits":24009,"latest":"2018-01-27T20:18:39.000Z"},"geometry":{"type":"Point","coordinates":[27.5766854725649,9.31490456620068]}},{"type":"Feature","properties":{"id":2393,"title":"Missing Maps: Aweil, South Sudan (task 1 - residential areas and buildings)","status":"ARCHIVED","created":"2016","lastUpdated":"2017","lastActive":"no","area":3717.3638408593797,"changesets":1557,"mappers":103,"roads":151.228972446187,"buildings":15661,"edits":17173,"latest":"2017-02-06T15:20:12.000Z"},"geometry":{"type":"Point","coordinates":[27.123702340495,9.03486280162733]}},{"type":"Feature","properties":{"id":2522,"title":"Missing Maps: Aweil, South Sudan (part 2c - residential areas and buildings)","status":"ARCHIVED","created":"2017","lastUpdated":"2018","lastActive":"no","area":842.7910298095254,"changesets":4081,"mappers":340,"roads":151.621270814046,"buildings":36990,"edits":38482,"latest":"2017-05-20T17:28:41.000Z"},"geometry":{"type":"Point","coordinates":[27.6748979813156,9.05936442024307]}},{"type":"Feature","properties":{"id":2655,"title":"Missing Maps: Aweil, South Sudan (part 1c - residential areas and buildings)","status":"ARCHIVED","created":"2017","lastUpdated":"2018","lastActive":"no","area":1039.7978657088447,"changesets":2633,"mappers":270,"roads":1018.36982701006,"buildings":77149,"edits":85882,"latest":"2018-02-25T12:15:19.000Z"},"geometry":{"type":"Point","coordinates":[27.1092124577983,9.01420889243512]}},{"type":"Feature","properties":{"id":2653,"title":"Missing Maps: Aweil, South Sudan (part 1a - residential areas and buildings)","status":"ARCHIVED","created":"2017","lastUpdated":"2018","lastActive":"no","area":1001.3480916646093,"changesets":3386,"mappers":161,"roads":1325.1906320835,"buildings":111732,"edits":118713,"latest":"2018-03-03T23:17:41.000Z"},"geometry":{"type":"Point","coordinates":[27.1697621538292,9.28217352168864]}},{"type":"Feature","properties":{"id":715,"title":"Malnutrition and medical support, Leer, South Sudan","status":"ARCHIVED","created":"2014","lastUpdated":"2014","lastActive":"no","area":8.736893787202979,"changesets":0,"mappers":0,"roads":0,"buildings":0,"edits":0,"latest":null},"geometry":{"type":"Point","coordinates":[30.1399909166749,8.30128320688027]}},{"type":"Feature","properties":{"id":395,"title":"South Sudan, Jeglei, Bor","status":"PUBLISHED","created":"2013","lastUpdated":"2015","lastActive":"no","area":87.0853091863416,"changesets":0,"mappers":0,"roads":0,"buildings":0,"edits":0,"latest":null},"geometry":{"type":"Point","coordinates":[31.5797054293485,6.20512290338662]}},{"type":"Feature","properties":{"id":399,"title":"South Sudan, Juba","status":"ARCHIVED","created":"2013","lastUpdated":"2015","lastActive":"no","area":136.86131229505318,"changesets":0,"mappers":0,"roads":0,"buildings":0,"edits":0,"latest":null},"geometry":{"type":"Point","coordinates":[31.5615775742318,4.84585109520365]}},{"type":"Feature","properties":{"id":1167,"title":"Boma, South Sudan","status":"ARCHIVED","created":"2015","lastUpdated":"2018","lastActive":"no","area":1598.3854223096148,"changesets":291,"mappers":26,"roads":1649.29771020989,"buildings":1281,"edits":2569,"latest":"2015-09-17T13:33:44.000Z"},"geometry":{"type":"Point","coordinates":[34.3678990490511,6.1722416024222]}},{"type":"Feature","properties":{"id":738,"title":"please delete","status":"ARCHIVED","created":"2014","lastUpdated":"2014","lastActive":"no","area":168.7694892743895,"changesets":0,"mappers":0,"roads":0,"buildings":0,"edits":0,"latest":null},"geometry":{"type":"Point","coordinates":[30.107529861913,8.39037000499958]}},{"type":"Feature","properties":{"id":1483,"title":"Missing Maps: Western Equatoria villages, South Sudan","status":"ARCHIVED","created":"2016","lastUpdated":"2016","lastActive":"no","area":9.853736209256303,"changesets":140,"mappers":30,"roads":49.2428717066786,"buildings":2089,"edits":2475,"latest":"2016-02-11T09:24:33.000Z"},"geometry":{"type":"Point","coordinates":[30.0527926807828,5.16657782642667]}},{"type":"Feature","properties":{"id":396,"title":"South Sudan, Unity State, Bentiu","status":"PUBLISHED","created":"2013","lastUpdated":"2015","lastActive":"no","area":90.08340783016168,"changesets":0,"mappers":0,"roads":0,"buildings":0,"edits":0,"latest":null},"geometry":{"type":"Point","coordinates":[29.8055343903731,9.25939016776569]}},{"type":"Feature","properties":{"id":398,"title":"South Sudan, Western Equatoria State, Mundri","status":"PUBLISHED","created":"2013","lastUpdated":"2018","lastActive":"no","area":11.537100188296595,"changesets":0,"mappers":0,"roads":0,"buildings":0,"edits":0,"latest":null},"geometry":{"type":"Point","coordinates":[30.316617779316,5.34879622900107]}},{"type":"Feature","properties":{"id":400,"title":"South Sudan, Upper Nile State, Malakal","status":"ARCHIVED","created":"2013","lastUpdated":"2015","lastActive":"no","area":82.6054070757816,"changesets":0,"mappers":0,"roads":0,"buildings":0,"edits":0,"latest":null},"geometry":{"type":"Point","coordinates":[31.662342331804,9.52639587880156]}},{"type":"Feature","properties":{"id":1364,"title":"Mapping Exercise Pibor - South Sudan","status":"PUBLISHED","created":"2015","lastUpdated":"2018","lastActive":"no","area":33270.127154526104,"changesets":223,"mappers":26,"roads":386.792356711023,"buildings":3541,"edits":4003,"latest":"2018-10-27T17:50:03.000Z"},"geometry":{"type":"Point","coordinates":[33.5698372688758,6.39650975058974]}},{"type":"Feature","properties":{"id":2392,"title":"PROJECT SET WRONG - PLEASE DELETE","status":"ARCHIVED","created":"2016","lastUpdated":"2016","lastActive":"no","area":646.7092310067995,"changesets":0,"mappers":0,"roads":0,"buildings":0,"edits":0,"latest":null},"geometry":{"type":"Point","coordinates":[27.144526066849,9.06347408608031]}}],"Zambia":[{"type":"Feature","properties":{"id":2695,"title":"Missing Maps: Zambia Malaria Elimination 62","status":"ARCHIVED","created":"2017","lastUpdated":"2017","lastActive":"no","area":51.13514152568108,"changesets":838,"mappers":120,"roads":173.537791642929,"buildings":3216,"edits":5411,"latest":"2017-05-11T18:23:23.000Z"},"geometry":{"type":"Point","coordinates":[26.3806990487336,-16.9367301018994]}},{"type":"Feature","properties":{"id":1568,"title":"Peace Corps Zambia - Manyaana","status":"PUBLISHED","created":"2016","lastUpdated":"2017","lastActive":"no","area":667.840179590417,"changesets":594,"mappers":41,"roads":1554.0169888402,"buildings":5723,"edits":15640,"latest":"2018-06-27T19:56:59.000Z"},"geometry":{"type":"Point","coordinates":[27.5452480313737,-16.0255493682969]}},{"type":"Feature","properties":{"id":4873,"title":"Priority Areas, Eastern Province, Zambia Mini Grids Project 04","status":"ARCHIVED","created":"2018","lastUpdated":"2018","lastActive":"no","area":1351.5505600750143,"changesets":1128,"mappers":33,"roads":0.110256636504698,"buildings":40010,"edits":40023,"latest":"2018-07-19T07:01:18.000Z"},"geometry":{"type":"Point","coordinates":[33.2021522485916,-11.817264674421]}},{"type":"Feature","properties":{"id":5611,"title":"Missing Maps - Zambia - Mongu South East","status":"PUBLISHED","created":"2018","lastUpdated":"2018","lastActive":"no","area":10.54996473640858,"changesets":373,"mappers":44,"roads":57.6982841145891,"buildings":7996,"edits":9105,"latest":"2018-12-27T11:47:31.000Z"},"geometry":{"type":"Point","coordinates":[23.1709456017538,-15.2753889193744]}},{"type":"Feature","properties":{"id":5579,"title":"Missing Maps - Zambia - Mongu South","status":"PUBLISHED","created":"2018","lastUpdated":"2018","lastActive":"no","area":5.528955925534255,"changesets":303,"mappers":28,"roads":50.698206356033,"buildings":3825,"edits":4901,"latest":"2018-12-10T09:05:54.000Z"},"geometry":{"type":"Point","coordinates":[23.1540142439464,-15.2964120301994]}},{"type":"Feature","properties":{"id":5627,"title":"Missing Maps - Zambia - Kalabo-Senanga (west bank)","status":"PUBLISHED","created":"2018","lastUpdated":"2019","lastActive":"no","area":736.628893365769,"changesets":305,"mappers":23,"roads":105.141350662138,"buildings":2946,"edits":3129,"latest":"2019-01-18T18:55:46.000Z"},"geometry":{"type":"Point","coordinates":[23.0037907453831,-15.6094822340813]}},{"type":"Feature","properties":{"id":5602,"title":"Mapping for HIV in peri-urban areas of Zambia","status":"PUBLISHED","created":"2018","lastUpdated":"2018","lastActive":"no","area":4.966176859920596,"changesets":164,"mappers":12,"roads":0.06657012191506,"buildings":9791,"edits":9818,"latest":"2018-12-14T20:36:11.000Z"},"geometry":{"type":"Point","coordinates":[27.8381870309698,-12.5575506300916]}},{"type":"Feature","properties":{"id":5343,"title":"Missing Maps - Zambia - Malengwa","status":"ARCHIVED","created":"2018","lastUpdated":"2018","lastActive":"no","area":19.26248831210457,"changesets":409,"mappers":36,"roads":129.920029364859,"buildings":2828,"edits":4381,"latest":"2018-10-23T20:14:30.000Z"},"geometry":{"type":"Point","coordinates":[23.1496450351179,-15.21927210925]}},{"type":"Feature","properties":{"id":5200,"title":"Missing Maps - Zambia - Kalabo2 (south)","status":"ARCHIVED","created":"2018","lastUpdated":"2018","lastActive":"no","area":21.075537853372495,"changesets":210,"mappers":26,"roads":131.150734370826,"buildings":528,"edits":1258,"latest":"2018-10-19T13:20:46.000Z"},"geometry":{"type":"Point","coordinates":[22.6796429688639,-15.0431496521223]}},{"type":"Feature","properties":{"id":5172,"title":"Missing Maps - Zambia - Limulunga","status":"ARCHIVED","created":"2018","lastUpdated":"2018","lastActive":"no","area":12.712710414575804,"changesets":149,"mappers":18,"roads":39.4267387243411,"buildings":2634,"edits":3095,"latest":"2018-09-11T13:11:05.000Z"},"geometry":{"type":"Point","coordinates":[23.1467113223816,-15.1304589194704]}},{"type":"Feature","properties":{"id":5231,"title":"Missing Maps - Zambia - Mongu centre2","status":"ARCHIVED","created":"2018","lastUpdated":"2018","lastActive":"no","area":8.07328076511913,"changesets":512,"mappers":48,"roads":43.1174108384455,"buildings":5945,"edits":6708,"latest":"2018-09-24T14:29:59.000Z"},"geometry":{"type":"Point","coordinates":[23.1451122969085,-15.2747772857719]}},{"type":"Feature","properties":{"id":5064,"title":"Zambia-Sinda Residential Buildings Mapping","status":"PUBLISHED","created":"2018","lastUpdated":"2018","lastActive":"no","area":4029.788113014448,"changesets":1591,"mappers":66,"roads":104.501620490992,"buildings":90390,"edits":90736,"latest":"2018-11-05T21:07:46.000Z"},"geometry":{"type":"Point","coordinates":[31.7262927407117,-14.2579734458589]}},{"type":"Feature","properties":{"id":4973,"title":"Priority Areas, Northern Province, Zambia Mini Grids Project 10","status":"PUBLISHED","created":"2018","lastUpdated":"2018","lastActive":"no","area":1633.8093711185227,"changesets":1681,"mappers":30,"roads":6.41696979581537,"buildings":18945,"edits":19694,"latest":"2018-08-14T11:28:58.000Z"},"geometry":{"type":"Point","coordinates":[33.0320112059923,-9.68945187433094]}},{"type":"Feature","properties":{"id":4948,"title":"Priority Areas, Western Province, Zambia Mini Grids Project 07","status":"PUBLISHED","created":"2018","lastUpdated":"2018","lastActive":"no","area":52.856725257049014,"changesets":226,"mappers":40,"roads":0.00342610791336639,"buildings":6747,"edits":6753,"latest":"2018-08-06T11:58:58.000Z"},"geometry":{"type":"Point","coordinates":[22.6439986370809,-14.7876866673254]}},{"type":"Feature","properties":{"id":3414,"title":"Chaisa Mapping","status":"PUBLISHED","created":"2017","lastUpdated":"2018","lastActive":"no","area":3.265366535228419,"changesets":0,"mappers":0,"roads":0,"buildings":0,"edits":0,"latest":null},"geometry":{"type":"Point","coordinates":[28.2845032358776,-15.3776746534989]}},{"type":"Feature","properties":{"id":4937,"title":"Priority Areas, Northern Province, Zambia Mini Grids Project 06","status":"PUBLISHED","created":"2018","lastUpdated":"2018","lastActive":"no","area":1185.5772857089414,"changesets":1333,"mappers":34,"roads":0.00506049116688987,"buildings":15523,"edits":15525,"latest":"2018-08-13T11:50:43.000Z"},"geometry":{"type":"Point","coordinates":[30.0872517008454,-10.3611567028287]}},{"type":"Feature","properties":{"id":4883,"title":"Priority Areas, North-Western Province, Zambia Mini Grids Project 04","status":"PUBLISHED","created":"2018","lastUpdated":"2018","lastActive":"no","area":26.577579403472903,"changesets":84,"mappers":28,"roads":0.0327637665611748,"buildings":3703,"edits":3705,"latest":"2018-07-20T12:13:09.000Z"},"geometry":{"type":"Point","coordinates":[24.9483966190181,-13.596002453546]}},{"type":"Feature","properties":{"id":3183,"title":"Missing Maps: Zambia Malaria Elimination 79","status":"ARCHIVED","created":"2017","lastUpdated":"2017","lastActive":"no","area":978.3907149799423,"changesets":2285,"mappers":192,"roads":52.4306319853615,"buildings":8399,"edits":8880,"latest":"2017-08-19T15:28:24.000Z"},"geometry":{"type":"Point","coordinates":[26.7839004297929,-15.9198612690273]}},{"type":"Feature","properties":{"id":4923,"title":"Priority Areas, Northern Province, Zambia Mini Grids Project 03","status":"PUBLISHED","created":"2018","lastUpdated":"2018","lastActive":"no","area":108.1972029061993,"changesets":443,"mappers":34,"roads":0.00876400210311584,"buildings":7442,"edits":7450,"latest":"2018-08-08T08:36:24.000Z"},"geometry":{"type":"Point","coordinates":[30.5911459465336,-11.7601390748348]}},{"type":"Feature","properties":{"id":2671,"title":"Missing Maps: Zambia Malaria Elimination 59","status":"ARCHIVED","created":"2017","lastUpdated":"2017","lastActive":"no","area":53.983168673328294,"changesets":606,"mappers":52,"roads":55.5653175535778,"buildings":3293,"edits":3585,"latest":"2017-04-10T07:33:21.000Z"},"geometry":{"type":"Point","coordinates":[26.7801556416528,-16.868925492807]}},{"type":"Feature","properties":{"id":4819,"title":"Priority Areas, Southern Province, Zambia Mini Grids Project 02","status":"PUBLISHED","created":"2018","lastUpdated":"2018","lastActive":"no","area":772.4887168605584,"changesets":1053,"mappers":42,"roads":0.423693999629926,"buildings":23847,"edits":23889,"latest":"2018-08-17T07:18:48.000Z"},"geometry":{"type":"Point","coordinates":[26.8952553891412,-17.6525178439075]}},{"type":"Feature","properties":{"id":3256,"title":"Kawama East mapping - OSM Zambia","status":"PUBLISHED","created":"2017","lastUpdated":"2017","lastActive":"no","area":3.0950709950460236,"changesets":508,"mappers":24,"roads":62.5279621119056,"buildings":5053,"edits":7635,"latest":"2017-07-13T16:30:54.000Z"},"geometry":{"type":"Point","coordinates":[28.266482957122,-12.5780687712885]}},{"type":"Feature","properties":{"id":2470,"title":"Missing Maps: Kanyama, Lusaka, Zambia - Cholera Crisis - Buildings Only","status":"ARCHIVED","created":"2017","lastUpdated":"2017","lastActive":"no","area":3.0479745782061567,"changesets":571,"mappers":64,"roads":285.227068966126,"buildings":13503,"edits":14555,"latest":"2017-02-20T00:46:35.000Z"},"geometry":{"type":"Point","coordinates":[28.2474062583554,-15.4340326583418]}},{"type":"Feature","properties":{"id":1484,"title":"Mayukwayukwa Refugee Camp, Orientale Province, Zambia","status":"PUBLISHED","created":"2016","lastUpdated":"2017","lastActive":"no","area":79.68379557842741,"changesets":456,"mappers":54,"roads":494.708091818575,"buildings":2041,"edits":8445,"latest":"2017-01-17T13:21:46.000Z"},"geometry":{"type":"Point","coordinates":[24.1974973288105,-14.5525750273743]}},{"type":"Feature","properties":{"id":2562,"title":"Missing Maps: Zambia Malaria Elimination 11","status":"ARCHIVED","created":"2017","lastUpdated":"2017","lastActive":"no","area":35.92752078925789,"changesets":651,"mappers":65,"roads":1.58523798925695,"buildings":5055,"edits":5085,"latest":"2017-03-24T06:14:13.000Z"},"geometry":{"type":"Point","coordinates":[28.1010543332572,-15.9357645571568]}},{"type":"Feature","properties":{"id":4992,"title":"Priority Areas, Northern Province, Zambia Mini Grids Project 11","status":"PUBLISHED","created":"2018","lastUpdated":"2018","lastActive":"no","area":901.9638924123662,"changesets":329,"mappers":30,"roads":0.0446413623321236,"buildings":5527,"edits":5541,"latest":"2018-08-15T06:39:00.000Z"},"geometry":{"type":"Point","coordinates":[24.2081720913225,-11.2232120149847]}},{"type":"Feature","properties":{"id":4881,"title":"Priority Areas, North-Western Province, Zambia Mini Grids Project 02","status":"PUBLISHED","created":"2018","lastUpdated":"2018","lastActive":"no","area":315.33665960709186,"changesets":319,"mappers":34,"roads":0.164957433312246,"buildings":8192,"edits":8241,"latest":"2018-08-31T11:24:55.000Z"},"geometry":{"type":"Point","coordinates":[24.2379781886577,-11.255706313979]}},{"type":"Feature","properties":{"id":2473,"title":"Missing Maps: Kanyama, Lusaka, Zambia - Cholera Crisis - Buildings Only - Area 2","status":"ARCHIVED","created":"2017","lastUpdated":"2017","lastActive":"no","area":4.097444955118227,"changesets":960,"mappers":69,"roads":1.24701144334619,"buildings":14460,"edits":14939,"latest":"2017-02-02T00:10:35.000Z"},"geometry":{"type":"Point","coordinates":[28.2347584624704,-15.4362575093508]}},{"type":"Feature","properties":{"id":2526,"title":"Missing Maps: Kanyama, Lusaka, Zambia - Cholera Crisis - Buildings Only - Zone 3","status":"PUBLISHED","created":"2017","lastUpdated":"2017","lastActive":"no","area":0.5147784574323778,"changesets":627,"mappers":32,"roads":3.25666696508614,"buildings":5953,"edits":8991,"latest":"2017-04-27T22:59:45.000Z"},"geometry":{"type":"Point","coordinates":[28.2525022824477,-15.4221490787427]}},{"type":"Feature","properties":{"id":2545,"title":"Missing Maps: Zambia Malaria Elimination 5","status":"ARCHIVED","created":"2017","lastUpdated":"2017","lastActive":"no","area":29.240261299687603,"changesets":2462,"mappers":63,"roads":59.6692415195899,"buildings":19056,"edits":19476,"latest":"2017-07-21T09:55:23.000Z"},"geometry":{"type":"Point","coordinates":[26.0720422320165,-15.9727674891682]}},{"type":"Feature","properties":{"id":2778,"title":"Missing Maps: Zambia Malaria Elimination 77","status":"ARCHIVED","created":"2017","lastUpdated":"2017","lastActive":"no","area":42.26158786311957,"changesets":561,"mappers":33,"roads":2.15378939549018,"buildings":3404,"edits":3418,"latest":"2017-04-10T14:45:32.000Z"},"geometry":{"type":"Point","coordinates":[26.0331956739105,-17.2965993386355]}},{"type":"Feature","properties":{"id":2592,"title":"Missing Maps: Zambia Malaria Elimination 30","status":"ARCHIVED","created":"2017","lastUpdated":"2017","lastActive":"no","area":48.89367966790246,"changesets":929,"mappers":62,"roads":8.39795410362155,"buildings":5011,"edits":5076,"latest":"2017-04-27T22:45:51.000Z"},"geometry":{"type":"Point","coordinates":[27.1605308545981,-16.179257781807]}},{"type":"Feature","properties":{"id":4906,"title":"Priority Areas, Central Province, Zambia Mini Grids Project 01","status":"PUBLISHED","created":"2018","lastUpdated":"2018","lastActive":"no","area":960.2843810977965,"changesets":1033,"mappers":34,"roads":0.0422650777154369,"buildings":11172,"edits":11183,"latest":"2018-08-03T09:02:34.000Z"},"geometry":{"type":"Point","coordinates":[30.0483834481938,-12.3726376822697]}},{"type":"Feature","properties":{"id":2613,"title":"Missing Maps: Zambia Malaria Elimination 42","status":"ARCHIVED","created":"2017","lastUpdated":"2017","lastActive":"no","area":34.20674904384274,"changesets":797,"mappers":58,"roads":69.4566018998316,"buildings":3701,"edits":3997,"latest":"2017-03-27T07:55:49.000Z"},"geometry":{"type":"Point","coordinates":[27.4023544901047,-16.5187437761834]}},{"type":"Feature","properties":{"id":2554,"title":"Missing Maps: Zambia Malaria Elimination 9","status":"ARCHIVED","created":"2017","lastUpdated":"2017","lastActive":"no","area":46.63360623178158,"changesets":1400,"mappers":77,"roads":91.0983080137419,"buildings":11789,"edits":12218,"latest":"2017-03-24T12:08:48.000Z"},"geometry":{"type":"Point","coordinates":[27.9162150772687,-15.8650475722509]}},{"type":"Feature","properties":{"id":2662,"title":"Missing Maps: Zambia Malaria Elimination 56","status":"ARCHIVED","created":"2017","lastUpdated":"2017","lastActive":"no","area":41.22931300255509,"changesets":473,"mappers":34,"roads":34.9486193133669,"buildings":2297,"edits":2676,"latest":"2017-04-07T14:52:29.000Z"},"geometry":{"type":"Point","coordinates":[26.5769400034605,-16.7034656687689]}},{"type":"Feature","properties":{"id":2772,"title":"Missing Maps: Zambia Malaria Elimination 75","status":"ARCHIVED","created":"2017","lastUpdated":"2017","lastActive":"no","area":33.231101952285634,"changesets":341,"mappers":28,"roads":0.297108756357538,"buildings":2085,"edits":2088,"latest":"2017-04-28T08:57:01.000Z"},"geometry":{"type":"Point","coordinates":[26.4695046091455,-17.4157749584222]}},{"type":"Feature","properties":{"id":2696,"title":"Missing Maps: Zambia Malaria Elimination 63","status":"ARCHIVED","created":"2017","lastUpdated":"2017","lastActive":"no","area":40.00701214726156,"changesets":730,"mappers":113,"roads":80.1397702085043,"buildings":2948,"edits":3980,"latest":"2017-03-25T15:14:51.000Z"},"geometry":{"type":"Point","coordinates":[26.3263061356791,-17.0723213651034]}},{"type":"Feature","properties":{"id":2694,"title":"Missing Maps: Zambia Malaria Elimination 61","status":"ARCHIVED","created":"2017","lastUpdated":"2017","lastActive":"no","area":52.12083766112771,"changesets":1071,"mappers":100,"roads":90.3137322450952,"buildings":4021,"edits":5009,"latest":"2017-08-31T14:06:38.000Z"},"geometry":{"type":"Point","coordinates":[27.1939724854381,-16.898602684166]}},{"type":"Feature","properties":{"id":2756,"title":"Missing Maps: Zambia Malaria Elimination 71","status":"ARCHIVED","created":"2017","lastUpdated":"2017","lastActive":"no","area":54.93276423403359,"changesets":730,"mappers":27,"roads":0.461838445395334,"buildings":4170,"edits":4174,"latest":"2017-04-22T12:51:29.000Z"},"geometry":{"type":"Point","coordinates":[26.7128319576413,-17.2332150949172]}},{"type":"Feature","properties":{"id":3991,"title":"Zambia Cholera Outbreak","status":"PUBLISHED","created":"2018","lastUpdated":"2018","lastActive":"no","area":5.372296232208056,"changesets":1244,"mappers":91,"roads":53.6028823570509,"buildings":22152,"edits":24175,"latest":"2018-01-21T07:17:12.000Z"},"geometry":{"type":"Point","coordinates":[28.2617501969979,-15.445347941535]}},{"type":"Feature","properties":{"id":4010,"title":"Zambia Cholera Outbreak 2018","status":"PUBLISHED","created":"2018","lastUpdated":"2018","lastActive":"no","area":5.210083377958257,"changesets":693,"mappers":66,"roads":21.7905925162644,"buildings":11559,"edits":13153,"latest":"2018-01-13T22:26:32.000Z"},"geometry":{"type":"Point","coordinates":[28.2955256322922,-15.3894090810857]}},{"type":"Feature","properties":{"id":3995,"title":"Zambia Cholera Outbreak 2018","status":"PUBLISHED","created":"2018","lastUpdated":"2018","lastActive":"no","area":13.021695568322011,"changesets":1508,"mappers":109,"roads":61.4631865032384,"buildings":23480,"edits":27523,"latest":"2018-03-12T08:51:32.000Z"},"geometry":{"type":"Point","coordinates":[28.3151884921123,-15.4416751223048]}},{"type":"Feature","properties":{"id":3899,"title":"Fiwila Health Centre - learn how to efficiently replace node-buildings","status":"PUBLISHED","created":"2017","lastUpdated":"2018","lastActive":"no","area":628.4823419648842,"changesets":62,"mappers":11,"roads":84.3866231672886,"buildings":1172,"edits":1552,"latest":"2018-12-03T02:54:11.000Z"},"geometry":{"type":"Point","coordinates":[29.6330945573751,-14.0154371932199]}},{"type":"Feature","properties":{"id":3992,"title":"Zambia Cholera Outbreak","status":"PUBLISHED","created":"2018","lastUpdated":"2018","lastActive":"no","area":4.036566110310592,"changesets":608,"mappers":32,"roads":29.2512963162562,"buildings":4494,"edits":5618,"latest":"2018-01-08T03:28:50.000Z"},"geometry":{"type":"Point","coordinates":[28.2443472716737,-15.4546130087783]}},{"type":"Feature","properties":{"id":3994,"title":"Zambia cholera outbreak 2018","status":"PUBLISHED","created":"2018","lastUpdated":"2018","lastActive":"no","area":6.356624742313112,"changesets":856,"mappers":90,"roads":66.5336672603758,"buildings":17631,"edits":19976,"latest":"2018-02-06T15:59:00.000Z"},"geometry":{"type":"Point","coordinates":[28.2898386983077,-15.3586482413544]}},{"type":"Feature","properties":{"id":4950,"title":"Priority Areas, Northern Province, Zambia Mini Grids Project 08","status":"PUBLISHED","created":"2018","lastUpdated":"2018","lastActive":"no","area":234.71948219941723,"changesets":170,"mappers":31,"roads":0.0258509204979465,"buildings":1546,"edits":1554,"latest":"2018-08-02T12:19:31.000Z"},"geometry":{"type":"Point","coordinates":[30.8061614223634,-10.7847189392756]}},{"type":"Feature","properties":{"id":4942,"title":"Priority Areas, Western Province, Zambia Mini Grids Project 05","status":"PUBLISHED","created":"2018","lastUpdated":"2018","lastActive":"no","area":65.6747276055282,"changesets":271,"mappers":41,"roads":0,"buildings":9826,"edits":9826,"latest":"2018-08-07T09:56:48.000Z"},"geometry":{"type":"Point","coordinates":[23.6275817161252,-15.5580334747978]}},{"type":"Feature","properties":{"id":4853,"title":"Priority Areas, Muchinga Province, Zambia Mini Grids Project 06","status":"PUBLISHED","created":"2018","lastUpdated":"2018","lastActive":"no","area":1817.6416004508362,"changesets":2092,"mappers":37,"roads":0.905534581714069,"buildings":44070,"edits":44266,"latest":"2018-08-17T07:34:09.000Z"},"geometry":{"type":"Point","coordinates":[32.2083821683174,-9.14371619923103]}},{"type":"Feature","properties":{"id":4821,"title":"Priority Areas, Southern Province, Zambia Mini Grids Project 04","status":"PUBLISHED","created":"2018","lastUpdated":"2018","lastActive":"no","area":549.2875270843012,"changesets":501,"mappers":41,"roads":0.00948469099725457,"buildings":15159,"edits":15162,"latest":"2018-08-15T09:09:17.000Z"},"geometry":{"type":"Point","coordinates":[27.9589126126342,-16.4867837275353]}},{"type":"Feature","properties":{"id":4826,"title":"Priority Areas, Southern Province, Zambia Mini Grids Project 07","status":"PUBLISHED","created":"2018","lastUpdated":"2018","lastActive":"no","area":248.07955230133993,"changesets":295,"mappers":29,"roads":0.11775287620795,"buildings":7464,"edits":7671,"latest":"2018-08-24T13:49:18.000Z"},"geometry":{"type":"Point","coordinates":[27.3753644888465,-16.8788513446297]}},{"type":"Feature","properties":{"id":4845,"title":"Priority Areas, Muchinga Province, Zambia Mini Grids Project 03","status":"PUBLISHED","created":"2018","lastUpdated":"2018","lastActive":"no","area":30.76633123711304,"changesets":179,"mappers":20,"roads":0.002324335482359,"buildings":5269,"edits":5273,"latest":"2018-07-19T10:49:31.000Z"},"geometry":{"type":"Point","coordinates":[32.1061139136939,-10.3973685150342]}},{"type":"Feature","properties":{"id":4827,"title":"Priority Areas, Southern Province, Zambia Mini Grids Project 06","status":"PUBLISHED","created":"2018","lastUpdated":"2018","lastActive":"no","area":196.74034064721903,"changesets":304,"mappers":33,"roads":0.0373206177418661,"buildings":7085,"edits":7086,"latest":"2018-07-19T09:55:25.000Z"},"geometry":{"type":"Point","coordinates":[27.492882028221,-16.8368382203306]}},{"type":"Feature","properties":{"id":4815,"title":"Priority Areas, Southern Province, Zambia Mini Grids Project 01","status":"PUBLISHED","created":"2018","lastUpdated":"2018","lastActive":"no","area":2421.4759557891675,"changesets":3756,"mappers":40,"roads":0.0343579811795723,"buildings":66955,"edits":66966,"latest":"2018-07-16T14:03:50.000Z"},"geometry":{"type":"Point","coordinates":[26.5621274778074,-16.4445758757379]}},{"type":"Feature","properties":{"id":4870,"title":"Priority Areas, Eastern Province, Zambia Mini Grids Project 03","status":"ARCHIVED","created":"2018","lastUpdated":"2018","lastActive":"no","area":1007.597938887038,"changesets":582,"mappers":30,"roads":6.19570950442981,"buildings":18679,"edits":19126,"latest":"2018-07-27T11:48:00.000Z"},"geometry":{"type":"Point","coordinates":[32.9700796021551,-12.3087189109137]}},{"type":"Feature","properties":{"id":4865,"title":"Priority Areas, Eastern Province, Zambia Mini Grids Project 02","status":"ARCHIVED","created":"2018","lastUpdated":"2018","lastActive":"no","area":1122.9671327458043,"changesets":1476,"mappers":36,"roads":0.0752661626542242,"buildings":28381,"edits":28387,"latest":"2018-07-20T06:25:28.000Z"},"geometry":{"type":"Point","coordinates":[32.9195719961577,-12.8643859479842]}},{"type":"Feature","properties":{"id":4846,"title":"Priority Areas, Muchinga Province, Zambia Mini Grids Project 04","status":"PUBLISHED","created":"2018","lastUpdated":"2018","lastActive":"no","area":929.6291976614265,"changesets":951,"mappers":38,"roads":1.65187851759928,"buildings":14723,"edits":14748,"latest":"2018-08-17T11:43:04.000Z"},"geometry":{"type":"Point","coordinates":[31.5185684989067,-9.85709047863316]}},{"type":"Feature","properties":{"id":4884,"title":"Priority Areas, North-Western Province, Zambia Mini Grids Project 05","status":"PUBLISHED","created":"2018","lastUpdated":"2018","lastActive":"no","area":125.30507062928119,"changesets":361,"mappers":34,"roads":1.34774179913668,"buildings":9253,"edits":9350,"latest":"2018-09-03T08:43:47.000Z"},"geometry":{"type":"Point","coordinates":[24.4732475183641,-13.4848300645144]}},{"type":"Feature","properties":{"id":4844,"title":"Priority Areas, Muchinga Province, Zambia Mini Grids Project 02","status":"PUBLISHED","created":"2018","lastUpdated":"2018","lastActive":"no","area":117.96969471416107,"changesets":441,"mappers":34,"roads":27.9742743624376,"buildings":13541,"edits":13560,"latest":"2018-07-19T09:12:40.000Z"},"geometry":{"type":"Point","coordinates":[32.248068994447,-10.1170343784785]}},{"type":"Feature","properties":{"id":4836,"title":"Priority Areas, Muchinga Province, Zambia Mini Grids Project 01","status":"PUBLISHED","created":"2018","lastUpdated":"2018","lastActive":"no","area":1192.5581757490236,"changesets":1343,"mappers":35,"roads":0.0231360703082391,"buildings":29593,"edits":29602,"latest":"2018-07-18T07:28:00.000Z"},"geometry":{"type":"Point","coordinates":[33.2368290515284,-10.5703090757455]}},{"type":"Feature","properties":{"id":4859,"title":"Priority Areas, Eastern Province, Zambia Mini Grids Project 01","status":"ARCHIVED","created":"2018","lastUpdated":"2018","lastActive":"no","area":1248.2305353046686,"changesets":1213,"mappers":29,"roads":0.0390268800056372,"buildings":50442,"edits":50454,"latest":"2018-07-13T09:25:13.000Z"},"geometry":{"type":"Point","coordinates":[32.7261623523745,-13.2437373001181]}},{"type":"Feature","properties":{"id":4851,"title":"Priority Areas, Muchinga Province, Zambia Mini Grids Project 05","status":"PUBLISHED","created":"2018","lastUpdated":"2018","lastActive":"no","area":796.1616294065363,"changesets":1123,"mappers":36,"roads":0.112226485260465,"buildings":21415,"edits":21438,"latest":"2018-08-17T13:52:29.000Z"},"geometry":{"type":"Point","coordinates":[31.7742872167847,-9.19022557469334]}},{"type":"Feature","properties":{"id":4916,"title":"Priority Areas, Northern Province, Zambia Mini Grids Project 01","status":"PUBLISHED","created":"2018","lastUpdated":"2018","lastActive":"no","area":1631.951504666485,"changesets":1173,"mappers":35,"roads":0.328471285378522,"buildings":16208,"edits":16262,"latest":"2018-08-07T09:30:47.000Z"},"geometry":{"type":"Point","coordinates":[30.6429969471774,-9.65034760516237]}},{"type":"Feature","properties":{"id":4900,"title":"Priority Areas, Western Province, Zambia Mini Grids Project 01","status":"PUBLISHED","created":"2018","lastUpdated":"2018","lastActive":"no","area":652.6525934646062,"changesets":731,"mappers":37,"roads":2.20449395581589,"buildings":18813,"edits":19230,"latest":"2018-08-01T13:56:07.000Z"},"geometry":{"type":"Point","coordinates":[24.1479928448816,-14.6050079686209]}},{"type":"Feature","properties":{"id":4878,"title":"Priority Areas, North-Western Province, Zambia Mini Grids Project 01","status":"PUBLISHED","created":"2018","lastUpdated":"2018","lastActive":"no","area":399.8496665284776,"changesets":786,"mappers":37,"roads":0.602086118438431,"buildings":22637,"edits":22686,"latest":"2018-08-17T08:56:25.000Z"},"geometry":{"type":"Point","coordinates":[24.9458996814174,-13.1418260604171]}},{"type":"Feature","properties":{"id":4933,"title":"Priority Areas, Northern Province, Zambia Mini Grids Project 05","status":"PUBLISHED","created":"2018","lastUpdated":"2018","lastActive":"no","area":1619.0724840432163,"changesets":1368,"mappers":37,"roads":0.00745079653607594,"buildings":20708,"edits":20715,"latest":"2018-08-10T11:22:25.000Z"},"geometry":{"type":"Point","coordinates":[30.3334124658576,-10.7284504545683]}},{"type":"Feature","properties":{"id":4945,"title":"Priority Areas, Western Province, Zambia Mini Grids Project 04","status":"PUBLISHED","created":"2018","lastUpdated":"2018","lastActive":"no","area":804.0519879215597,"changesets":314,"mappers":40,"roads":0.00317335355418891,"buildings":3346,"edits":3349,"latest":"2018-08-07T08:31:00.000Z"},"geometry":{"type":"Point","coordinates":[23.1534648552369,-14.7914819377237]}},{"type":"Feature","properties":{"id":4954,"title":"Priority Areas, Muchinga Province, Zambia Mini Grids Project 09","status":"PUBLISHED","created":"2018","lastUpdated":"2018","lastActive":"no","area":1400.150703741115,"changesets":1440,"mappers":38,"roads":2.31439887632379,"buildings":45766,"edits":45968,"latest":"2018-08-09T11:42:10.000Z"},"geometry":{"type":"Point","coordinates":[33.3890547617494,-10.2793352264361]}},{"type":"Feature","properties":{"id":4971,"title":"Priority Areas, Northern Province, Zambia Mini Grids Project 08","status":"PUBLISHED","created":"2018","lastUpdated":"2018","lastActive":"no","area":686.1606920956642,"changesets":547,"mappers":31,"roads":0,"buildings":11039,"edits":11041,"latest":"2018-08-14T13:06:24.000Z"},"geometry":{"type":"Point","coordinates":[31.9205115511933,-10.1334618239917]}},{"type":"Feature","properties":{"id":4959,"title":"Priority Areas, Muchinga Province, Zambia Mini Grids Project 10","status":"PUBLISHED","created":"2018","lastUpdated":"2018","lastActive":"no","area":17.589736562807172,"changesets":1,"mappers":1,"roads":0,"buildings":0,"edits":0,"latest":"2018-08-06T11:16:25.000Z"},"geometry":{"type":"Point","coordinates":[30.6198102841667,-12.4054873343945]}},{"type":"Feature","properties":{"id":4980,"title":"Priority Areas, Muchinga, Zambia Mini Grids Project 12","status":"PUBLISHED","created":"2018","lastUpdated":"2018","lastActive":"no","area":997.7532177414813,"changesets":903,"mappers":35,"roads":0.0817213038505782,"buildings":35060,"edits":35105,"latest":"2018-08-16T08:30:19.000Z"},"geometry":{"type":"Point","coordinates":[32.3373403353059,-12.3399446395909]}},{"type":"Feature","properties":{"id":4961,"title":"Priority Areas, North-Western Province, Zambia Mini Grids Project 08","status":"PUBLISHED","created":"2018","lastUpdated":"2018","lastActive":"no","area":62.42190994922546,"changesets":213,"mappers":31,"roads":0.0456716403757625,"buildings":4762,"edits":4784,"latest":"2018-08-14T07:27:41.000Z"},"geometry":{"type":"Point","coordinates":[23.7742274914027,-13.2667271386372]}},{"type":"Feature","properties":{"id":2757,"title":"Missing Maps: Zambia Malaria Elimination 72","status":"ARCHIVED","created":"2017","lastUpdated":"2017","lastActive":"no","area":30.78403487211502,"changesets":389,"mappers":28,"roads":0,"buildings":2146,"edits":2146,"latest":"2017-04-04T14:16:36.000Z"},"geometry":{"type":"Point","coordinates":[26.5256121601278,-17.2547069167342]}},{"type":"Feature","properties":{"id":2582,"title":"Missing Maps: Zambia Malaria Elimination 21","status":"ARCHIVED","created":"2017","lastUpdated":"2017","lastActive":"no","area":33.664759342899956,"changesets":1117,"mappers":45,"roads":3.11622270231003,"buildings":6257,"edits":6323,"latest":"2017-03-24T06:47:38.000Z"},"geometry":{"type":"Point","coordinates":[27.6071403992898,-16.2228775931531]}},{"type":"Feature","properties":{"id":2604,"title":"Missing Maps: Zambia Malaria Elimination 35","status":"ARCHIVED","created":"2017","lastUpdated":"2017","lastActive":"no","area":47.681523032445796,"changesets":747,"mappers":61,"roads":0.646824385341615,"buildings":2683,"edits":2695,"latest":"2017-03-03T10:25:07.000Z"},"geometry":{"type":"Point","coordinates":[27.39946944317,-16.3376490201743]}},{"type":"Feature","properties":{"id":2584,"title":"Missing Maps: Zambia Malaria Elimination 23","status":"ARCHIVED","created":"2017","lastUpdated":"2017","lastActive":"no","area":23.463381411934975,"changesets":1223,"mappers":42,"roads":0.0809701518192749,"buildings":8832,"edits":8922,"latest":"2017-04-11T23:16:31.000Z"},"geometry":{"type":"Point","coordinates":[27.6601962414265,-16.3432360476813]}},{"type":"Feature","properties":{"id":2595,"title":"Missing Maps: Zambia Malaria Elimination 33","status":"ARCHIVED","created":"2017","lastUpdated":"2017","lastActive":"no","area":57.2682467492817,"changesets":1480,"mappers":58,"roads":13.6501543296384,"buildings":6800,"edits":6992,"latest":"2017-04-10T07:00:04.000Z"},"geometry":{"type":"Point","coordinates":[27.1672873119992,-16.3183967538568]}},{"type":"Feature","properties":{"id":2569,"title":"Missing Maps: Zambia Malaria Elimination 17","status":"ARCHIVED","created":"2017","lastUpdated":"2017","lastActive":"no","area":54.8149033238161,"changesets":1760,"mappers":78,"roads":49.3003192544686,"buildings":13157,"edits":13567,"latest":"2017-03-24T17:08:17.000Z"},"geometry":{"type":"Point","coordinates":[27.9146509689315,-16.2317136626271]}},{"type":"Feature","properties":{"id":2555,"title":"Missing Maps: Zambia Malaria Elimination 10","status":"ARCHIVED","created":"2017","lastUpdated":"2017","lastActive":"no","area":31.10985637117499,"changesets":1022,"mappers":75,"roads":4.69389639139936,"buildings":11460,"edits":11552,"latest":"2017-03-31T12:42:23.000Z"},"geometry":{"type":"Point","coordinates":[28.1305373435524,-15.8314610173578]}},{"type":"Feature","properties":{"id":2540,"title":"Missing Maps: Zambia Malaria Elimination 4","status":"ARCHIVED","created":"2017","lastUpdated":"2017","lastActive":"no","area":22.907473399342862,"changesets":540,"mappers":48,"roads":18.2163761096354,"buildings":4774,"edits":4996,"latest":"2017-03-17T23:36:14.000Z"},"geometry":{"type":"Point","coordinates":[26.9741712856948,-15.6427599577224]}},{"type":"Feature","properties":{"id":2565,"title":"MISTAKE IN PROJECT SIZE/ARCHIVE/DONOTUSE Missing Maps: Zambia Malaria Elimination 14","status":"ARCHIVED","created":"2017","lastUpdated":"2017","lastActive":"no","area":248.49122523499858,"changesets":5,"mappers":1,"roads":0,"buildings":201,"edits":201,"latest":"2017-02-20T23:41:04.000Z"},"geometry":{"type":"Point","coordinates":[27.9359633607359,-16.2255998428879]}},{"type":"Feature","properties":{"id":2519,"title":"Missing Maps: Zambia Malaria Elimination 2","status":"ARCHIVED","created":"2017","lastUpdated":"2017","lastActive":"no","area":41.63797409694132,"changesets":2695,"mappers":78,"roads":827.788975646998,"buildings":9568,"edits":22400,"latest":"2017-05-06T14:07:18.000Z"},"geometry":{"type":"Point","coordinates":[26.4141100958582,-15.6153664821107]}},{"type":"Feature","properties":{"id":2360,"title":"Misisi, Lusaka, Zambia","status":"PUBLISHED","created":"2016","lastUpdated":"2017","lastActive":"no","area":3.254160281977127,"changesets":977,"mappers":35,"roads":14.7746021737245,"buildings":10044,"edits":12131,"latest":"2017-04-19T06:30:14.000Z"},"geometry":{"type":"Point","coordinates":[28.2793157762274,-15.4433304402041]}},{"type":"Feature","properties":{"id":2348,"title":"Archived/Replaced by other Projects - Kuzungula District, Zambia","status":"ARCHIVED","created":"2016","lastUpdated":"2017","lastActive":"no","area":12042.04128837934,"changesets":401,"mappers":69,"roads":247.402666716234,"buildings":8464,"edits":9075,"latest":"2017-03-11T15:09:21.000Z"},"geometry":{"type":"Point","coordinates":[25.6273733502222,-17.213353497404]}},{"type":"Feature","properties":{"id":2699,"title":"Missing Maps: Zambia Malaria Elimination 66","status":"ARCHIVED","created":"2017","lastUpdated":"2017","lastActive":"no","area":50.124720955913006,"changesets":468,"mappers":27,"roads":22.076364361358,"buildings":2535,"edits":2638,"latest":"2017-03-29T08:18:05.000Z"},"geometry":{"type":"Point","coordinates":[26.8835639647511,-17.0174401852459]}}],"Ecuador":[{"type":"Feature","properties":{"id":1794,"title":"M7,8 Earthquake in Ecuador - 16/04/2016: Pedernales Canton","status":"ARCHIVED","created":"2016","lastUpdated":"2016","lastActive":"no","area":1913.034327524034,"changesets":958,"mappers":128,"roads":1093.16377035656,"buildings":13623,"edits":19724,"latest":"2016-09-07T16:08:17.000Z"},"geometry":{"type":"Point","coordinates":[-79.9029111667185,0.089962514387561]}},{"type":"Feature","properties":{"id":1831,"title":"M7,8 Earthquake in Ecuador - 16/04/2016: Puertoviejo - Ecuador SNI post-event imagery","status":"ARCHIVED","created":"2016","lastUpdated":"2016","lastActive":"no","area":45.000415531796925,"changesets":870,"mappers":144,"roads":94.9048549987699,"buildings":10184,"edits":15856,"latest":"2016-05-31T16:25:01.000Z"},"geometry":{"type":"Point","coordinates":[-80.4648125273071,-1.05800547004139]}},{"type":"Feature","properties":{"id":2233,"title":"Ecuador - Mt. Cotopaxi, Latacunga","status":"PUBLISHED","created":"2016","lastUpdated":"2018","lastActive":"no","area":90.60724542216015,"changesets":801,"mappers":180,"roads":260.629595190669,"buildings":8980,"edits":13678,"latest":"2018-11-15T00:46:06.000Z"},"geometry":{"type":"Point","coordinates":[-78.5998762615884,-0.963846262427017]}},{"type":"Feature","properties":{"id":1836,"title":"M7,8 Earthquake in Ecuador - 16/04/2016: ESMERALDAS - Ecuador SigTierras Pre-event imagery","status":"ARCHIVED","created":"2016","lastUpdated":"2017","lastActive":"no","area":539.8376806704924,"changesets":5041,"mappers":524,"roads":1143.18282209299,"buildings":78881,"edits":99537,"latest":"2016-06-09T21:33:50.000Z"},"geometry":{"type":"Point","coordinates":[-79.5983024332235,0.925894292400452]}},{"type":"Feature","properties":{"id":1797,"title":"M7,8 Eathquake in Ecuador - 16/04/2016: Pedernales Canton - 2015 imagery","status":"ARCHIVED","created":"2016","lastUpdated":"2016","lastActive":"no","area":413.9141913781121,"changesets":907,"mappers":131,"roads":406.440114822108,"buildings":6362,"edits":9619,"latest":"2016-04-22T17:14:07.000Z"},"geometry":{"type":"Point","coordinates":[-79.9472409433303,0.123338390847293]}},{"type":"Feature","properties":{"id":1805,"title":"M7,8 Earthquake in Ecuador - 16/04/2016: Muisne - Ecuador Geoportal pre-event imagery","status":"ARCHIVED","created":"2016","lastUpdated":"2017","lastActive":"no","area":816.6947306921359,"changesets":942,"mappers":120,"roads":680.656447840375,"buildings":10637,"edits":15178,"latest":"2016-05-10T03:41:01.000Z"},"geometry":{"type":"Point","coordinates":[-79.9890410394077,0.555231647546762]}},{"type":"Feature","properties":{"id":1839,"title":"#1838 M7,8 Earthquake in Ecuador-16/04/2016: Jama-Ecuador SigTierras Pre-event imagery ","status":"ARCHIVED","created":"2016","lastUpdated":"2016","lastActive":"no","area":555.5047172970975,"changesets":1166,"mappers":176,"roads":1201.04223491487,"buildings":5718,"edits":12360,"latest":"2016-05-10T09:37:53.000Z"},"geometry":{"type":"Point","coordinates":[-80.2322289228503,-0.224325769798846]}},{"type":"Feature","properties":{"id":1842,"title":"M7,8 Earthquake in Ecuador-16/04/2016: Canton Chone - Ecuador SigTierras Pre-event imagery","status":"ARCHIVED","created":"2016","lastUpdated":"2016","lastActive":"no","area":2881.1110558011615,"changesets":5407,"mappers":483,"roads":5939.15547965444,"buildings":53522,"edits":93396,"latest":"2016-06-14T12:02:04.000Z"},"geometry":{"type":"Point","coordinates":[-79.9715118490398,-0.530775095563038]}},{"type":"Feature","properties":{"id":1862,"title":"M7,8 Earthquake in Ecuador 16/04/16: Chone - Pleiades post-event imagery","status":"PUBLISHED","created":"2016","lastUpdated":"2017","lastActive":"no","area":188.92887848150946,"changesets":29,"mappers":6,"roads":79.7559328930881,"buildings":295,"edits":1612,"latest":"2018-10-08T23:37:09.000Z"},"geometry":{"type":"Point","coordinates":[-80.0799744902292,-0.693024966384295]}},{"type":"Feature","properties":{"id":1882,"title":"M7,8 Earthquake in Ecuador-16/04/2016: Canton Tosagua - Ecuador SigTierras Pre-event imagery","status":"ARCHIVED","created":"2016","lastUpdated":"2017","lastActive":"no","area":521.2799648764543,"changesets":1687,"mappers":276,"roads":1238.77367094485,"buildings":17488,"edits":31370,"latest":"2017-06-07T15:27:14.000Z"},"geometry":{"type":"Point","coordinates":[-80.2726033473337,-0.7805704300126]}},{"type":"Feature","properties":{"id":1491,"title":" Ecuador - Mt. Cotopaxi, Ambato","status":"PUBLISHED","created":"2016","lastUpdated":"2018","lastActive":"no","area":588.5446413510582,"changesets":1120,"mappers":112,"roads":336.998298715342,"buildings":14647,"edits":18962,"latest":"2018-10-28T03:48:32.000Z"},"geometry":{"type":"Point","coordinates":[-78.6096314495793,-1.28654559613219]}},{"type":"Feature","properties":{"id":1843,"title":"M7,8 Earthquake in Ecuador-16/04/2016: Canton Rocafuerte - Ecuador SigTierras Pre-event imagery","status":"ARCHIVED","created":"2016","lastUpdated":"2016","lastActive":"no","area":349.8283495401779,"changesets":1364,"mappers":218,"roads":853.44770990519,"buildings":13137,"edits":24400,"latest":"2016-06-12T06:28:04.000Z"},"geometry":{"type":"Point","coordinates":[-80.4033755766948,-0.912947792234094]}},{"type":"Feature","properties":{"id":1924,"title":"M7,8 Earthquake in Ecuador, Baha de Carquez  - Post-event imagery","status":"PUBLISHED","created":"2016","lastUpdated":"2017","lastActive":"no","area":355.35595435279384,"changesets":496,"mappers":50,"roads":108.848426922871,"buildings":4489,"edits":6751,"latest":"2018-10-09T00:20:58.000Z"},"geometry":{"type":"Point","coordinates":[-80.353903485682,-0.634975887855]}},{"type":"Feature","properties":{"id":1846,"title":"M7,8 Earthquake in Ecuador-16/04/2016: Canton Atacames - Ecuador SigTierras Pre-event imagery - Editar","status":"PUBLISHED","created":"2016","lastUpdated":"2017","lastActive":"no","area":367.5584436659646,"changesets":962,"mappers":111,"roads":609.309988920416,"buildings":9047,"edits":15512,"latest":"2018-10-24T10:33:09.000Z"},"geometry":{"type":"Point","coordinates":[-79.8414846706415,0.812209587730161]}},{"type":"Feature","properties":{"id":1688,"title":"Monte Sinai, Guayaquil - Ecuador -- IADB","status":"ARCHIVED","created":"2016","lastUpdated":"2016","lastActive":"no","area":2.9873255267307046,"changesets":248,"mappers":30,"roads":46.3336940670014,"buildings":3537,"edits":4637,"latest":"2016-04-09T13:40:21.000Z"},"geometry":{"type":"Point","coordinates":[-79.9938117583141,-2.12918693693881]}},{"type":"Feature","properties":{"id":1883,"title":"M7,8 Earthquake in Ecuador-16/04/2016: Canton Junin - Ecuador SigTierras Pre-event imagery","status":"ARCHIVED","created":"2016","lastUpdated":"2016","lastActive":"no","area":391.36806974595095,"changesets":442,"mappers":43,"roads":82.718803100956,"buildings":2658,"edits":3501,"latest":"2016-08-01T23:50:23.000Z"},"geometry":{"type":"Point","coordinates":[-80.193378751604,-0.943834240987017]}},{"type":"Feature","properties":{"id":2042,"title":"M7,8 Earthquake in Ecuador, Manta - Post-event imagery","status":"PUBLISHED","created":"2016","lastUpdated":"2018","lastActive":"no","area":124.70466486007663,"changesets":1208,"mappers":75,"roads":57.8294131732102,"buildings":3775,"edits":5422,"latest":"2018-11-20T14:33:57.000Z"},"geometry":{"type":"Point","coordinates":[-80.7031500142051,-0.975466181815422]}},{"type":"Feature","properties":{"id":1795,"title":"M7,8 Earthquake in Ecuador - 16/04/2016: Manta, Montecristi, Jaramijo Cantons","status":"ARCHIVED","created":"2016","lastUpdated":"2017","lastActive":"no","area":1141.7274424492039,"changesets":3854,"mappers":484,"roads":1862.962964058,"buildings":89938,"edits":117158,"latest":"2017-04-01T23:52:00.000Z"},"geometry":{"type":"Point","coordinates":[-80.7158247011033,-1.08688993571313]}}],"Botswana":[{"type":"Feature","properties":{"id":1802,"title":"Peace Corps Botswana -- Letlhakane","status":"ARCHIVED","created":"2016","lastUpdated":"2017","lastActive":"no","area":14.563107983316547,"changesets":318,"mappers":8,"roads":219.930148905782,"buildings":17474,"edits":20585,"latest":"2016-05-19T14:36:16.000Z"},"geometry":{"type":"Point","coordinates":[25.5876311569084,-21.4177195324705]}},{"type":"Feature","properties":{"id":2396,"title":"Missing Maps: Botswana North-West District","status":"ARCHIVED","created":"2016","lastUpdated":"2018","lastActive":"no","area":214.74479144708752,"changesets":4019,"mappers":173,"roads":3653.70602512639,"buildings":32894,"edits":73530,"latest":"2017-10-10T15:59:31.000Z"},"geometry":{"type":"Point","coordinates":[23.0142359482937,-18.602661096688]}},{"type":"Feature","properties":{"id":5183,"title":"Botswana, Tutume Sub-district - Road Network Improvement","status":"PUBLISHED","created":"2018","lastUpdated":"2019","lastActive":"no","area":10265.790520967448,"changesets":1621,"mappers":151,"roads":4364.33867554119,"buildings":2693,"edits":9133,"latest":"2019-01-18T20:53:29.000Z"},"geometry":{"type":"Point","coordinates":[25.8188327114728,-20.0815413865541]}},{"type":"Feature","properties":{"id":5185,"title":"Botswana, Bobirwa Sub-district - 02 - National Malaria Programme","status":"ARCHIVED","created":"2018","lastUpdated":"2018","lastActive":"no","area":1470.7566346831622,"changesets":66,"mappers":21,"roads":33.664184057159,"buildings":347,"edits":378,"latest":"2018-09-12T17:11:40.000Z"},"geometry":{"type":"Point","coordinates":[28.50484696108,-22.3820740784452]}},{"type":"Feature","properties":{"id":5161,"title":"Botswana, Ngami Sub-district - National Malaria Programme","status":"ARCHIVED","created":"2018","lastUpdated":"2018","lastActive":"no","area":59183.0670446809,"changesets":1,"mappers":1,"roads":0,"buildings":31,"edits":31,"latest":"2018-09-05T16:22:43.000Z"},"geometry":{"type":"Point","coordinates":[23.3126127780449,-19.9939365031887]}},{"type":"Feature","properties":{"id":1994,"title":"Missing Maps: Bobirwa District, Botswana - Clinton Health Access Initiative ","status":"ARCHIVED","created":"2016","lastUpdated":"2017","lastActive":"no","area":12339.749131597708,"changesets":1,"mappers":1,"roads":0,"buildings":1,"edits":1,"latest":"2016-09-15T13:15:36.000Z"},"geometry":{"type":"Point","coordinates":[28.3965859131622,-22.0467954252281]}},{"type":"Feature","properties":{"id":824,"title":"Peace Corps Botswana- Rakops","status":"PUBLISHED","created":"2014","lastUpdated":"2017","lastActive":"no","area":13.302450582189476,"changesets":0,"mappers":0,"roads":0,"buildings":0,"edits":0,"latest":null},"geometry":{"type":"Point","coordinates":[24.3988568968712,-21.0369965010874]}},{"type":"Feature","properties":{"id":1515,"title":"Peace Corps Botswana - Mochudi","status":"PUBLISHED","created":"2016","lastUpdated":"2018","lastActive":"no","area":55.63006078479333,"changesets":1002,"mappers":74,"roads":254.358048449744,"buildings":23626,"edits":33566,"latest":"2018-02-06T20:54:55.000Z"},"geometry":{"type":"Point","coordinates":[26.1460235690627,-24.3903618778026]}},{"type":"Feature","properties":{"id":2511,"title":"MAITENGWE, Botswana, Clinton Health Access Initiative","status":"ARCHIVED","created":"2017","lastUpdated":"2017","lastActive":"no","area":742.3407665856527,"changesets":301,"mappers":4,"roads":0,"buildings":8123,"edits":8123,"latest":"2017-02-18T10:04:22.000Z"},"geometry":{"type":"Point","coordinates":[27.0463890362223,-20.1234060013298]}},{"type":"Feature","properties":{"id":4339,"title":"Botswana, Gumare Village - National Malaria Programme","status":"PUBLISHED","created":"2018","lastUpdated":"2018","lastActive":"no","area":62.94267106863238,"changesets":408,"mappers":51,"roads":114.3642599087,"buildings":2711,"edits":3636,"latest":"2018-04-18T10:29:18.000Z"},"geometry":{"type":"Point","coordinates":[22.1783284839623,-19.3262353380699]}},{"type":"Feature","properties":{"id":2518,"title":"Missing Maps: Zone 2A, Botswana - Clinton Health Access Initiative","status":"ARCHIVED","created":"2017","lastUpdated":"2017","lastActive":"no","area":455.6379336094699,"changesets":44,"mappers":5,"roads":123.480967542219,"buildings":399,"edits":563,"latest":"2017-02-15T10:45:11.000Z"},"geometry":{"type":"Point","coordinates":[25.7781965392702,-21.7544639123788]}},{"type":"Feature","properties":{"id":1810,"title":"Peace Corps Botswana -- Sefhophe","status":"PUBLISHED","created":"2016","lastUpdated":"2017","lastActive":"no","area":8.936452630346272,"changesets":200,"mappers":17,"roads":118.532249805034,"buildings":2864,"edits":4794,"latest":"2017-07-12T18:27:38.000Z"},"geometry":{"type":"Point","coordinates":[27.9642762535304,-22.1938821742897]}},{"type":"Feature","properties":{"id":1893,"title":"Peace Corps Botswana -- Groote Laagte","status":"ARCHIVED","created":"2016","lastUpdated":"2016","lastActive":"no","area":18.194390237277673,"changesets":40,"mappers":10,"roads":41.3550229914716,"buildings":71,"edits":425,"latest":"2016-05-20T13:01:07.000Z"},"geometry":{"type":"Point","coordinates":[21.204246627966,-21.3678270088725]}},{"type":"Feature","properties":{"id":4341,"title":"Botswana, Tsau Village - National Malaria Programme","status":"PUBLISHED","created":"2018","lastUpdated":"2018","lastActive":"no","area":105.35375908446986,"changesets":216,"mappers":43,"roads":145.819076871357,"buildings":884,"edits":1597,"latest":"2018-04-25T17:01:18.000Z"},"geometry":{"type":"Point","coordinates":[22.3129193672373,-20.1153967056636]}},{"type":"Feature","properties":{"id":953,"title":"Peace Corps Botswana - Thamaga V","status":"PUBLISHED","created":"2015","lastUpdated":"2015","lastActive":"no","area":3.0178235475173096,"changesets":5,"mappers":2,"roads":0,"buildings":33,"edits":33,"latest":"2015-04-22T18:48:51.000Z"},"geometry":{"type":"Point","coordinates":[25.5400137462575,-24.6867949235488]}},{"type":"Feature","properties":{"id":1034,"title":"Peace Corps Botswana - Molepolole II","status":"PUBLISHED","created":"2015","lastUpdated":"2017","lastActive":"no","area":18.17702226776811,"changesets":1115,"mappers":72,"roads":43.6190988347351,"buildings":9155,"edits":10457,"latest":"2017-02-24T08:28:42.000Z"},"geometry":{"type":"Point","coordinates":[25.5349743453636,-24.3816556712786]}},{"type":"Feature","properties":{"id":1036,"title":"Peace Corps Botswana - Molepolole IV","status":"PUBLISHED","created":"2015","lastUpdated":"2017","lastActive":"no","area":12.72823325148611,"changesets":255,"mappers":26,"roads":55.8420030486039,"buildings":3952,"edits":5662,"latest":"2017-02-24T08:28:49.000Z"},"geometry":{"type":"Point","coordinates":[25.5308079494739,-24.413710459368]}},{"type":"Feature","properties":{"id":4337,"title":"Botswana, Nata Village - National Malaria Programme","status":"ARCHIVED","created":"2018","lastUpdated":"2018","lastActive":"no","area":434.7624185042024,"changesets":307,"mappers":52,"roads":193.648583756651,"buildings":1256,"edits":1783,"latest":"2018-03-29T17:19:17.000Z"},"geometry":{"type":"Point","coordinates":[26.168439315419,-20.3921706084066]}},{"type":"Feature","properties":{"id":2496,"title":"SENETE, Botswana - Clinton Health Access Initiative","status":"ARCHIVED","created":"2017","lastUpdated":"2017","lastActive":"no","area":939.6750097357702,"changesets":186,"mappers":5,"roads":0,"buildings":5524,"edits":5525,"latest":"2017-02-13T07:32:36.000Z"},"geometry":{"type":"Point","coordinates":[26.9131559523561,-20.2530016726367]}},{"type":"Feature","properties":{"id":2490,"title":"AREA 4B RANCHES, Botswana - Clinton Health Access Initiative","status":"ARCHIVED","created":"2017","lastUpdated":"2017","lastActive":"no","area":3836.410032561603,"changesets":88,"mappers":2,"roads":0.0000404811189038128,"buildings":1347,"edits":1361,"latest":"2017-02-14T14:00:37.000Z"},"geometry":{"type":"Point","coordinates":[24.7496313229452,-21.5772942609693]}},{"type":"Feature","properties":{"id":2498,"title":"SEBINA, Botswana - Clinton Health Access Initiative","status":"ARCHIVED","created":"2017","lastUpdated":"2017","lastActive":"no","area":200.37259382065227,"changesets":259,"mappers":8,"roads":0.00013750512827022,"buildings":4735,"edits":4747,"latest":"2017-02-16T09:01:40.000Z"},"geometry":{"type":"Point","coordinates":[27.1378148368056,-20.8664053247138]}},{"type":"Feature","properties":{"id":2515,"title":"Untitled project","status":"ARCHIVED","created":"2017","lastUpdated":"2017","lastActive":"no","area":2220.4774511050036,"changesets":0,"mappers":0,"roads":0,"buildings":0,"edits":0,"latest":null},"geometry":{"type":"Point","coordinates":[26.0504000315427,-21.1107601577386]}},{"type":"Feature","properties":{"id":2557,"title":"Missing Maps: villages of Tutume district, Botswana - Clinton Health Access Initiative","status":"ARCHIVED","created":"2017","lastUpdated":"2017","lastActive":"no","area":12679.773843905916,"changesets":0,"mappers":0,"roads":0,"buildings":0,"edits":0,"latest":null},"geometry":{"type":"Point","coordinates":[26.215692361954,-20.3998753421187]}},{"type":"Feature","properties":{"id":1992,"title":"Missing Maps: Boteti District, Botswana - Clinton Health Access Initiative ","status":"ARCHIVED","created":"2016","lastUpdated":"2017","lastActive":"no","area":33058.27634436169,"changesets":0,"mappers":0,"roads":0,"buildings":0,"edits":0,"latest":null},"geometry":{"type":"Point","coordinates":[24.965312099624,-21.2364967903702]}},{"type":"Feature","properties":{"id":1990,"title":"Missing Maps: Okavango District, Botswana - Clinton Health Access Initiative - BUILDINGS ONLY","status":"ARCHIVED","created":"2016","lastUpdated":"2017","lastActive":"no","area":46246.260994317374,"changesets":2838,"mappers":174,"roads":5970.17288197357,"buildings":35953,"edits":79004,"latest":"2016-12-09T12:53:33.000Z"},"geometry":{"type":"Point","coordinates":[22.0464839391768,-19.0586132232621]}},{"type":"Feature","properties":{"id":1513,"title":"Peace Corps Botswana - Maun","status":"ARCHIVED","created":"2016","lastUpdated":"2016","lastActive":"no","area":96.34975375540765,"changesets":1749,"mappers":138,"roads":825.663688851592,"buildings":45930,"edits":59711,"latest":"2016-03-22T09:28:24.000Z"},"geometry":{"type":"Point","coordinates":[23.4396045710877,-19.9882200021714]}},{"type":"Feature","properties":{"id":2366,"title":"Missing Maps: Ngami District, Botswana -Part 2/5- Clinton Health Access Initiative - BUILDINGS ONLY","status":"ARCHIVED","created":"2016","lastUpdated":"2016","lastActive":"no","area":15888.076213883358,"changesets":404,"mappers":21,"roads":0.481323805501072,"buildings":2069,"edits":2075,"latest":"2016-12-09T11:04:30.000Z"},"geometry":{"type":"Point","coordinates":[21.710124997005,-20.4998549510468]}},{"type":"Feature","properties":{"id":2363,"title":"Missing Maps: Ngami District, Botswana -Part 1/5- Clinton Health Access Initiative - BUILDINGS ONLY","status":"ARCHIVED","created":"2016","lastUpdated":"2016","lastActive":"no","area":17639.184180300872,"changesets":1085,"mappers":36,"roads":25.2342318478336,"buildings":6327,"edits":6525,"latest":"2016-12-12T14:55:03.000Z"},"geometry":{"type":"Point","coordinates":[24.4838406800003,-19.6966158167357]}},{"type":"Feature","properties":{"id":2509,"title":"Missing Maps: NSWAZWI, Botswana - Clinton Health Access","status":"ARCHIVED","created":"2017","lastUpdated":"2017","lastActive":"no","area":156.20496768189332,"changesets":234,"mappers":4,"roads":0,"buildings":3401,"edits":3401,"latest":"2017-02-14T14:31:34.000Z"},"geometry":{"type":"Point","coordinates":[27.2294703221757,-20.6248308345425]}},{"type":"Feature","properties":{"id":2504,"title":"Kedia, Botswana","status":"ARCHIVED","created":"2017","lastUpdated":"2017","lastActive":"no","area":392.97147653587194,"changesets":83,"mappers":1,"roads":0.0000128968755100445,"buildings":1055,"edits":1061,"latest":"2017-02-09T14:31:56.000Z"},"geometry":{"type":"Point","coordinates":[24.71970858006,-21.3638031480407]}},{"type":"Feature","properties":{"id":2514,"title":"KHUMAGA, Botswana, Clinton Health Access Initiative","status":"ARCHIVED","created":"2017","lastUpdated":"2017","lastActive":"no","area":710.0664176037427,"changesets":258,"mappers":2,"roads":0.001811493892779,"buildings":1308,"edits":1316,"latest":"2017-02-14T14:24:29.000Z"},"geometry":{"type":"Point","coordinates":[24.3560104041127,-20.4869353629065]}},{"type":"Feature","properties":{"id":2537,"title":"Missing Maps: BUILDINGS ONLY (4/5)  Botswana - Clinton Health Access Initiative","status":"ARCHIVED","created":"2017","lastUpdated":"2017","lastActive":"no","area":3107.54735593311,"changesets":0,"mappers":0,"roads":0,"buildings":0,"edits":0,"latest":null},"geometry":{"type":"Point","coordinates":[26.7275872377179,-20.4926988742273]}},{"type":"Feature","properties":{"id":2500,"title":"MMATSHUMO, Botswana - Clinton Health Access Initiative","status":"ARCHIVED","created":"2017","lastUpdated":"2017","lastActive":"no","area":3005.5304152961903,"changesets":183,"mappers":11,"roads":2.53549933404429e-9,"buildings":1919,"edits":1921,"latest":"2017-02-21T09:18:19.000Z"},"geometry":{"type":"Point","coordinates":[25.6321410923185,-21.0275872774628]}},{"type":"Feature","properties":{"id":2494,"title":"NSHAKASHOGWE, Botswana - Clinton Health Access Initiative","status":"ARCHIVED","created":"2017","lastUpdated":"2017","lastActive":"no","area":276.059043186827,"changesets":137,"mappers":3,"roads":0,"buildings":3981,"edits":3981,"latest":"2017-02-13T14:03:34.000Z"},"geometry":{"type":"Point","coordinates":[27.1062052041487,-20.7518845630134]}},{"type":"Feature","properties":{"id":2492,"title":"MAKUTA, Botswana - Clinton Health Access Initiative","status":"ARCHIVED","created":"2017","lastUpdated":"2017","lastActive":"no","area":153.19456223528567,"changesets":122,"mappers":1,"roads":0,"buildings":1491,"edits":1491,"latest":"2017-02-10T08:40:37.000Z"},"geometry":{"type":"Point","coordinates":[27.1057033269695,-20.6667945218084]}},{"type":"Feature","properties":{"id":2506,"title":"Missing Maps: Mmeya, Botswana - Clinton Health Access Initiative","status":"ARCHIVED","created":"2017","lastUpdated":"2017","lastActive":"no","area":216.96412316210098,"changesets":56,"mappers":2,"roads":0,"buildings":847,"edits":847,"latest":"2017-02-13T13:50:00.000Z"},"geometry":{"type":"Point","coordinates":[26.3592516068861,-21.0464601804813]}},{"type":"Feature","properties":{"id":2170,"title":"Peace Corps Botswana -- Khudumelapye","status":"PUBLISHED","created":"2016","lastUpdated":"2017","lastActive":"no","area":4.587489905004571,"changesets":157,"mappers":36,"roads":112.430337520258,"buildings":1467,"edits":3993,"latest":"2017-02-23T10:13:16.000Z"},"geometry":{"type":"Point","coordinates":[24.951855163682,-23.9119482311893]}},{"type":"Feature","properties":{"id":2375,"title":"Missing Maps: Ngami District, Botswana -Part 5/5- Clinton Health Access Initiative - BUILDINGS ONLY","status":"ARCHIVED","created":"2016","lastUpdated":"2016","lastActive":"no","area":16415.13618616339,"changesets":505,"mappers":16,"roads":231.125108678811,"buildings":10898,"edits":12011,"latest":"2016-12-12T08:22:38.000Z"},"geometry":{"type":"Point","coordinates":[23.1309478892041,-20.5306070509265]}},{"type":"Feature","properties":{"id":2377,"title":"Missing Maps: BOBIRWA District, Botswana -Part 2/2- Clinton Health Access Initiative - BUILDINGS ONLY","status":"ARCHIVED","created":"2016","lastUpdated":"2016","lastActive":"no","area":7459.172585725824,"changesets":2689,"mappers":73,"roads":225.269073069513,"buildings":48515,"edits":50458,"latest":"2017-02-14T14:26:54.000Z"},"geometry":{"type":"Point","coordinates":[28.0127304627059,-21.8765103614756]}},{"type":"Feature","properties":{"id":761,"title":"Peace Corps Stomp Out Malaria - Pandamatenga Area","status":"ARCHIVED","created":"2014","lastUpdated":"2017","lastActive":"no","area":8.387637659970258,"changesets":1,"mappers":1,"roads":0.0271148307288036,"buildings":0,"edits":2,"latest":"2014-11-28T00:07:32.000Z"},"geometry":{"type":"Point","coordinates":[25.6410037250603,-18.5417595953498]}},{"type":"Feature","properties":{"id":718,"title":"Peace Corps Stomp Out Malaria - Lesoma","status":"ARCHIVED","created":"2014","lastUpdated":"2014","lastActive":"no","area":2.614684022817699,"changesets":0,"mappers":0,"roads":0,"buildings":0,"edits":0,"latest":null},"geometry":{"type":"Point","coordinates":[25.2258910974025,-17.9012693888981]}},{"type":"Feature","properties":{"id":4382,"title":"Botswana, Nata Village (re-do) - National Malaria Programme","status":"PUBLISHED","created":"2018","lastUpdated":"2018","lastActive":"no","area":434.7624185220041,"changesets":662,"mappers":110,"roads":697.130695316267,"buildings":3508,"edits":6902,"latest":"2018-04-14T08:01:09.000Z"},"geometry":{"type":"Point","coordinates":[26.1684393154216,-20.392170608413]}},{"type":"Feature","properties":{"id":2531,"title":"Missing Maps: XHUMO, Botswana - Clinton Health Access Initiative","status":"ARCHIVED","created":"2017","lastUpdated":"2017","lastActive":"no","area":671.5956891817073,"changesets":0,"mappers":0,"roads":0,"buildings":0,"edits":0,"latest":null},"geometry":{"type":"Point","coordinates":[24.6124969127515,-21.2394687054567]}},{"type":"Feature","properties":{"id":2373,"title":"Missing Maps: Ngami District, Botswana -Part 3/5- Clinton Health Access Initiative - BUILDINGS ONLY","status":"ARCHIVED","created":"2016","lastUpdated":"2016","lastActive":"no","area":9952.112901417055,"changesets":159,"mappers":17,"roads":16.8366647717552,"buildings":1514,"edits":1619,"latest":"2016-12-10T10:09:12.000Z"},"geometry":{"type":"Point","coordinates":[23.3818245133749,-19.067890867191]}},{"type":"Feature","properties":{"id":1092,"title":"Peace Corps Botswana- Gobojango Area","status":"ARCHIVED","created":"2015","lastUpdated":"2015","lastActive":"no","area":9.305128358812432,"changesets":17,"mappers":4,"roads":110.713328230235,"buildings":1467,"edits":2045,"latest":"2015-07-13T16:23:23.000Z"},"geometry":{"type":"Point","coordinates":[28.7222325653611,-21.8357861895546]}},{"type":"Feature","properties":{"id":1162,"title":"Peace Corps Botswana - Mathathane","status":"ARCHIVED","created":"2015","lastUpdated":"2016","lastActive":"no","area":3.4753621827977477,"changesets":35,"mappers":7,"roads":14.0990783535182,"buildings":348,"edits":479,"latest":"2016-05-10T14:29:03.000Z"},"geometry":{"type":"Point","coordinates":[28.74806515514,-22.2684164073292]}},{"type":"Feature","properties":{"id":900,"title":"Peace Corps Botswana - Shoshong IV","status":"PUBLISHED","created":"2015","lastUpdated":"2017","lastActive":"no","area":3.0283048636333554,"changesets":64,"mappers":9,"roads":12.1378722661009,"buildings":573,"edits":745,"latest":"2017-02-24T08:52:26.000Z"},"geometry":{"type":"Point","coordinates":[26.5097080298543,-23.0424562907329]}},{"type":"Feature","properties":{"id":1035,"title":"Peace Corps Botswana - Molepolole III","status":"PUBLISHED","created":"2015","lastUpdated":"2017","lastActive":"no","area":14.04745954473544,"changesets":538,"mappers":49,"roads":28.6935776094552,"buildings":6177,"edits":6837,"latest":"2017-02-24T10:34:09.000Z"},"geometry":{"type":"Point","coordinates":[25.5010282541785,-24.3865919107098]}},{"type":"Feature","properties":{"id":1037,"title":"Peace Corps Botswana - Molepolole V","status":"PUBLISHED","created":"2015","lastUpdated":"2017","lastActive":"no","area":16.31817162737985,"changesets":1051,"mappers":90,"roads":230.955311071122,"buildings":8536,"edits":11426,"latest":"2017-02-24T11:38:02.000Z"},"geometry":{"type":"Point","coordinates":[25.4719983568004,-24.4020611534747]}},{"type":"Feature","properties":{"id":1022,"title":"Peace Corps Botswana - Molepolole I","status":"PUBLISHED","created":"2015","lastUpdated":"2015","lastActive":"no","area":8.587554796204715,"changesets":748,"mappers":26,"roads":25.5928898708746,"buildings":2488,"edits":3244,"latest":"2015-09-12T21:01:44.000Z"},"geometry":{"type":"Point","coordinates":[25.5804258494739,-24.3977876138032]}},{"type":"Feature","properties":{"id":954,"title":"Peace Corps Botswana - Thamaga VI","status":"PUBLISHED","created":"2015","lastUpdated":"2017","lastActive":"no","area":5.315276500548214,"changesets":70,"mappers":6,"roads":42.1040000400871,"buildings":855,"edits":1511,"latest":"2017-02-24T07:46:57.000Z"},"geometry":{"type":"Point","coordinates":[25.5260766960465,-24.6828435379038]}},{"type":"Feature","properties":{"id":952,"title":"Peace Corps Botswana - Thamaga IV","status":"PUBLISHED","created":"2015","lastUpdated":"2015","lastActive":"no","area":6.236986219341584,"changesets":21,"mappers":2,"roads":16.2447485867183,"buildings":554,"edits":788,"latest":"2015-07-18T11:59:51.000Z"},"geometry":{"type":"Point","coordinates":[25.524147538995,-24.6564067764375]}},{"type":"Feature","properties":{"id":1949,"title":"Peace Corps Botswana -- Sowa Town","status":"ARCHIVED","created":"2016","lastUpdated":"2016","lastActive":"no","area":4.1333326806179285,"changesets":173,"mappers":8,"roads":50.222115659427,"buildings":1316,"edits":1707,"latest":"2016-06-30T14:26:04.000Z"},"geometry":{"type":"Point","coordinates":[26.2234834733339,-20.5650549230502]}},{"type":"Feature","properties":{"id":4340,"title":"Botswana, Mathathane Village - National Malaria Programme","status":"PUBLISHED","created":"2018","lastUpdated":"2018","lastActive":"no","area":71.14226400245143,"changesets":260,"mappers":35,"roads":270.672171601546,"buildings":1057,"edits":2262,"latest":"2018-04-26T20:24:37.000Z"},"geometry":{"type":"Point","coordinates":[28.6789788154414,-22.2517860838973]}},{"type":"Feature","properties":{"id":4317,"title":"Botswana, Chobe District - National Malaria Programme","status":"PUBLISHED","created":"2018","lastUpdated":"2018","lastActive":"no","area":2422.6655366125387,"changesets":1401,"mappers":158,"roads":1981.40636245232,"buildings":5944,"edits":11864,"latest":"2018-04-22T20:13:03.000Z"},"geometry":{"type":"Point","coordinates":[24.9305227330624,-18.3594754240366]}},{"type":"Feature","properties":{"id":760,"title":"Peace Corps Stomp Out Malaria - Pandamatenga Area","status":"ARCHIVED","created":"2014","lastUpdated":"2014","lastActive":"no","area":16.266774590535444,"changesets":0,"mappers":0,"roads":0,"buildings":0,"edits":0,"latest":null},"geometry":{"type":"Point","coordinates":[25.6420927772446,-18.5410442291454]}},{"type":"Feature","properties":{"id":2538,"title":"Missing Maps: BUILDINGS ONLY (5/5)  Botswana - Clinton Health Access Initiative","status":"ARCHIVED","created":"2017","lastUpdated":"2017","lastActive":"no","area":9744.197883420798,"changesets":0,"mappers":0,"roads":0,"buildings":0,"edits":0,"latest":null},"geometry":{"type":"Point","coordinates":[25.3433811085302,-21.7158560536862]}},{"type":"Feature","properties":{"id":2534,"title":"Missing Maps: BUILDINGS ONLY (1/5)  Botswana - Clinton Health Access Initiative","status":"ARCHIVED","created":"2017","lastUpdated":"2017","lastActive":"no","area":6244.03281349213,"changesets":0,"mappers":0,"roads":0,"buildings":0,"edits":0,"latest":null},"geometry":{"type":"Point","coordinates":[26.0345056760396,-19.9466843617669]}},{"type":"Feature","properties":{"id":2530,"title":"Missing Maps: TOROMOJA, Botswana - Clinton Health Access Initiative","status":"ARCHIVED","created":"2017","lastUpdated":"2017","lastActive":"no","area":313.41902484934343,"changesets":0,"mappers":0,"roads":0,"buildings":0,"edits":0,"latest":null},"geometry":{"type":"Point","coordinates":[24.6083678501743,-21.0577627315384]}}],"Japan":[{"type":"Feature","properties":{"id":1798,"title":"Earthquake in Yamato Town, Kumamoto Prefecture, Japan, 2016","status":"ARCHIVED","created":"2016","lastUpdated":"2016","lastActive":"no","area":546.2027170876258,"changesets":735,"mappers":114,"roads":75.1930825106669,"buildings":8346,"edits":11438,"latest":"2016-07-05T14:52:13.000Z"},"geometry":{"type":"Point","coordinates":[131.049207790953,32.6991104031485]}},{"type":"Feature","properties":{"id":1800,"title":"Earthquake in Beppu City, Oita Prefecture, Japan, 2016","status":"ARCHIVED","created":"2016","lastUpdated":"2017","lastActive":"no","area":152.30853044168347,"changesets":1941,"mappers":173,"roads":173.596685497026,"buildings":51353,"edits":62063,"latest":"2016-06-30T18:58:12.000Z"},"geometry":{"type":"Point","coordinates":[131.465500075922,33.2899298693956]}},{"type":"Feature","properties":{"id":1792,"title":"Earthquake in Takamori Town, Kumamoto Prefecture, Japan, 2016","status":"ARCHIVED","created":"2016","lastUpdated":"2016","lastActive":"no","area":175.54473897487478,"changesets":668,"mappers":77,"roads":100.98705805357,"buildings":6908,"edits":9896,"latest":"2016-05-01T12:00:03.000Z"},"geometry":{"type":"Point","coordinates":[131.202972228968,32.8404873043244]}},{"type":"Feature","properties":{"id":3306,"title":"Landslides and Flood mapping in Asakura City(Jul 8)Fukuoka-Oita Heavy rain and flood 2017 Jul","status":"ARCHIVED","created":"2017","lastUpdated":"2017","lastActive":"no","area":32.28971578080265,"changesets":58,"mappers":15,"roads":7.60454552097242,"buildings":494,"edits":814,"latest":"2017-07-19T22:16:55.000Z"},"geometry":{"type":"Point","coordinates":[130.818304727188,33.3856400556704]}},{"type":"Feature","properties":{"id":5245,"title":"Japan Earthquake, East Iburi, Hokkaido. 2018 : Kiyota, Sapporo area(Sep.13)","status":"ARCHIVED","created":"2018","lastUpdated":"2018","lastActive":"no","area":34.285657197852785,"changesets":541,"mappers":41,"roads":36.7346598297736,"buildings":2708,"edits":4931,"latest":"2018-10-03T18:14:25.000Z"},"geometry":{"type":"Point","coordinates":[141.458673590296,42.9921723364397]}},{"type":"Feature","properties":{"id":5221,"title":"Japan Earthquake, East Iburi, Hokkaido. 2018 : Atsuma East area(Sep.11)","status":"ARCHIVED","created":"2018","lastUpdated":"2018","lastActive":"no","area":324.6352798973517,"changesets":545,"mappers":73,"roads":199.942585035886,"buildings":8110,"edits":9694,"latest":"2018-09-19T16:13:19.000Z"},"geometry":{"type":"Point","coordinates":[142.046081065687,42.6634310672477]}},{"type":"Feature","properties":{"id":5228,"title":"Japan Earthquake, East Iburi, Hokkaido. 2018 : Abira and Atsuma West area(Sep.11)","status":"ARCHIVED","created":"2018","lastUpdated":"2018","lastActive":"no","area":447.41762553233076,"changesets":793,"mappers":75,"roads":391.936244163471,"buildings":17465,"edits":20477,"latest":"2018-10-19T17:15:26.000Z"},"geometry":{"type":"Point","coordinates":[141.760407302129,42.7685622229011]}},{"type":"Feature","properties":{"id":1844,"title":"Earthquake in Mifune Town, Oita Prefecture, Japan, 2016","status":"ARCHIVED","created":"2016","lastUpdated":"2016","lastActive":"no","area":99.30256772767892,"changesets":1076,"mappers":112,"roads":264.107781448825,"buildings":16055,"edits":25724,"latest":"2017-03-28T11:56:18.000Z"},"geometry":{"type":"Point","coordinates":[130.85752528527,32.7306342915371]}},{"type":"Feature","properties":{"id":3308,"title":"Landslides and Flood mapping in Katsura River, Asakura City(Jul 7)Fukuoka-Oita Heavy rain and flood 2017 Jul","status":"ARCHIVED","created":"2017","lastUpdated":"2018","lastActive":"no","area":2.9472538160542134,"changesets":236,"mappers":49,"roads":20.5324876386689,"buildings":1713,"edits":3124,"latest":"2017-09-16T12:19:02.000Z"},"geometry":{"type":"Point","coordinates":[130.735651885494,33.3917099784435]}},{"type":"Feature","properties":{"id":3282,"title":"Asakura City Building MappingFukuoka-Oita Heavy rain and flood 2017 Jul","status":"ARCHIVED","created":"2017","lastUpdated":"2018","lastActive":"no","area":247.36597129302896,"changesets":1312,"mappers":138,"roads":117.081833580133,"buildings":41006,"edits":48345,"latest":"2018-02-14T01:43:46.000Z"},"geometry":{"type":"Point","coordinates":[130.741661174963,33.4168447182425]}},{"type":"Feature","properties":{"id":1778,"title":"Earthquake in Mashiki town, Kumamoto Prefecture, Japan, 2016","status":"PUBLISHED","created":"2016","lastUpdated":"2019","lastActive":"no","area":65.86508751823753,"changesets":1497,"mappers":108,"roads":281.809905807344,"buildings":27400,"edits":44381,"latest":"2016-05-21T06:22:23.000Z"},"geometry":{"type":"Point","coordinates":[130.833982599619,32.7874927234944]}},{"type":"Feature","properties":{"id":4774,"title":"Suita City, Osaka Earthquake 2018 Jun, JAPAN","status":"ARCHIVED","created":"2018","lastUpdated":"2018","lastActive":"no","area":36.3113020071755,"changesets":866,"mappers":75,"roads":4.49354469676867,"buildings":9925,"edits":10140,"latest":"2018-09-15T09:50:14.000Z"},"geometry":{"type":"Point","coordinates":[135.519112854672,34.7855863336032]}},{"type":"Feature","properties":{"id":4772,"title":"Ibaraki City, Osaka Earthquake 2018 Jun, JAPAN","status":"PUBLISHED","created":"2018","lastUpdated":"2019","lastActive":"yes","area":76.58351855308723,"changesets":1791,"mappers":140,"roads":18.9369171123359,"buildings":26555,"edits":27082,"latest":"2019-01-21T03:25:38.000Z"},"geometry":{"type":"Point","coordinates":[135.549973574737,34.8559337253054]}},{"type":"Feature","properties":{"id":4776,"title":"Settsu City, Osaka Earthquake 2018 Jun, JAPAN","status":"ARCHIVED","created":"2018","lastUpdated":"2018","lastActive":"no","area":14.908534878895331,"changesets":1000,"mappers":67,"roads":1.88867720429124,"buildings":10726,"edits":10910,"latest":"2018-08-09T09:00:00.000Z"},"geometry":{"type":"Point","coordinates":[135.569558723856,34.7760252097619]}},{"type":"Feature","properties":{"id":4775,"title":"Toyonaka City, Osaka Earthquake 2018 Jun, JAPAN","status":"ARCHIVED","created":"2018","lastUpdated":"2018","lastActive":"no","area":36.30730437832941,"changesets":645,"mappers":55,"roads":0.573624305954235,"buildings":6152,"edits":6246,"latest":"2018-09-14T07:41:10.000Z"},"geometry":{"type":"Point","coordinates":[135.472726152973,34.7818732148825]}},{"type":"Feature","properties":{"id":4773,"title":"Takatsuki City, Osaka Earthquake 2018 Jun, JAPAN","status":"ARCHIVED","created":"2018","lastUpdated":"2018","lastActive":"no","area":105.53947052025272,"changesets":7299,"mappers":426,"roads":151.250944761823,"buildings":153584,"edits":158918,"latest":"2018-08-06T19:20:18.000Z"},"geometry":{"type":"Point","coordinates":[135.60791492675,34.8807980349182]}},{"type":"Feature","properties":{"id":1699,"title":"Missing Maps: Tastsuno Building Maping","status":"ARCHIVED","created":"2016","lastUpdated":"2018","lastActive":"no","area":1.3236861714962658,"changesets":633,"mappers":48,"roads":5.19681031050482,"buildings":2750,"edits":3606,"latest":"2017-11-13T01:50:23.000Z"},"geometry":{"type":"Point","coordinates":[134.541582428416,34.8652059687892]}},{"type":"Feature","properties":{"id":1830,"title":"Landslide : M7.3 Earthquake in Nishihara Area, Kumamoto Prefecture, Japan, 2016","status":"ARCHIVED","created":"2016","lastUpdated":"2016","lastActive":"no","area":283.3536486994519,"changesets":373,"mappers":65,"roads":43.7212419274526,"buildings":2523,"edits":4485,"latest":"2016-08-07T00:17:39.000Z"},"geometry":{"type":"Point","coordinates":[130.892449577356,32.8533709183948]}},{"type":"Feature","properties":{"id":1784,"title":"Earthquake in Kumamoto city, Kumamoto Prefecture, Japan, 2016","status":"ARCHIVED","created":"2016","lastUpdated":"2018","lastActive":"no","area":489.79787885270974,"changesets":4332,"mappers":334,"roads":298.334225119409,"buildings":79513,"edits":99935,"latest":"2018-07-08T14:16:45.000Z"},"geometry":{"type":"Point","coordinates":[130.666269676077,32.8015474721824]}},{"type":"Feature","properties":{"id":4848,"title":"Japan Flood 2018 July, Saka-cho, Hiroshima","status":"ARCHIVED","created":"2018","lastUpdated":"2018","lastActive":"no","area":13.956177727711081,"changesets":265,"mappers":55,"roads":6.78602972606845,"buildings":6615,"edits":6836,"latest":"2018-08-14T16:08:47.000Z"},"geometry":{"type":"Point","coordinates":[132.510103923126,34.3310276753957]}},{"type":"Feature","properties":{"id":4843,"title":"Japan Flood 2018 July, Kurashiki/Sojya, Okayama","status":"ARCHIVED","created":"2018","lastUpdated":"2018","lastActive":"no","area":94.70391766239938,"changesets":3269,"mappers":257,"roads":183.205513940581,"buildings":72111,"edits":77239,"latest":"2018-07-16T10:48:29.000Z"},"geometry":{"type":"Point","coordinates":[133.697928681897,34.6514507912212]}},{"type":"Feature","properties":{"id":5188,"title":"Japan Earthquake, East Iburi, Hokkaido. 2018 : Atsuma River area(Sep.6)","status":"ARCHIVED","created":"2018","lastUpdated":"2018","lastActive":"no","area":193.41100117425714,"changesets":460,"mappers":38,"roads":230.352705581106,"buildings":3067,"edits":4765,"latest":"2018-09-10T18:46:21.000Z"},"geometry":{"type":"Point","coordinates":[141.964669625959,42.7714200544858]}}],"Iraq":[{"type":"Feature","properties":{"id":1809,"title":"Missing Maps : IDPs, Tikrit-Samarra axis, Irak (Step 2)","status":"ARCHIVED","created":"2016","lastUpdated":"2016","lastActive":"no","area":470.44261646814874,"changesets":0,"mappers":0,"roads":0,"buildings":0,"edits":0,"latest":null},"geometry":{"type":"Point","coordinates":[43.8387693162934,34.2625124803903]}},{"type":"Feature","properties":{"id":5576,"title":"Mapping Erbil Governorate - Erbil District","status":"PUBLISHED","created":"2018","lastUpdated":"2019","lastActive":"no","area":2901.832375110413,"changesets":169,"mappers":18,"roads":51.1857869245854,"buildings":1679,"edits":1845,"latest":"2019-01-20T21:55:04.000Z"},