{"totalEdits":43303730,"totalBuildings":35941291,"totalRoads":912454.993808253,"mappersOnline":100,"totalTasksMapped":1724583,"totalMappers":147564,"totalProjects":4231,"Russia":[{"type":"Feature","properties":{"id":5049,"title":"Kaluga, RU - Road Alignment","status":"PUBLISHED","created":"2018","lastUpdated":"2018","lastActive":"no","area":10.587303562416615,"changesets":1,"mappers":1,"roads":0.159744480365076,"buildings":0,"edits":43,"latest":"2018-10-29T12:17:28.000Z"},"geometry":{"type":"Point","coordinates":[35.7221561476756,54.5927443769091]}},{"type":"Feature","properties":{"id":5047,"title":"Vologda, RU - Road Alignment","status":"PUBLISHED","created":"2018","lastUpdated":"2018","lastActive":"no","area":35.28516778928109,"changesets":0,"mappers":0,"roads":0,"buildings":0,"edits":0,"latest":null},"geometry":{"type":"Point","coordinates":[40.0393416965148,59.7751178689939]}},{"type":"Feature","properties":{"id":5039,"title":"Smolensk, RU - Road Alignment","status":"PUBLISHED","created":"2018","lastUpdated":"2018","lastActive":"no","area":28.43951608669756,"changesets":18,"mappers":1,"roads":13.5643616443056,"buildings":128,"edits":711,"latest":"2018-11-06T18:43:12.000Z"},"geometry":{"type":"Point","coordinates":[32.8547004619526,54.8764930805367]}},{"type":"Feature","properties":{"id":5074,"title":"Voronezh, RU - Road Alignment","status":"PUBLISHED","created":"2018","lastUpdated":"2018","lastActive":"no","area":51.88857016130644,"changesets":34,"mappers":1,"roads":0.812561863103931,"buildings":19,"edits":545,"latest":"2018-11-16T10:34:45.000Z"},"geometry":{"type":"Point","coordinates":[40.2695201655274,50.9627839626112]}},{"type":"Feature","properties":{"id":5071,"title":"Belgorad, RU - Road Alignment","status":"PUBLISHED","created":"2018","lastUpdated":"2018","lastActive":"no","area":38.115130732068074,"changesets":51,"mappers":1,"roads":20.7782732699154,"buildings":39,"edits":608,"latest":"2018-11-20T22:22:38.000Z"},"geometry":{"type":"Point","coordinates":[37.4150271811611,50.6657608441237]}},{"type":"Feature","properties":{"id":5035,"title":"St. Petersburg, RU - Road Alignment","status":"PUBLISHED","created":"2018","lastUpdated":"2018","lastActive":"yes","area":8.561300785249289,"changesets":332,"mappers":1,"roads":19.7571350087767,"buildings":150,"edits":4218,"latest":"2018-11-24T13:02:54.000Z"},"geometry":{"type":"Point","coordinates":[30.23445185656,59.9410578806373]}},{"type":"Feature","properties":{"id":5033,"title":"Karelia, RU - Road Alignment","status":"PUBLISHED","created":"2018","lastUpdated":"2018","lastActive":"no","area":15.783143957120704,"changesets":0,"mappers":0,"roads":0,"buildings":0,"edits":0,"latest":null},"geometry":{"type":"Point","coordinates":[32.653970249643,63.1683112124834]}},{"type":"Feature","properties":{"id":5111,"title":"Tomsk, RU - Road Alignment","status":"PUBLISHED","created":"2018","lastUpdated":"2018","lastActive":"no","area":8.291597604665306,"changesets":5,"mappers":1,"roads":0.629914577296326,"buildings":5,"edits":37,"latest":"2018-10-20T21:50:51.000Z"},"geometry":{"type":"Point","coordinates":[83.3986752670868,57.7318453073323]}},{"type":"Feature","properties":{"id":5113,"title":"Khakassia, RU - Road Alignment","status":"PUBLISHED","created":"2018","lastUpdated":"2018","lastActive":"no","area":2.2758892585070725,"changesets":15,"mappers":1,"roads":2.89320533561135,"buildings":1,"edits":62,"latest":"2018-10-28T13:13:05.000Z"},"geometry":{"type":"Point","coordinates":[91.0513384700272,53.6367519341592]}},{"type":"Feature","properties":{"id":5123,"title":"Magadan, RU - Road Alignment","status":"PUBLISHED","created":"2018","lastUpdated":"2018","lastActive":"no","area":5.034648396223297,"changesets":6,"mappers":1,"roads":0.0962224326601914,"buildings":0,"edits":37,"latest":"2018-10-13T15:44:20.000Z"},"geometry":{"type":"Point","coordinates":[151.195448468034,60.5667867782767]}},{"type":"Feature","properties":{"id":5107,"title":"Omsk, RU - Road Alignment","status":"PUBLISHED","created":"2018","lastUpdated":"2018","lastActive":"no","area":18.92588387234162,"changesets":5,"mappers":1,"roads":0.0915746009074978,"buildings":0,"edits":23,"latest":"2018-10-24T15:05:46.000Z"},"geometry":{"type":"Point","coordinates":[73.1251378094216,55.4331855578523]}},{"type":"Feature","properties":{"id":5105,"title":"Kurgan, RU - Road Alignment","status":"PUBLISHED","created":"2018","lastUpdated":"2018","lastActive":"no","area":10.828553519234841,"changesets":19,"mappers":1,"roads":2.15622438545207,"buildings":1,"edits":123,"latest":"2018-10-28T13:16:40.000Z"},"geometry":{"type":"Point","coordinates":[65.1515824192141,55.1397216389689]}},{"type":"Feature","properties":{"id":5121,"title":"Sakhalin, RU - Road Alignment","status":"PUBLISHED","created":"2018","lastUpdated":"2018","lastActive":"no","area":5.566677215936195,"changesets":5,"mappers":1,"roads":1.36468434946041,"buildings":3,"edits":40,"latest":"2018-10-24T17:19:44.000Z"},"geometry":{"type":"Point","coordinates":[142.738432590344,48.9062608568148]}},{"type":"Feature","properties":{"id":5097,"title":"Mari El, RU - Road Alignment","status":"PUBLISHED","created":"2018","lastUpdated":"2018","lastActive":"no","area":2.1194954020724452,"changesets":9,"mappers":1,"roads":0.126755578113588,"buildings":0,"edits":45,"latest":"2018-10-04T16:23:52.000Z"},"geometry":{"type":"Point","coordinates":[48.561181273909,56.5923240658307]}},{"type":"Feature","properties":{"id":5091,"title":"Adygeya, RU - Road Alignment","status":"PUBLISHED","created":"2018","lastUpdated":"2018","lastActive":"no","area":3.5556777849193764,"changesets":13,"mappers":1,"roads":0.34216005800038,"buildings":2,"edits":224,"latest":"2018-10-29T19:34:26.000Z"},"geometry":{"type":"Point","coordinates":[39.6558268279716,44.8484239957608]}},{"type":"Feature","properties":{"id":5095,"title":"Ulianovsk, RU - Road Alignment","status":"PUBLISHED","created":"2018","lastUpdated":"2018","lastActive":"no","area":10.512720117766863,"changesets":13,"mappers":1,"roads":0.19515506828913,"buildings":0,"edits":78,"latest":"2018-11-01T07:42:38.000Z"},"geometry":{"type":"Point","coordinates":[48.0134617931904,53.772705368293]}},{"type":"Feature","properties":{"id":5087,"title":"Ingushetia, RU - Road Alignment","status":"PUBLISHED","created":"2018","lastUpdated":"2018","lastActive":"no","area":5.5580742626089785,"changesets":2,"mappers":1,"roads":0.037670290924601,"buildings":0,"edits":14,"latest":"2018-10-30T15:42:37.000Z"},"geometry":{"type":"Point","coordinates":[44.9998103358445,43.2859058104622]}},{"type":"Feature","properties":{"id":5085,"title":"Kalmykia, RU - Road Alignment","status":"PUBLISHED","created":"2018","lastUpdated":"2018","lastActive":"no","area":10.056908395488977,"changesets":10,"mappers":1,"roads":4.37148898049341,"buildings":12,"edits":202,"latest":"2018-10-31T16:42:50.000Z"},"geometry":{"type":"Point","coordinates":[44.9932637551155,46.0090609593374]}},{"type":"Feature","properties":{"id":5117,"title":"Zabaykalsk, RU - Road Alignment","status":"PUBLISHED","created":"2018","lastUpdated":"2018","lastActive":"no","area":15.535301906848705,"changesets":0,"mappers":0,"roads":0,"buildings":0,"edits":0,"latest":null},"geometry":{"type":"Point","coordinates":[115.893622536766,50.898877166788]}},{"type":"Feature","properties":{"id":5079,"title":"Nizhny Novgorod, RU - Road Alignment","status":"PUBLISHED","created":"2018","lastUpdated":"2018","lastActive":"no","area":23.49516750453581,"changesets":5,"mappers":1,"roads":0.0220785561293529,"buildings":0,"edits":10,"latest":"2018-10-08T13:09:31.000Z"},"geometry":{"type":"Point","coordinates":[44.5683003348931,55.6787726091367]}},{"type":"Feature","properties":{"id":5103,"title":"Perm, RU - Road Alignment","status":"PUBLISHED","created":"2018","lastUpdated":"2018","lastActive":"no","area":19.050963663499118,"changesets":36,"mappers":2,"roads":1.89355946602952,"buildings":10,"edits":284,"latest":"2018-10-17T18:01:41.000Z"},"geometry":{"type":"Point","coordinates":[55.8676360593071,57.9984261773804]}},{"type":"Feature","properties":{"id":5083,"title":"Saratov, RU - Road Alignment","status":"PUBLISHED","created":"2018","lastUpdated":"2018","lastActive":"no","area":32.40097117720466,"changesets":34,"mappers":1,"roads":0.77353210229752,"buildings":6,"edits":341,"latest":"2018-10-28T13:14:20.000Z"},"geometry":{"type":"Point","coordinates":[46.1811223773877,51.5916763633425]}},{"type":"Feature","properties":{"id":5089,"title":"Kabardino-Balkaria, RU - Road Alignment","status":"PUBLISHED","created":"2018","lastUpdated":"2018","lastActive":"no","area":23.622718462797803,"changesets":66,"mappers":1,"roads":24.6938510572666,"buildings":1330,"edits":2024,"latest":"2018-11-23T20:22:29.000Z"},"geometry":{"type":"Point","coordinates":[43.9811521507747,43.5359455756532]}},{"type":"Feature","properties":{"id":5072,"title":"Oryol, RU - Road Alignment","status":"PUBLISHED","created":"2018","lastUpdated":"2018","lastActive":"no","area":16.540756268279804,"changesets":0,"mappers":0,"roads":0,"buildings":0,"edits":0,"latest":null},"geometry":{"type":"Point","coordinates":[36.5339864599229,52.7957040500738]}},{"type":"Feature","properties":{"id":5038,"title":"Novgorod, RU - Road Alignment","status":"PUBLISHED","created":"2018","lastUpdated":"2018","lastActive":"no","area":10.46150373873454,"changesets":0,"mappers":0,"roads":0,"buildings":0,"edits":0,"latest":null},"geometry":{"type":"Point","coordinates":[31.9263050659094,58.2489414609353]}},{"type":"Feature","properties":{"id":5075,"title":"Lipetsk, RU - Road Alignment","status":"PUBLISHED","created":"2018","lastUpdated":"2018","lastActive":"no","area":12.278823639779748,"changesets":24,"mappers":1,"roads":2.47261798372648,"buildings":281,"edits":652,"latest":"2018-11-10T00:49:57.000Z"},"geometry":{"type":"Point","coordinates":[39.1004986289472,52.6545859654903]}},{"type":"Feature","properties":{"id":5115,"title":"Krasnoyarsk, RU - Road Alignment","status":"PUBLISHED","created":"2018","lastUpdated":"2018","lastActive":"no","area":22.824888459707374,"changesets":78,"mappers":1,"roads":15.4802476295006,"buildings":108,"edits":630,"latest":"2018-10-20T05:40:12.000Z"},"geometry":{"type":"Point","coordinates":[93.4116099617817,57.0117959504218]}},{"type":"Feature","properties":{"id":5119,"title":"Sakha, RU - Road Alignment","status":"PUBLISHED","created":"2018","lastUpdated":"2018","lastActive":"no","area":33.426355275199285,"changesets":0,"mappers":0,"roads":0,"buildings":0,"edits":0,"latest":null},"geometry":{"type":"Point","coordinates":[124.725706215512,61.3401873829566]}},{"type":"Feature","properties":{"id":5109,"title":"Khantia-Mansia, RU - Road Alignment","status":"PUBLISHED","created":"2018","lastUpdated":"2018","lastActive":"no","area":30.253087893790546,"changesets":15,"mappers":1,"roads":4.51497994941806,"buildings":10,"edits":99,"latest":"2018-11-06T07:57:43.000Z"},"geometry":{"type":"Point","coordinates":[71.975901037221,61.2624729564418]}},{"type":"Feature","properties":{"id":5093,"title":"Stavropol, RU - Road Alignment","status":"PUBLISHED","created":"2018","lastUpdated":"2018","lastActive":"no","area":39.278249308473754,"changesets":9,"mappers":1,"roads":0.142855842145349,"buildings":0,"edits":56,"latest":"2018-11-01T06:46:47.000Z"},"geometry":{"type":"Point","coordinates":[42.9341936478082,44.7607848987624]}},{"type":"Feature","properties":{"id":5101,"title":"Orenburg, RU - Road Alignment","status":"PUBLISHED","created":"2018","lastUpdated":"2018","lastActive":"no","area":62.971849944699215,"changesets":22,"mappers":1,"roads":3.45699288107569,"buildings":53,"edits":181,"latest":"2018-10-24T08:43:40.000Z"},"geometry":{"type":"Point","coordinates":[54.8065548783445,52.0610390047715]}},{"type":"Feature","properties":{"id":5099,"title":"Samara, RU - Road Alignment","status":"PUBLISHED","created":"2018","lastUpdated":"2018","lastActive":"no","area":30.485075606543912,"changesets":151,"mappers":1,"roads":22.4323424152844,"buildings":519,"edits":1982,"latest":"2018-10-17T10:16:33.000Z"},"geometry":{"type":"Point","coordinates":[50.3445307565892,53.3708217054506]}},{"type":"Feature","properties":{"id":5044,"title":"Arkhangelsk, RU - Road Alignment","status":"PUBLISHED","created":"2018","lastUpdated":"2018","lastActive":"no","area":12.606328751411732,"changesets":7,"mappers":1,"roads":0.839928983903169,"buildings":6,"edits":251,"latest":"2018-11-06T15:55:43.000Z"},"geometry":{"type":"Point","coordinates":[42.0930614019958,62.114544765511]}},{"type":"Feature","properties":{"id":5077,"title":"Ivanovo, RU - Road Alignment","status":"PUBLISHED","created":"2018","lastUpdated":"2018","lastActive":"no","area":13.702294049661324,"changesets":36,"mappers":1,"roads":1.82352967283976,"buildings":5,"edits":214,"latest":"2018-11-20T10:31:06.000Z"},"geometry":{"type":"Point","coordinates":[41.5762520611261,56.9819705148539]}},{"type":"Feature","properties":{"id":5046,"title":"Komi, RU - Road Alignment","status":"PUBLISHED","created":"2018","lastUpdated":"2018","lastActive":"no","area":14.971932687664575,"changesets":1,"mappers":1,"roads":0.00554685444333487,"buildings":0,"edits":3,"latest":"2018-10-09T20:34:56.000Z"},"geometry":{"type":"Point","coordinates":[54.8314035068119,63.1269365587441]}},{"type":"Feature","properties":{"id":5032,"title":"Murmansk, RU - Road Alignment","status":"PUBLISHED","created":"2018","lastUpdated":"2018","lastActive":"no","area":6.135141048257239,"changesets":4,"mappers":3,"roads":0.15765872321554,"buildings":0,"edits":11,"latest":"2018-11-14T11:47:29.000Z"},"geometry":{"type":"Point","coordinates":[32.1535937499972,68.1519441236096]}},{"type":"Feature","properties":{"id":5048,"title":"Bryansk, RU - Road Alignment","status":"PUBLISHED","created":"2018","lastUpdated":"2018","lastActive":"no","area":30.262723825140842,"changesets":8,"mappers":1,"roads":1.09229506192473,"buildings":1,"edits":39,"latest":"2018-10-28T12:49:03.000Z"},"geometry":{"type":"Point","coordinates":[33.4570235672206,53.0043322730238]}},{"type":"Feature","properties":{"id":5081,"title":"Tambov, RU - Road Alignment","status":"PUBLISHED","created":"2018","lastUpdated":"2018","lastActive":"no","area":26.18715669406076,"changesets":2,"mappers":2,"roads":0.00403649833909725,"buildings":1,"edits":32,"latest":"2018-11-19T18:17:20.000Z"},"geometry":{"type":"Point","coordinates":[41.3729375849855,52.7601922019812]}},{"type":"Feature","properties":{"id":5036,"title":"Kalingrad, RU - Road Alignment","status":"PUBLISHED","created":"2018","lastUpdated":"2018","lastActive":"no","area":8.85709870763704,"changesets":54,"mappers":3,"roads":6.74090503360196,"buildings":42,"edits":1491,"latest":"2018-11-09T18:06:16.000Z"},"geometry":{"type":"Point","coordinates":[21.2683677067525,54.7166459195005]}},{"type":"Feature","properties":{"id":5034,"title":"Leningrad, RU - Road Alignment","status":"PUBLISHED","created":"2018","lastUpdated":"2018","lastActive":"no","area":23.54027298174626,"changesets":2,"mappers":1,"roads":0.0224792879778619,"buildings":0,"edits":6,"latest":"2018-10-28T21:26:36.000Z"},"geometry":{"type":"Point","coordinates":[30.839409774744,60.1248894787618]}},{"type":"Feature","properties":{"id":5040,"title":"Tver, RU - Road Alignment","status":"PUBLISHED","created":"2018","lastUpdated":"2018","lastActive":"no","area":23.79800173254469,"changesets":30,"mappers":1,"roads":4.08514426550506,"buildings":13,"edits":377,"latest":"2018-11-06T18:49:45.000Z"},"geometry":{"type":"Point","coordinates":[34.6891817016017,56.9824041620985]}},{"type":"Feature","properties":{"id":5050,"title":"Moscow, RU - Road Alignment","status":"PUBLISHED","created":"2018","lastUpdated":"2018","lastActive":"no","area":67.22729165523474,"changesets":388,"mappers":29,"roads":134.579730807153,"buildings":592,"edits":4404,"latest":"2018-11-15T15:24:08.000Z"},"geometry":{"type":"Point","coordinates":[37.5334085802161,55.6984793925584]}}],"totalArea":5723451.444181466,"Indonesia":[{"type":"Feature","properties":{"id":4983,"title":"Missing Maps: Pandeglang, Banten, Indonesia","status":"PUBLISHED","created":"2018","lastUpdated":"2018","lastActive":"no","area":2840.3654821305727,"changesets":12000,"mappers":1009,"roads":364.187282026236,"buildings":150901,"edits":152494,"latest":"2018-11-24T15:40:06.000Z"},"geometry":{"type":"Point","coordinates":[105.746647595123,-6.5898001130679]}},{"type":"Feature","properties":{"id":4834,"title":"Missing Maps: Central Java, Temanggung, Indonesia","status":"PUBLISHED","created":"2018","lastUpdated":"2018","lastActive":"no","area":885.5336623943101,"changesets":3849,"mappers":214,"roads":84.4047033460475,"buildings":43860,"edits":44491,"latest":"2018-11-22T16:13:08.000Z"},"geometry":{"type":"Point","coordinates":[110.140014215434,-7.25939687669742]}},{"type":"Feature","properties":{"id":902,"title":"Samarinda City Tasking -  OSM Training Samarinda","status":"ARCHIVED","created":"2015","lastUpdated":"2016","lastActive":"no","area":265.6469267745536,"changesets":10,"mappers":3,"roads":3.36536555083597,"buildings":358,"edits":428,"latest":"2016-01-27T10:36:16.000Z"},"geometry":{"type":"Point","coordinates":[117.14740909284,-0.521272744644264]}},{"type":"Feature","properties":{"id":2085,"title":"Missing Maps: Jambangan Sub Districs #PDC Surabaya","status":"ARCHIVED","created":"2016","lastUpdated":"2017","lastActive":"no","area":4.372352653913602,"changesets":220,"mappers":9,"roads":40.262470357784,"buildings":8408,"edits":10104,"latest":"2017-02-22T08:43:12.000Z"},"geometry":{"type":"Point","coordinates":[112.715697830644,-7.32312667880513]}},{"type":"Feature","properties":{"id":96,"title":"North Padang","status":"PUBLISHED","created":"2012","lastUpdated":"2016","lastActive":"no","area":24.10763674645945,"changesets":186,"mappers":12,"roads":42.0964925786796,"buildings":62221,"edits":62949,"latest":"2017-09-27T07:44:21.000Z"},"geometry":{"type":"Point","coordinates":[100.349105833386,-0.871349778820838]}},{"type":"Feature","properties":{"id":849,"title":"Indonesia OSM Community Mapathon - Pontianak, West Kalimantan","status":"PUBLISHED","created":"2015","lastUpdated":"2018","lastActive":"no","area":299.0802254542062,"changesets":12,"mappers":5,"roads":6.24263749586952,"buildings":35,"edits":45,"latest":"2016-04-06T11:41:08.000Z"},"geometry":{"type":"Point","coordinates":[109.338359354216,-0.060337807147577]}},{"type":"Feature","properties":{"id":4833,"title":"Missing Maps: Central Java, Kota Semarang, Indonesia","status":"ARCHIVED","created":"2018","lastUpdated":"2018","lastActive":"no","area":380.08218266563614,"changesets":134,"mappers":62,"roads":3.79709820771355,"buildings":818,"edits":869,"latest":"2018-11-06T17:55:47.000Z"},"geometry":{"type":"Point","coordinates":[110.384724939437,-7.02293729968189]}},{"type":"Feature","properties":{"id":555,"title":"Training UNHAS Makassar","status":"PUBLISHED","created":"2014","lastUpdated":"2018","lastActive":"no","area":18.272629889754338,"changesets":0,"mappers":0,"roads":0,"buildings":0,"edits":0,"latest":null},"geometry":{"type":"Point","coordinates":[119.498923122722,-5.13248292682091]}},{"type":"Feature","properties":{"id":300,"title":"The entire extent of July 2 earthquake zone (Above MMI5)","status":"PUBLISHED","created":"2013","lastUpdated":"2017","lastActive":"no","area":2961.7402540220824,"changesets":671,"mappers":25,"roads":731.527821867884,"buildings":346,"edits":4681,"latest":"2018-02-19T03:30:22.000Z"},"geometry":{"type":"Point","coordinates":[96.6923185835241,4.69253019250577]}},{"type":"Feature","properties":{"id":2682,"title":"Missing Maps: Mampang Prapatan Sub Districs #PDC Jakarta","status":"ARCHIVED","created":"2017","lastUpdated":"2017","lastActive":"no","area":7.937678176628443,"changesets":322,"mappers":8,"roads":27.7159762684502,"buildings":34460,"edits":37381,"latest":"2017-09-25T07:37:28.000Z"},"geometry":{"type":"Point","coordinates":[106.821002574256,-6.25223001999702]}},{"type":"Feature","properties":{"id":2086,"title":"Missing Maps: Tandes Sub Districs #PDC Surabaya","status":"ARCHIVED","created":"2016","lastUpdated":"2017","lastActive":"no","area":9.59192105411639,"changesets":282,"mappers":6,"roads":19.6289853943348,"buildings":19034,"edits":20892,"latest":"2017-03-13T03:23:29.000Z"},"geometry":{"type":"Point","coordinates":[112.671503697337,-7.25568243266654]}},{"type":"Feature","properties":{"id":908,"title":"Karangetang Volcano Mitigation and Preparedness","status":"PUBLISHED","created":"2015","lastUpdated":"2017","lastActive":"no","area":126.20571151989787,"changesets":451,"mappers":33,"roads":27.2139922947724,"buildings":1850,"edits":2105,"latest":"2017-09-07T16:46:00.000Z"},"geometry":{"type":"Point","coordinates":[125.401234797259,2.73690010041481]}},{"type":"Feature","properties":{"id":1339,"title":"Indonesian Fires 2015 | South Kalimantan - Bahaur","status":"PUBLISHED","created":"2015","lastUpdated":"2018","lastActive":"no","area":5440.689877501984,"changesets":482,"mappers":63,"roads":247.508246667985,"buildings":1594,"edits":2581,"latest":"2018-11-12T12:31:56.000Z"},"geometry":{"type":"Point","coordinates":[113.927859641877,-3.06191301375416]}},{"type":"Feature","properties":{"id":3035,"title":"Missing Maps: Koja Sub Districs #PDC Jakarta","status":"ARCHIVED","created":"2017","lastUpdated":"2017","lastActive":"no","area":9.89511853564706,"changesets":450,"mappers":10,"roads":18.8340571467575,"buildings":50848,"edits":53904,"latest":"2017-10-06T01:23:57.000Z"},"geometry":{"type":"Point","coordinates":[106.905929549656,-6.12538848485847]}},{"type":"Feature","properties":{"id":1011,"title":"Aktivitas Pengumpulan Data di DAS Jeneberang","status":"PUBLISHED","created":"2015","lastUpdated":"2015","lastActive":"no","area":2353.106322075065,"changesets":83,"mappers":3,"roads":18.9318585168149,"buildings":1318,"edits":2128,"latest":"2015-08-12T05:02:39.000Z"},"geometry":{"type":"Point","coordinates":[119.730948333476,-5.2697108809525]}},{"type":"Feature","properties":{"id":1336,"title":"Bandung City, West Java, Indonesia","status":"ARCHIVED","created":"2015","lastUpdated":"2017","lastActive":"no","area":262.89341640647143,"changesets":1171,"mappers":128,"roads":105.599907444344,"buildings":20301,"edits":21971,"latest":"2017-04-29T07:43:37.000Z"},"geometry":{"type":"Point","coordinates":[107.605062163076,-6.91740431922777]}},{"type":"Feature","properties":{"id":3031,"title":"Missing Maps: Grogol Petamburan Sub Districs #PDC Jakarta","status":"ARCHIVED","created":"2017","lastUpdated":"2017","lastActive":"no","area":10.805656337791167,"changesets":218,"mappers":5,"roads":3.98900637661907,"buildings":47671,"edits":49629,"latest":"2017-10-03T12:21:38.000Z"},"geometry":{"type":"Point","coordinates":[106.786483931117,-6.16359030555416]}},{"type":"Feature","properties":{"id":3023,"title":"Missing Maps: Jagakarsa Sub Districs #PDC Jakarta","status":"ARCHIVED","created":"2017","lastUpdated":"2018","lastActive":"no","area":25.42210309140762,"changesets":402,"mappers":4,"roads":291.254137097454,"buildings":60355,"edits":74341,"latest":"2017-09-27T08:09:19.000Z"},"geometry":{"type":"Point","coordinates":[106.822686971367,-6.33345822843127]}},{"type":"Feature","properties":{"id":3037,"title":"Missing Maps: Cilincing Sub Districs #PDC Jakarta","status":"ARCHIVED","created":"2017","lastUpdated":"2017","lastActive":"no","area":41.17584204145506,"changesets":370,"mappers":7,"roads":44.6930557805136,"buildings":61048,"edits":65886,"latest":"2017-10-05T06:00:38.000Z"},"geometry":{"type":"Point","coordinates":[106.943262692355,-6.12798931279952]}},{"type":"Feature","properties":{"id":204,"title":"Depok Red Cross / Tulane Mapping","status":"ARCHIVED","created":"2013","lastUpdated":"2014","lastActive":"no","area":2.628292622844075,"changesets":54,"mappers":7,"roads":24.1871934531348,"buildings":2268,"edits":2460,"latest":"2018-10-08T02:16:46.000Z"},"geometry":{"type":"Point","coordinates":[106.81139405098,-6.38662921176067]}},{"type":"Feature","properties":{"id":242,"title":"Papandayan_Garut","status":"ARCHIVED","created":"2013","lastUpdated":"2014","lastActive":"no","area":1049.3592609346736,"changesets":0,"mappers":0,"roads":0,"buildings":0,"edits":0,"latest":null},"geometry":{"type":"Point","coordinates":[107.783160742384,-7.35616027202178]}},{"type":"Feature","properties":{"id":4052,"title":"Missing Maps: Pedurungan Sub Districts #PDC Semarang","status":"PUBLISHED","created":"2018","lastUpdated":"2018","lastActive":"no","area":22.337854701407565,"changesets":481,"mappers":31,"roads":46.6776194885713,"buildings":47970,"edits":49143,"latest":"2018-07-23T03:01:55.000Z"},"geometry":{"type":"Point","coordinates":[110.473977056036,-7.00223449583275]}},{"type":"Feature","properties":{"id":4058,"title":"Missing Maps: Tembalang Sub Districts #PDC Semarang","status":"PUBLISHED","created":"2018","lastUpdated":"2018","lastActive":"no","area":40.54145098859969,"changesets":665,"mappers":56,"roads":264.065386297172,"buildings":45216,"edits":48320,"latest":"2018-07-23T04:57:28.000Z"},"geometry":{"type":"Point","coordinates":[110.460995575373,-7.04854201123433]}},{"type":"Feature","properties":{"id":3017,"title":"Missing Maps: Pasar Rebo Sub Districs #PDC Jakarta","status":"ARCHIVED","created":"2017","lastUpdated":"2017","lastActive":"no","area":12.342260215364801,"changesets":351,"mappers":5,"roads":10.8466904443053,"buildings":37866,"edits":39283,"latest":"2017-10-06T07:49:46.000Z"},"geometry":{"type":"Point","coordinates":[106.857470769184,-6.3271561630854]}},{"type":"Feature","properties":{"id":3029,"title":"Missing Maps: Ciracas Sub Districs #PDC Jakarta","status":"ARCHIVED","created":"2017","lastUpdated":"2017","lastActive":"no","area":16.66387875779246,"changesets":490,"mappers":7,"roads":211.138527419401,"buildings":57133,"edits":67829,"latest":"2017-10-25T03:29:42.000Z"},"geometry":{"type":"Point","coordinates":[106.878465483458,-6.33393509009654]}},{"type":"Feature","properties":{"id":105,"title":"Sidoarjo mud flow or Lapindo mud","status":"PUBLISHED","created":"2012","lastUpdated":"2018","lastActive":"no","area":35.26109381384408,"changesets":1536,"mappers":112,"roads":104.753467597933,"buildings":27806,"edits":31204,"latest":"2018-08-02T19:13:09.000Z"},"geometry":{"type":"Point","coordinates":[112.715788530608,-7.5284579211764]}},{"type":"Feature","properties":{"id":4050,"title":"Missing Maps: Mijen Sub Districts #PDC Semarang","status":"ARCHIVED","created":"2018","lastUpdated":"2018","lastActive":"no","area":58.38424258359907,"changesets":641,"mappers":16,"roads":248.15917317191,"buildings":44462,"edits":48895,"latest":"2018-07-17T03:41:21.000Z"},"geometry":{"type":"Point","coordinates":[110.316039793238,-7.05292695812427]}},{"type":"Feature","properties":{"id":4043,"title":"Missing Maps: Banyumanik Sub Districts #PDC Semarang","status":"ARCHIVED","created":"2018","lastUpdated":"2018","lastActive":"no","area":31.263404954853762,"changesets":619,"mappers":13,"roads":288.064224597288,"buildings":29152,"edits":34454,"latest":"2018-07-17T04:20:43.000Z"},"geometry":{"type":"Point","coordinates":[110.420634743892,-7.0698505073789]}},{"type":"Feature","properties":{"id":4056,"title":"Missing Maps: Semarang Tengah Sub Districts #PDC Semarang","status":"ARCHIVED","created":"2018","lastUpdated":"2018","lastActive":"no","area":5.39883144937884,"changesets":47,"mappers":3,"roads":1.56794116826866,"buildings":550,"edits":773,"latest":"2018-06-28T02:48:20.000Z"},"geometry":{"type":"Point","coordinates":[110.420989498907,-6.98031805440703]}},{"type":"Feature","properties":{"id":4048,"title":"Missing Maps: Genuk Sub Districts #PDC Semarang","status":"PUBLISHED","created":"2018","lastUpdated":"2018","lastActive":"no","area":26.89138122809543,"changesets":337,"mappers":17,"roads":211.651213602355,"buildings":30048,"edits":32607,"latest":"2018-07-23T04:32:20.000Z"},"geometry":{"type":"Point","coordinates":[110.476936026215,-6.96338054019794]}},{"type":"Feature","properties":{"id":4054,"title":"Missing Maps: Semarang Selatan Sub Districts #PDC Semarang","status":"ARCHIVED","created":"2018","lastUpdated":"2018","lastActive":"no","area":6.216206220761751,"changesets":317,"mappers":4,"roads":104.549294432283,"buildings":7273,"edits":9672,"latest":"2018-06-28T09:25:52.000Z"},"geometry":{"type":"Point","coordinates":[110.424620763431,-6.99694059104644]}},{"type":"Feature","properties":{"id":2649,"title":"Missing Maps: Bogor, Indonesia #1","status":"PUBLISHED","created":"2017","lastUpdated":"2017","lastActive":"no","area":10.061609702608509,"changesets":2346,"mappers":184,"roads":18.0713252341816,"buildings":12765,"edits":14933,"latest":"2017-06-14T08:21:14.000Z"},"geometry":{"type":"Point","coordinates":[106.780059310318,-6.5726612113942]}},{"type":"Feature","properties":{"id":2688,"title":"Missing Maps: Matraman Sub Districs #PDCJakarta","status":"ARCHIVED","created":"2017","lastUpdated":"2017","lastActive":"no","area":4.852162587562553,"changesets":558,"mappers":6,"roads":38.9919910337758,"buildings":33387,"edits":36523,"latest":"2017-08-12T01:41:26.000Z"},"geometry":{"type":"Point","coordinates":[106.86450901734,-6.20369990102316]}},{"type":"Feature","properties":{"id":2684,"title":"Missing Maps: Tebet Sub Districs #PDC Jakarta","status":"ARCHIVED","created":"2017","lastUpdated":"2017","lastActive":"no","area":9.408890607713326,"changesets":497,"mappers":20,"roads":19.6793730101626,"buildings":31333,"edits":34092,"latest":"2017-07-19T03:42:49.000Z"},"geometry":{"type":"Point","coordinates":[106.8508708311,-6.22882722261039]}},{"type":"Feature","properties":{"id":2747,"title":"Missing Maps: Tanah Abang Sub Districs #PDC Jakarta","status":"ARCHIVED","created":"2017","lastUpdated":"2017","lastActive":"no","area":10.235889165722531,"changesets":244,"mappers":4,"roads":61.1379398045008,"buildings":19580,"edits":23123,"latest":"2017-07-27T12:33:30.000Z"},"geometry":{"type":"Point","coordinates":[106.809283035778,-6.20555493555219]}},{"type":"Feature","properties":{"id":2575,"title":"OpenStreetMap Training for Develop Risk Assessment Document in Kudus","status":"ARCHIVED","created":"2017","lastUpdated":"2017","lastActive":"no","area":438.38116802269076,"changesets":0,"mappers":0,"roads":0,"buildings":0,"edits":0,"latest":null},"geometry":{"type":"Point","coordinates":[110.869721839865,-6.78906806522312]}},{"type":"Feature","properties":{"id":2810,"title":"Missing Maps: Cakung Sub Districs #PDC Jakarta","status":"ARCHIVED","created":"2017","lastUpdated":"2017","lastActive":"no","area":40.6731416648683,"changesets":928,"mappers":4,"roads":41.6128199606069,"buildings":102543,"edits":108164,"latest":"2017-09-12T04:31:11.000Z"},"geometry":{"type":"Point","coordinates":[106.940749285978,-6.18934724786333]}},{"type":"Feature","properties":{"id":2751,"title":"Missing Maps: Gambir Sub Districs #PDC Jakarta","status":"ARCHIVED","created":"2017","lastUpdated":"2017","lastActive":"no","area":7.532639425068289,"changesets":233,"mappers":6,"roads":17.4080305784869,"buildings":17606,"edits":19317,"latest":"2017-07-19T06:19:32.000Z"},"geometry":{"type":"Point","coordinates":[106.818041882526,-6.17148897715882]}},{"type":"Feature","properties":{"id":4046,"title":"Missing Maps: Gajah Mungkur Sub Districts #PDC Semarang","status":"ARCHIVED","created":"2018","lastUpdated":"2018","lastActive":"no","area":9.7825467368316,"changesets":119,"mappers":3,"roads":24.996948716469,"buildings":6160,"edits":7312,"latest":"2018-06-26T09:46:00.000Z"},"geometry":{"type":"Point","coordinates":[110.405596342639,-7.01275552509079]}},{"type":"Feature","properties":{"id":4057,"title":"Missing Maps: Semarang Utara Sub Districts #PDC Semarang","status":"PUBLISHED","created":"2018","lastUpdated":"2018","lastActive":"no","area":11.395719492311404,"changesets":219,"mappers":6,"roads":50.7096016227286,"buildings":3929,"edits":4597,"latest":"2018-06-25T10:56:51.000Z"},"geometry":{"type":"Point","coordinates":[110.417310280136,-6.95817966495625]}},{"type":"Feature","properties":{"id":4059,"title":"Missing Maps: Tugu Sub Districts #PDC Semarang","status":"ARCHIVED","created":"2018","lastUpdated":"2018","lastActive":"no","area":30.007635401369544,"changesets":150,"mappers":22,"roads":33.7110607357028,"buildings":7137,"edits":7618,"latest":"2018-07-09T08:38:35.000Z"},"geometry":{"type":"Point","coordinates":[110.329889000038,-6.96189968008406]}},{"type":"Feature","properties":{"id":4055,"title":"Missing Maps: Semarang Timur Sub Districts #PDC Semarang","status":"ARCHIVED","created":"2018","lastUpdated":"2018","lastActive":"no","area":5.66841480349367,"changesets":216,"mappers":3,"roads":35.0623491422408,"buildings":6138,"edits":6856,"latest":"2018-06-25T06:09:27.000Z"},"geometry":{"type":"Point","coordinates":[110.437082643682,-6.97269696341064]}},{"type":"Feature","properties":{"id":4051,"title":"Missing Maps: Ngaliyan Sub Districts #PDC Semarang","status":"ARCHIVED","created":"2018","lastUpdated":"2018","lastActive":"no","area":44.8476968659584,"changesets":232,"mappers":10,"roads":46.1065645937855,"buildings":25146,"edits":25826,"latest":"2018-07-23T03:29:53.000Z"},"geometry":{"type":"Point","coordinates":[110.327250358732,-7.00011443821596]}},{"type":"Feature","properties":{"id":4045,"title":"Missing Maps: Candisari Sub Districts #PDC Semarang","status":"ARCHIVED","created":"2018","lastUpdated":"2018","lastActive":"no","area":6.584154314154103,"changesets":231,"mappers":4,"roads":50.7813785654947,"buildings":5331,"edits":6527,"latest":"2018-06-28T08:06:40.000Z"},"geometry":{"type":"Point","coordinates":[110.427687827147,-7.01591541795881]}},{"type":"Feature","properties":{"id":4049,"title":"Missing Maps: Gunung Pati Sub Districts #PDC Semarang","status":"ARCHIVED","created":"2018","lastUpdated":"2018","lastActive":"no","area":60.18197606655719,"changesets":327,"mappers":18,"roads":173.74975489,"buildings":28455,"edits":29910,"latest":"2018-07-05T08:44:40.000Z"},"geometry":{"type":"Point","coordinates":[110.375307098226,-7.06488899513931]}},{"type":"Feature","properties":{"id":4047,"title":"Missing Maps: Gayamsari Sub Districts #PDC Semarang","status":"ARCHIVED","created":"2018","lastUpdated":"2018","lastActive":"no","area":6.330304124274967,"changesets":235,"mappers":4,"roads":19.1323572715271,"buildings":6573,"edits":7030,"latest":"2018-06-14T09:04:51.000Z"},"geometry":{"type":"Point","coordinates":[110.446748476254,-6.97970291344408]}},{"type":"Feature","properties":{"id":4053,"title":"Missing Maps: Semarang Barat Sub Districts #PDC Semarang","status":"ARCHIVED","created":"2018","lastUpdated":"2018","lastActive":"no","area":22.83940614309307,"changesets":397,"mappers":3,"roads":63.8038792305446,"buildings":6232,"edits":7341,"latest":"2018-07-23T08:57:57.000Z"},"geometry":{"type":"Point","coordinates":[110.384285030972,-6.97881389583904]}},{"type":"Feature","properties":{"id":2574,"title":"OpenStreetMap Training for Develop Risk Assessment Document in Jepara","status":"ARCHIVED","created":"2017","lastUpdated":"2017","lastActive":"no","area":1032.1322834117457,"changesets":0,"mappers":0,"roads":0,"buildings":0,"edits":0,"latest":null},"geometry":{"type":"Point","coordinates":[110.767674520483,-6.54866199966636]}}],"Zambia":[{"type":"Feature","properties":{"id":4942,"title":"Priority Areas, Western Province, Zambia Mini Grids Project 05","status":"PUBLISHED","created":"2018","lastUpdated":"2018","lastActive":"no","area":65.6747276055282,"changesets":271,"mappers":41,"roads":0,"buildings":9826,"edits":9826,"latest":"2018-08-07T09:56:48.000Z"},"geometry":{"type":"Point","coordinates":[23.6275817161252,-15.5580334747978]}},{"type":"Feature","properties":{"id":4878,"title":"Priority Areas, North-Western Province, Zambia Mini Grids Project 01","status":"PUBLISHED","created":"2018","lastUpdated":"2018","lastActive":"no","area":399.8496665284776,"changesets":786,"mappers":37,"roads":0.602086118438431,"buildings":22637,"edits":22686,"latest":"2018-08-17T08:56:25.000Z"},"geometry":{"type":"Point","coordinates":[24.9458996814174,-13.1418260604171]}},{"type":"Feature","properties":{"id":4905,"title":"Priority Areas, Muchinga Province, Zambia Mini Grids Project 08","status":"PUBLISHED","created":"2018","lastUpdated":"2018","lastActive":"no","area":208.73494423756583,"changesets":342,"mappers":35,"roads":0.236453175417115,"buildings":7886,"edits":7919,"latest":"2018-08-03T12:15:28.000Z"},"geometry":{"type":"Point","coordinates":[30.4084611744672,-12.212950717318]}},{"type":"Feature","properties":{"id":4881,"title":"Priority Areas, North-Western Province, Zambia Mini Grids Project 02","status":"PUBLISHED","created":"2018","lastUpdated":"2018","lastActive":"no","area":315.33665960709186,"changesets":319,"mappers":34,"roads":0.164957433312246,"buildings":8192,"edits":8241,"latest":"2018-08-31T11:24:55.000Z"},"geometry":{"type":"Point","coordinates":[24.2379781886577,-11.255706313979]}},{"type":"Feature","properties":{"id":4883,"title":"Priority Areas, North-Western Province, Zambia Mini Grids Project 04","status":"PUBLISHED","created":"2018","lastUpdated":"2018","lastActive":"no","area":26.577579403472903,"changesets":84,"mappers":28,"roads":0.0327637665611748,"buildings":3703,"edits":3705,"latest":"2018-07-20T12:13:09.000Z"},"geometry":{"type":"Point","coordinates":[24.9483966190181,-13.596002453546]}},{"type":"Feature","properties":{"id":4899,"title":"Priority Areas, Muchinga Province, Zambia Mini Grids Project 07","status":"PUBLISHED","created":"2018","lastUpdated":"2018","lastActive":"no","area":441.1523928389474,"changesets":540,"mappers":36,"roads":0.250215582929794,"buildings":14739,"edits":14765,"latest":"2018-08-03T10:35:37.000Z"},"geometry":{"type":"Point","coordinates":[32.4951177388957,-9.87408339150437]}},{"type":"Feature","properties":{"id":4901,"title":"Priority Areas, Western Province, Zambia Mini Grids Project 02","status":"PUBLISHED","created":"2018","lastUpdated":"2018","lastActive":"no","area":86.20979092896107,"changesets":388,"mappers":30,"roads":0.0630880986700207,"buildings":6061,"edits":6064,"latest":"2018-07-31T13:41:57.000Z"},"geometry":{"type":"Point","coordinates":[23.7388563840653,-14.8061782946768]}},{"type":"Feature","properties":{"id":4815,"title":"Priority Areas, Southern Province, Zambia Mini Grids Project 01","status":"PUBLISHED","created":"2018","lastUpdated":"2018","lastActive":"no","area":2421.4759557891675,"changesets":3756,"mappers":40,"roads":0.0343579811795723,"buildings":66955,"edits":66966,"latest":"2018-07-16T14:03:50.000Z"},"geometry":{"type":"Point","coordinates":[26.5621274778074,-16.4445758757379]}},{"type":"Feature","properties":{"id":4853,"title":"Priority Areas, Muchinga Province, Zambia Mini Grids Project 06","status":"PUBLISHED","created":"2018","lastUpdated":"2018","lastActive":"no","area":1817.6416004508362,"changesets":2092,"mappers":37,"roads":0.905534581714069,"buildings":44070,"edits":44266,"latest":"2018-08-17T07:34:09.000Z"},"geometry":{"type":"Point","coordinates":[32.2083821683174,-9.14371619923103]}},{"type":"Feature","properties":{"id":4846,"title":"Priority Areas, Muchinga Province, Zambia Mini Grids Project 04","status":"PUBLISHED","created":"2018","lastUpdated":"2018","lastActive":"no","area":929.6291976614265,"changesets":951,"mappers":38,"roads":1.65187851759928,"buildings":14723,"edits":14748,"latest":"2018-08-17T11:43:04.000Z"},"geometry":{"type":"Point","coordinates":[31.5185684989067,-9.85709047863316]}},{"type":"Feature","properties":{"id":4825,"title":"Priority Areas, Southern Province, Zambia Mini Grids Project 05","status":"PUBLISHED","created":"2018","lastUpdated":"2018","lastActive":"no","area":998.2673623663566,"changesets":1440,"mappers":38,"roads":0.0492268614550338,"buildings":21271,"edits":21290,"latest":"2018-07-18T07:05:41.000Z"},"geometry":{"type":"Point","coordinates":[25.7969948236896,-17.3691501275951]}},{"type":"Feature","properties":{"id":4859,"title":"Priority Areas, Eastern Province, Zambia Mini Grids Project 01","status":"ARCHIVED","created":"2018","lastUpdated":"2018","lastActive":"no","area":1248.2305353046686,"changesets":1213,"mappers":29,"roads":0.0390268800056372,"buildings":50442,"edits":50454,"latest":"2018-07-13T09:25:13.000Z"},"geometry":{"type":"Point","coordinates":[32.7261623523745,-13.2437373001181]}},{"type":"Feature","properties":{"id":4820,"title":"Priority Areas, Southern Province, Zambia Mini Grids Project 03","status":"ARCHIVED","created":"2018","lastUpdated":"2018","lastActive":"no","area":1047.4559738575663,"changesets":651,"mappers":35,"roads":0.0143433118122065,"buildings":18881,"edits":18884,"latest":"2018-07-06T07:00:01.000Z"},"geometry":{"type":"Point","coordinates":[28.3420956132482,-16.3836257536732]}},{"type":"Feature","properties":{"id":4827,"title":"Priority Areas, Southern Province, Zambia Mini Grids Project 06","status":"PUBLISHED","created":"2018","lastUpdated":"2018","lastActive":"no","area":196.74034064721903,"changesets":304,"mappers":33,"roads":0.0373206177418661,"buildings":7085,"edits":7086,"latest":"2018-07-19T09:55:25.000Z"},"geometry":{"type":"Point","coordinates":[27.492882028221,-16.8368382203306]}},{"type":"Feature","properties":{"id":4844,"title":"Priority Areas, Muchinga Province, Zambia Mini Grids Project 02","status":"PUBLISHED","created":"2018","lastUpdated":"2018","lastActive":"no","area":117.96969471416107,"changesets":441,"mappers":34,"roads":27.9742743624376,"buildings":13541,"edits":13560,"latest":"2018-07-19T09:12:40.000Z"},"geometry":{"type":"Point","coordinates":[32.248068994447,-10.1170343784785]}},{"type":"Feature","properties":{"id":4370,"title":"Lusaka Sanitation Program","status":"PUBLISHED","created":"2018","lastUpdated":"2018","lastActive":"no","area":14.119248751588133,"changesets":1712,"mappers":99,"roads":34.7652639071055,"buildings":24002,"edits":24532,"latest":"2018-10-10T15:34:30.000Z"},"geometry":{"type":"Point","coordinates":[28.2520662029724,-15.3709668980874]}},{"type":"Feature","properties":{"id":5200,"title":"Missing Maps - Zambia - Kalabo2 (south)","status":"ARCHIVED","created":"2018","lastUpdated":"2018","lastActive":"no","area":21.075537853372495,"changesets":210,"mappers":26,"roads":131.150734370826,"buildings":528,"edits":1258,"latest":"2018-10-19T13:20:46.000Z"},"geometry":{"type":"Point","coordinates":[22.6796429688639,-15.0431496521223]}},{"type":"Feature","properties":{"id":5064,"title":"Zambia-Sinda Residential Buildings Mapping","status":"PUBLISHED","created":"2018","lastUpdated":"2018","lastActive":"no","area":4029.788113014448,"changesets":1591,"mappers":66,"roads":104.501620490992,"buildings":90390,"edits":90736,"latest":"2018-11-05T21:07:46.000Z"},"geometry":{"type":"Point","coordinates":[31.7262927407117,-14.2579734458589]}},{"type":"Feature","properties":{"id":5231,"title":"Missing Maps - Zambia - Mongu centre2","status":"ARCHIVED","created":"2018","lastUpdated":"2018","lastActive":"no","area":8.07328076511913,"changesets":512,"mappers":48,"roads":43.1174108384455,"buildings":5945,"edits":6708,"latest":"2018-09-24T14:29:59.000Z"},"geometry":{"type":"Point","coordinates":[23.1451122969085,-15.2747772857719]}},{"type":"Feature","properties":{"id":4992,"title":"Priority Areas, Northern Province, Zambia Mini Grids Project 11","status":"PUBLISHED","created":"2018","lastUpdated":"2018","lastActive":"no","area":901.9638924123662,"changesets":329,"mappers":30,"roads":0.0446413623321236,"buildings":5527,"edits":5541,"latest":"2018-08-15T06:39:00.000Z"},"geometry":{"type":"Point","coordinates":[24.2081720913225,-11.2232120149847]}},{"type":"Feature","properties":{"id":4968,"title":"Priority Areas, Muchinga, Zambia Mini Grids Project 11","status":"PUBLISHED","created":"2018","lastUpdated":"2018","lastActive":"no","area":1104.3187258348034,"changesets":1521,"mappers":38,"roads":0.0817142328227262,"buildings":46830,"edits":46881,"latest":"2018-08-15T07:39:18.000Z"},"geometry":{"type":"Point","coordinates":[32.9454122077498,-11.2985955740601]}},{"type":"Feature","properties":{"id":4960,"title":"Priority Areas, North-Western Province, Zambia Mini Grids Project 07","status":"PUBLISHED","created":"2018","lastUpdated":"2018","lastActive":"no","area":117.51835470650506,"changesets":114,"mappers":28,"roads":0,"buildings":815,"edits":815,"latest":"2018-08-06T12:35:48.000Z"},"geometry":{"type":"Point","coordinates":[24.1717302208412,-11.959699745309]}},{"type":"Feature","properties":{"id":4943,"title":"Priority Areas, Western Province, Zambia Mini Grids Project 06","status":"PUBLISHED","created":"2018","lastUpdated":"2018","lastActive":"no","area":803.1110192077076,"changesets":737,"mappers":40,"roads":0.044522892245107,"buildings":19570,"edits":19574,"latest":"2018-08-13T13:58:16.000Z"},"geometry":{"type":"Point","coordinates":[23.9764781183306,-15.4192425173157]}},{"type":"Feature","properties":{"id":4865,"title":"Priority Areas, Eastern Province, Zambia Mini Grids Project 02","status":"ARCHIVED","created":"2018","lastUpdated":"2018","lastActive":"no","area":1122.9671327458043,"changesets":1476,"mappers":36,"roads":0.0752661626542242,"buildings":28381,"edits":28387,"latest":"2018-07-20T06:25:28.000Z"},"geometry":{"type":"Point","coordinates":[32.9195719961577,-12.8643859479842]}},{"type":"Feature","properties":{"id":4873,"title":"Priority Areas, Eastern Province, Zambia Mini Grids Project 04","status":"ARCHIVED","created":"2018","lastUpdated":"2018","lastActive":"no","area":1351.5505600750143,"changesets":1128,"mappers":33,"roads":0.110256636504698,"buildings":40010,"edits":40023,"latest":"2018-07-19T07:01:18.000Z"},"geometry":{"type":"Point","coordinates":[33.2021522485916,-11.817264674421]}},{"type":"Feature","properties":{"id":4884,"title":"Priority Areas, North-Western Province, Zambia Mini Grids Project 05","status":"PUBLISHED","created":"2018","lastUpdated":"2018","lastActive":"no","area":125.30507062928119,"changesets":361,"mappers":34,"roads":1.34774179913668,"buildings":9253,"edits":9350,"latest":"2018-09-03T08:43:47.000Z"},"geometry":{"type":"Point","coordinates":[24.4732475183641,-13.4848300645144]}},{"type":"Feature","properties":{"id":4900,"title":"Priority Areas, Western Province, Zambia Mini Grids Project 01","status":"PUBLISHED","created":"2018","lastUpdated":"2018","lastActive":"no","area":652.6525934646062,"changesets":731,"mappers":37,"roads":2.20449395581589,"buildings":18813,"edits":19230,"latest":"2018-08-01T13:56:07.000Z"},"geometry":{"type":"Point","coordinates":[24.1479928448816,-14.6050079686209]}},{"type":"Feature","properties":{"id":4851,"title":"Priority Areas, Muchinga Province, Zambia Mini Grids Project 05","status":"PUBLISHED","created":"2018","lastUpdated":"2018","lastActive":"no","area":796.1616294065363,"changesets":1123,"mappers":36,"roads":0.112226485260465,"buildings":21415,"edits":21438,"latest":"2018-08-17T13:52:29.000Z"},"geometry":{"type":"Point","coordinates":[31.7742872167847,-9.19022557469334]}},{"type":"Feature","properties":{"id":4845,"title":"Priority Areas, Muchinga Province, Zambia Mini Grids Project 03","status":"PUBLISHED","created":"2018","lastUpdated":"2018","lastActive":"no","area":30.76633123711304,"changesets":179,"mappers":20,"roads":0.002324335482359,"buildings":5269,"edits":5273,"latest":"2018-07-19T10:49:31.000Z"},"geometry":{"type":"Point","coordinates":[32.1061139136939,-10.3973685150342]}},{"type":"Feature","properties":{"id":4836,"title":"Priority Areas, Muchinga Province, Zambia Mini Grids Project 01","status":"PUBLISHED","created":"2018","lastUpdated":"2018","lastActive":"no","area":1192.5581757490236,"changesets":1343,"mappers":35,"roads":0.0231360703082391,"buildings":29593,"edits":29602,"latest":"2018-07-18T07:28:00.000Z"},"geometry":{"type":"Point","coordinates":[33.2368290515284,-10.5703090757455]}},{"type":"Feature","properties":{"id":4821,"title":"Priority Areas, Southern Province, Zambia Mini Grids Project 04","status":"PUBLISHED","created":"2018","lastUpdated":"2018","lastActive":"no","area":549.2875270843012,"changesets":501,"mappers":41,"roads":0.00948469099725457,"buildings":15159,"edits":15162,"latest":"2018-08-15T09:09:17.000Z"},"geometry":{"type":"Point","coordinates":[27.9589126126342,-16.4867837275353]}},{"type":"Feature","properties":{"id":4916,"title":"Priority Areas, Northern Province, Zambia Mini Grids Project 01","status":"PUBLISHED","created":"2018","lastUpdated":"2018","lastActive":"no","area":1631.951504666485,"changesets":1173,"mappers":35,"roads":0.328471285378522,"buildings":16208,"edits":16262,"latest":"2018-08-07T09:30:47.000Z"},"geometry":{"type":"Point","coordinates":[30.6429969471774,-9.65034760516237]}},{"type":"Feature","properties":{"id":4972,"title":"Priority Areas, Northern Province, Zambia Mini Grids Project 09","status":"PUBLISHED","created":"2018","lastUpdated":"2018","lastActive":"no","area":128.6555616326287,"changesets":389,"mappers":29,"roads":0.0168751266411869,"buildings":6113,"edits":6114,"latest":"2018-08-09T13:31:07.000Z"},"geometry":{"type":"Point","coordinates":[33.0220173680045,-10.2276804756312]}},{"type":"Feature","properties":{"id":4949,"title":"Priority Areas, Northern Province, Zambia Mini Grids Project 07","status":"PUBLISHED","created":"2018","lastUpdated":"2018","lastActive":"no","area":339.45238810279517,"changesets":767,"mappers":39,"roads":0.0434383106502137,"buildings":13417,"edits":13438,"latest":"2018-08-03T12:45:03.000Z"},"geometry":{"type":"Point","coordinates":[30.5470506290675,-11.0575128068587]}},{"type":"Feature","properties":{"id":4906,"title":"Priority Areas, Central Province, Zambia Mini Grids Project 01","status":"PUBLISHED","created":"2018","lastUpdated":"2018","lastActive":"no","area":960.2843810977965,"changesets":1033,"mappers":34,"roads":0.0422650777154369,"buildings":11172,"edits":11183,"latest":"2018-08-03T09:02:34.000Z"},"geometry":{"type":"Point","coordinates":[30.0483834481938,-12.3726376822697]}},{"type":"Feature","properties":{"id":4923,"title":"Priority Areas, Northern Province, Zambia Mini Grids Project 03","status":"PUBLISHED","created":"2018","lastUpdated":"2018","lastActive":"no","area":108.1972029061993,"changesets":443,"mappers":34,"roads":0.00876400210311584,"buildings":7442,"edits":7450,"latest":"2018-08-08T08:36:24.000Z"},"geometry":{"type":"Point","coordinates":[30.5911459465336,-11.7601390748348]}},{"type":"Feature","properties":{"id":4882,"title":"Priority Areas, North-Western Province, Zambia Mini Grids Project 03","status":"PUBLISHED","created":"2018","lastUpdated":"2018","lastActive":"no","area":198.34286749894446,"changesets":313,"mappers":34,"roads":0.00864561254804241,"buildings":9766,"edits":9769,"latest":"2018-08-31T13:24:15.000Z"},"geometry":{"type":"Point","coordinates":[23.3135694879536,-13.2477154515275]}},{"type":"Feature","properties":{"id":4870,"title":"Priority Areas, Eastern Province, Zambia Mini Grids Project 03","status":"ARCHIVED","created":"2018","lastUpdated":"2018","lastActive":"no","area":1007.597938887038,"changesets":582,"mappers":30,"roads":6.19570950442981,"buildings":18679,"edits":19126,"latest":"2018-07-27T11:48:00.000Z"},"geometry":{"type":"Point","coordinates":[32.9700796021551,-12.3087189109137]}},{"type":"Feature","properties":{"id":3899,"title":"Fiwila Health Centre - learn how to efficiently replace node-buildings","status":"PUBLISHED","created":"2017","lastUpdated":"2018","lastActive":"no","area":628.4823419648842,"changesets":60,"mappers":10,"roads":84.3866231672886,"buildings":1172,"edits":1552,"latest":"2018-10-18T00:18:42.000Z"},"geometry":{"type":"Point","coordinates":[29.6330945573751,-14.0154371932199]}},{"type":"Feature","properties":{"id":4826,"title":"Priority Areas, Southern Province, Zambia Mini Grids Project 07","status":"PUBLISHED","created":"2018","lastUpdated":"2018","lastActive":"no","area":248.07955230133993,"changesets":295,"mappers":29,"roads":0.11775287620795,"buildings":7464,"edits":7671,"latest":"2018-08-24T13:49:18.000Z"},"geometry":{"type":"Point","coordinates":[27.3753644888465,-16.8788513446297]}},{"type":"Feature","properties":{"id":4819,"title":"Priority Areas, Southern Province, Zambia Mini Grids Project 02","status":"PUBLISHED","created":"2018","lastUpdated":"2018","lastActive":"no","area":772.4887168605584,"changesets":1053,"mappers":42,"roads":0.423693999629926,"buildings":23847,"edits":23889,"latest":"2018-08-17T07:18:48.000Z"},"geometry":{"type":"Point","coordinates":[26.8952553891412,-17.6525178439075]}},{"type":"Feature","properties":{"id":4940,"title":"Priority Areas, Western Province, Zambia Mini Grids Project 03","status":"PUBLISHED","created":"2018","lastUpdated":"2018","lastActive":"no","area":130.71131986754082,"changesets":433,"mappers":35,"roads":0.00411933590482505,"buildings":6454,"edits":6459,"latest":"2018-08-14T05:55:53.000Z"},"geometry":{"type":"Point","coordinates":[23.1741374464,-14.8113230531681]}},{"type":"Feature","properties":{"id":3183,"title":"Missing Maps: Zambia Malaria Elimination 79","status":"ARCHIVED","created":"2017","lastUpdated":"2017","lastActive":"no","area":978.3907149799423,"changesets":2285,"mappers":192,"roads":52.4306319853615,"buildings":8399,"edits":8880,"latest":"2017-08-19T15:28:24.000Z"},"geometry":{"type":"Point","coordinates":[26.7839004297929,-15.9198612690273]}},{"type":"Feature","properties":{"id":3992,"title":"Zambia Cholera Outbreak","status":"PUBLISHED","created":"2018","lastUpdated":"2018","lastActive":"no","area":4.036566110310592,"changesets":608,"mappers":32,"roads":29.2512963162562,"buildings":4494,"edits":5618,"latest":"2018-01-08T03:28:50.000Z"},"geometry":{"type":"Point","coordinates":[28.2443472716737,-15.4546130087783]}},{"type":"Feature","properties":{"id":3778,"title":"Mufulira Council Mapping, Copperbelt Province, Zambia","status":"PUBLISHED","created":"2017","lastUpdated":"2018","lastActive":"no","area":97.0872592384034,"changesets":1325,"mappers":140,"roads":319.609918138436,"buildings":32424,"edits":37634,"latest":"2018-11-05T21:37:43.000Z"},"geometry":{"type":"Point","coordinates":[28.2357100974126,-12.554366800172]}},{"type":"Feature","properties":{"id":3743,"title":"Mapping Chinsali Council, Muchinga Province, Zambia","status":"PUBLISHED","created":"2017","lastUpdated":"2018","lastActive":"no","area":18.90041308791517,"changesets":185,"mappers":12,"roads":115.037378693772,"buildings":4142,"edits":7226,"latest":"2018-01-11T15:23:55.000Z"},"geometry":{"type":"Point","coordinates":[32.0699920470507,-10.5493463883295]}},{"type":"Feature","properties":{"id":2778,"title":"Missing Maps: Zambia Malaria Elimination 77","status":"ARCHIVED","created":"2017","lastUpdated":"2017","lastActive":"no","area":42.26158786311957,"changesets":561,"mappers":33,"roads":2.15378939549018,"buildings":3404,"edits":3418,"latest":"2017-04-10T14:45:32.000Z"},"geometry":{"type":"Point","coordinates":[26.0331956739105,-17.2965993386355]}},{"type":"Feature","properties":{"id":2772,"title":"Missing Maps: Zambia Malaria Elimination 75","status":"ARCHIVED","created":"2017","lastUpdated":"2017","lastActive":"no","area":33.231101952285634,"changesets":341,"mappers":28,"roads":0.297108756357538,"buildings":2085,"edits":2088,"latest":"2017-04-28T08:57:01.000Z"},"geometry":{"type":"Point","coordinates":[26.4695046091455,-17.4157749584222]}},{"type":"Feature","properties":{"id":2764,"title":"Mistake Do Not Use","status":"ARCHIVED","created":"2017","lastUpdated":"2017","lastActive":"no","area":35.92752078925789,"changesets":0,"mappers":0,"roads":0,"buildings":0,"edits":0,"latest":null},"geometry":{"type":"Point","coordinates":[28.1010543332572,-15.9357645571568]}},{"type":"Feature","properties":{"id":2473,"title":"Missing Maps: Kanyama, Lusaka, Zambia - Cholera Crisis - Buildings Only - Area 2","status":"ARCHIVED","created":"2017","lastUpdated":"2017","lastActive":"no","area":4.097444955118227,"changesets":960,"mappers":69,"roads":1.24701144334619,"buildings":14460,"edits":14939,"latest":"2017-02-02T00:10:35.000Z"},"geometry":{"type":"Point","coordinates":[28.2347584624704,-15.4362575093508]}},{"type":"Feature","properties":{"id":2360,"title":"Misisi, Lusaka, Zambia","status":"PUBLISHED","created":"2016","lastUpdated":"2017","lastActive":"no","area":3.254160281977127,"changesets":977,"mappers":35,"roads":14.7746021737245,"buildings":10044,"edits":12131,"latest":"2017-04-19T06:30:14.000Z"},"geometry":{"type":"Point","coordinates":[28.2793157762274,-15.4433304402041]}},{"type":"Feature","properties":{"id":2612,"title":"Missing Maps: Zambia Malaria Elimination 41","status":"ARCHIVED","created":"2017","lastUpdated":"2017","lastActive":"no","area":39.12071193861273,"changesets":1201,"mappers":50,"roads":38.6208702735164,"buildings":8369,"edits":8715,"latest":"2017-08-07T12:21:04.000Z"},"geometry":{"type":"Point","coordinates":[27.6376904065045,-16.4473867460371]}},{"type":"Feature","properties":{"id":2760,"title":"Missing Maps: Zambia Malaria Elimination 73","status":"ARCHIVED","created":"2017","lastUpdated":"2017","lastActive":"no","area":41.93487676992502,"changesets":658,"mappers":48,"roads":102.893213904753,"buildings":3482,"edits":4158,"latest":"2017-06-22T12:17:31.000Z"},"geometry":{"type":"Point","coordinates":[26.6851468246255,-17.3534718940058]}},{"type":"Feature","properties":{"id":2526,"title":"Missing Maps: Kanyama, Lusaka, Zambia - Cholera Crisis - Buildings Only - Zone 3","status":"PUBLISHED","created":"2017","lastUpdated":"2017","lastActive":"no","area":0.5147784574323778,"changesets":627,"mappers":32,"roads":3.25666696508614,"buildings":5953,"edits":8991,"latest":"2017-04-27T22:59:45.000Z"},"geometry":{"type":"Point","coordinates":[28.2525022824477,-15.4221490787427]}},{"type":"Feature","properties":{"id":3659,"title":"Mapping informal settlements in Lusaka, Zambia","status":"PUBLISHED","created":"2017","lastUpdated":"2017","lastActive":"no","area":3.5061324549485597,"changesets":307,"mappers":18,"roads":18.4063980489521,"buildings":2099,"edits":2450,"latest":"2017-11-28T11:54:44.000Z"},"geometry":{"type":"Point","coordinates":[28.2720009907358,-15.3778259139552]}},{"type":"Feature","properties":{"id":5343,"title":"Missing Maps - Zambia - Malengwa","status":"ARCHIVED","created":"2018","lastUpdated":"2018","lastActive":"no","area":19.26248831210457,"changesets":409,"mappers":36,"roads":129.920029364859,"buildings":2828,"edits":4381,"latest":"2018-10-23T20:14:30.000Z"},"geometry":{"type":"Point","coordinates":[23.1496450351179,-15.21927210925]}},{"type":"Feature","properties":{"id":5172,"title":"Missing Maps - Zambia - Limulunga","status":"ARCHIVED","created":"2018","lastUpdated":"2018","lastActive":"no","area":12.712710414575804,"changesets":149,"mappers":18,"roads":39.4267387243411,"buildings":2634,"edits":3095,"latest":"2018-09-11T13:11:05.000Z"},"geometry":{"type":"Point","coordinates":[23.1467113223816,-15.1304589194704]}},{"type":"Feature","properties":{"id":3995,"title":"Zambia Cholera Outbreak 2018","status":"PUBLISHED","created":"2018","lastUpdated":"2018","lastActive":"no","area":13.021695568322011,"changesets":1508,"mappers":109,"roads":61.4631865032384,"buildings":23480,"edits":27523,"latest":"2018-03-12T08:51:32.000Z"},"geometry":{"type":"Point","coordinates":[28.3151884921123,-15.4416751223048]}},{"type":"Feature","properties":{"id":5379,"title":"Peri urban Mapping","status":"PUBLISHED","created":"2018","lastUpdated":"2018","lastActive":"yes","area":8.38756481341144,"changesets":415,"mappers":58,"roads":14.3235150660425,"buildings":5396,"edits":5550,"latest":"2018-11-24T21:55:26.000Z"},"geometry":{"type":"Point","coordinates":[28.277884249817,-15.4664482060259]}},{"type":"Feature","properties":{"id":4020,"title":"Zambia Cholera Outbreak 2018","status":"PUBLISHED","created":"2018","lastUpdated":"2018","lastActive":"no","area":19.117960639015834,"changesets":2652,"mappers":111,"roads":182.481685130674,"buildings":28319,"edits":35294,"latest":"2018-01-30T22:20:49.000Z"},"geometry":{"type":"Point","coordinates":[28.3180266578221,-15.3568509529866]}},{"type":"Feature","properties":{"id":5327,"title":"North-west","status":"PUBLISHED","created":"2018","lastUpdated":"2018","lastActive":"no","area":13433.522391139175,"changesets":66,"mappers":27,"roads":36.5202921965932,"buildings":1492,"edits":1537,"latest":"2018-11-07T11:13:03.000Z"},"geometry":{"type":"Point","coordinates":[24.5495147016021,-13.5993734203055]}},{"type":"Feature","properties":{"id":2470,"title":"Missing Maps: Kanyama, Lusaka, Zambia - Cholera Crisis - Buildings Only","status":"ARCHIVED","created":"2017","lastUpdated":"2017","lastActive":"no","area":3.0479745782061567,"changesets":571,"mappers":64,"roads":285.227068966126,"buildings":13503,"edits":14555,"latest":"2017-02-20T00:46:35.000Z"},"geometry":{"type":"Point","coordinates":[28.2474062583554,-15.4340326583418]}},{"type":"Feature","properties":{"id":2737,"title":"Mistake Do Not Use","status":"ARCHIVED","created":"2017","lastUpdated":"2017","lastActive":"no","area":52.427783564638844,"changesets":0,"mappers":0,"roads":0,"buildings":0,"edits":0,"latest":null},"geometry":{"type":"Point","coordinates":[26.4802715979837,-15.780440516558]}},{"type":"Feature","properties":{"id":2698,"title":"Missing Maps: Zambia Malaria Elimination 65","status":"ARCHIVED","created":"2017","lastUpdated":"2017","lastActive":"no","area":45.4940226768803,"changesets":553,"mappers":37,"roads":38.9228921104259,"buildings":3784,"edits":4078,"latest":"2017-03-27T10:25:14.000Z"},"geometry":{"type":"Point","coordinates":[26.7322447108227,-17.0359700650714]}},{"type":"Feature","properties":{"id":2348,"title":"Archived/Replaced by other Projects - Kuzungula District, Zambia","status":"ARCHIVED","created":"2016","lastUpdated":"2017","lastActive":"no","area":12042.04128837934,"changesets":401,"mappers":69,"roads":247.402666716234,"buildings":8464,"edits":9075,"latest":"2017-03-11T15:09:21.000Z"},"geometry":{"type":"Point","coordinates":[25.6273733502222,-17.213353497404]}},{"type":"Feature","properties":{"id":2694,"title":"Missing Maps: Zambia Malaria Elimination 61","status":"ARCHIVED","created":"2017","lastUpdated":"2017","lastActive":"no","area":52.12083766112771,"changesets":1071,"mappers":100,"roads":90.3137322450952,"buildings":4021,"edits":5009,"latest":"2017-08-31T14:06:38.000Z"},"geometry":{"type":"Point","coordinates":[27.1939724854381,-16.898602684166]}},{"type":"Feature","properties":{"id":2735,"title":"Missing Maps: Zambia Malaria Elimination 69","status":"ARCHIVED","created":"2017","lastUpdated":"2017","lastActive":"no","area":54.456940297073714,"changesets":818,"mappers":41,"roads":829.338060121107,"buildings":8209,"edits":12361,"latest":"2017-04-18T19:55:15.000Z"},"geometry":{"type":"Point","coordinates":[27.0614325223308,-17.1644080663634]}},{"type":"Feature","properties":{"id":2696,"title":"Missing Maps: Zambia Malaria Elimination 63","status":"ARCHIVED","created":"2017","lastUpdated":"2017","lastActive":"no","area":40.00701214726156,"changesets":730,"mappers":113,"roads":80.1397702085043,"buildings":2948,"edits":3980,"latest":"2017-03-25T15:14:51.000Z"},"geometry":{"type":"Point","coordinates":[26.3263061356791,-17.0723213651034]}},{"type":"Feature","properties":{"id":2548,"title":"Missing Maps: Zambia Malaria Elimination 8","status":"ARCHIVED","created":"2017","lastUpdated":"2017","lastActive":"no","area":41.631798204787955,"changesets":1318,"mappers":57,"roads":76.2881293155675,"buildings":7120,"edits":7570,"latest":"2017-03-25T19:39:09.000Z"},"geometry":{"type":"Point","coordinates":[26.791156583287,-15.7950682288584]}},{"type":"Feature","properties":{"id":2567,"title":"Missing Maps: Zambia Malaria Elimination 15","status":"ARCHIVED","created":"2017","lastUpdated":"2017","lastActive":"no","area":35.688557069757834,"changesets":1113,"mappers":61,"roads":4.50367607505807,"buildings":8009,"edits":8063,"latest":"2017-03-24T16:48:39.000Z"},"geometry":{"type":"Point","coordinates":[28.0348670421815,-16.2052939633314]}},{"type":"Feature","properties":{"id":2632,"title":"Missing Maps: Zambia Malaria Elimination 47","status":"ARCHIVED","created":"2017","lastUpdated":"2017","lastActive":"no","area":39.791315431881884,"changesets":608,"mappers":36,"roads":11.5886398532412,"buildings":2428,"edits":2531,"latest":"2017-03-18T18:18:41.000Z"},"geometry":{"type":"Point","coordinates":[27.3180403968393,-16.624657481662]}},{"type":"Feature","properties":{"id":2630,"title":"Missing Maps: Zambia Malaria Elimination 45","status":"ARCHIVED","created":"2017","lastUpdated":"2017","lastActive":"no","area":55.532451331247486,"changesets":987,"mappers":74,"roads":37.3246916241503,"buildings":6066,"edits":6197,"latest":"2017-03-12T20:21:09.000Z"},"geometry":{"type":"Point","coordinates":[27.5978076767458,-15.8387716061384]}},{"type":"Feature","properties":{"id":2606,"title":"Missing Maps: Zambia Malaria Elimination 37","status":"ARCHIVED","created":"2017","lastUpdated":"2017","lastActive":"no","area":30.975047863285592,"changesets":922,"mappers":62,"roads":102.254978189865,"buildings":7438,"edits":8154,"latest":"2017-04-12T14:36:51.000Z"},"geometry":{"type":"Point","coordinates":[27.0010022975683,-16.5926195924436]}},{"type":"Feature","properties":{"id":2660,"title":"Missing Maps: Zambia Malaria Elimination 54","status":"ARCHIVED","created":"2017","lastUpdated":"2017","lastActive":"no","area":48.31641609564321,"changesets":1065,"mappers":64,"roads":31.5395520056465,"buildings":3589,"edits":4007,"latest":"2017-04-26T20:37:39.000Z"},"geometry":{"type":"Point","coordinates":[26.8375310841676,-16.6741735625183]}},{"type":"Feature","properties":{"id":2671,"title":"Missing Maps: Zambia Malaria Elimination 59","status":"ARCHIVED","created":"2017","lastUpdated":"2017","lastActive":"no","area":53.983168673328294,"changesets":606,"mappers":52,"roads":55.5653175535778,"buildings":3293,"edits":3585,"latest":"2017-04-10T07:33:21.000Z"},"geometry":{"type":"Point","coordinates":[26.7801556416528,-16.868925492807]}},{"type":"Feature","properties":{"id":2756,"title":"Missing Maps: Zambia Malaria Elimination 71","status":"ARCHIVED","created":"2017","lastUpdated":"2017","lastActive":"no","area":54.93276423403359,"changesets":730,"mappers":27,"roads":0.461838445395334,"buildings":4170,"edits":4174,"latest":"2017-04-22T12:51:29.000Z"},"geometry":{"type":"Point","coordinates":[26.7128319576413,-17.2332150949172]}},{"type":"Feature","properties":{"id":2730,"title":"Missing Maps: Zambia Malaria Elimination 67","status":"ARCHIVED","created":"2017","lastUpdated":"2017","lastActive":"no","area":56.33934549915492,"changesets":738,"mappers":86,"roads":373.243600699255,"buildings":3976,"edits":6044,"latest":"2017-03-30T14:10:52.000Z"},"geometry":{"type":"Point","coordinates":[27.0062720546434,-17.0350331230293]}},{"type":"Feature","properties":{"id":2540,"title":"Missing Maps: Zambia Malaria Elimination 4","status":"ARCHIVED","created":"2017","lastUpdated":"2017","lastActive":"no","area":22.907473399342862,"changesets":540,"mappers":48,"roads":18.2163761096354,"buildings":4774,"edits":4996,"latest":"2017-03-17T23:36:14.000Z"},"geometry":{"type":"Point","coordinates":[26.9741712856948,-15.6427599577224]}},{"type":"Feature","properties":{"id":2546,"title":"Missing Maps: Zambia Malaria Elimination 6","status":"ARCHIVED","created":"2017","lastUpdated":"2017","lastActive":"no","area":33.848371279562905,"changesets":1125,"mappers":60,"roads":59.5274783501728,"buildings":5533,"edits":5905,"latest":"2017-03-20T13:03:45.000Z"},"geometry":{"type":"Point","coordinates":[26.2861727088638,-15.8927405111516]}},{"type":"Feature","properties":{"id":2580,"title":"Missing Maps: Zambia Malaria Elimination 19","status":"ARCHIVED","created":"2017","lastUpdated":"2017","lastActive":"no","area":32.151266169300655,"changesets":2947,"mappers":45,"roads":568.344862594093,"buildings":25957,"edits":26997,"latest":"2017-04-29T20:04:28.000Z"},"geometry":{"type":"Point","coordinates":[27.8510327277559,-16.3723544510643]}},{"type":"Feature","properties":{"id":2563,"title":"Missing Maps: Zambia Malaria Elimination 12","status":"ARCHIVED","created":"2017","lastUpdated":"2017","lastActive":"no","area":27.331276133688156,"changesets":1358,"mappers":54,"roads":1.32529243975568,"buildings":9472,"edits":9584,"latest":"2017-05-23T04:22:15.000Z"},"geometry":{"type":"Point","coordinates":[27.9848791243,-16.0892558881978]}},{"type":"Feature","properties":{"id":2662,"title":"Missing Maps: Zambia Malaria Elimination 56","status":"ARCHIVED","created":"2017","lastUpdated":"2017","lastActive":"no","area":41.22931300255509,"changesets":473,"mappers":34,"roads":34.9486193133669,"buildings":2297,"edits":2676,"latest":"2017-04-07T14:52:29.000Z"},"geometry":{"type":"Point","coordinates":[26.5769400034605,-16.7034656687689]}},{"type":"Feature","properties":{"id":2519,"title":"Missing Maps: Zambia Malaria Elimination 2","status":"ARCHIVED","created":"2017","lastUpdated":"2017","lastActive":"no","area":41.63797409694132,"changesets":2695,"mappers":78,"roads":827.788975646999,"buildings":9568,"edits":22400,"latest":"2017-05-06T14:07:18.000Z"},"geometry":{"type":"Point","coordinates":[26.4141100958582,-15.6153664821107]}},{"type":"Feature","properties":{"id":2593,"title":"Missing Maps: Zambia Malaria Elimination 31","status":"ARCHIVED","created":"2017","lastUpdated":"2017","lastActive":"no","area":50.83118300093933,"changesets":1306,"mappers":55,"roads":19.5905650528771,"buildings":26904,"edits":31435,"latest":"2017-04-03T02:04:07.000Z"},"geometry":{"type":"Point","coordinates":[27.4800186849158,-16.2925738916435]}},{"type":"Feature","properties":{"id":2588,"title":"Missing Maps: Zambia Malaria Elimination 27","status":"ARCHIVED","created":"2017","lastUpdated":"2017","lastActive":"no","area":31.889495041013184,"changesets":1413,"mappers":34,"roads":24.1011558976978,"buildings":7618,"edits":8792,"latest":"2017-04-04T18:16:46.000Z"},"geometry":{"type":"Point","coordinates":[27.5352249359389,-16.1835984997993]}},{"type":"Feature","properties":{"id":2610,"title":"Missing Maps: Zambia Malaria Elimination 39","status":"ARCHIVED","created":"2017","lastUpdated":"2017","lastActive":"no","area":51.10622722327789,"changesets":1447,"mappers":59,"roads":110.565243716719,"buildings":10273,"edits":12222,"latest":"2017-04-06T09:53:30.000Z"},"geometry":{"type":"Point","coordinates":[27.4968094062617,-16.4326310664699]}},{"type":"Feature","properties":{"id":2595,"title":"Missing Maps: Zambia Malaria Elimination 33","status":"ARCHIVED","created":"2017","lastUpdated":"2017","lastActive":"no","area":57.2682467492817,"changesets":1480,"mappers":58,"roads":13.6501543296384,"buildings":6800,"edits":6992,"latest":"2017-04-10T07:00:04.000Z"},"geometry":{"type":"Point","coordinates":[27.1672873119992,-16.3183967538568]}},{"type":"Feature","properties":{"id":2640,"title":"Missing Maps: Zambia Malaria Elimination 50","status":"ARCHIVED","created":"2017","lastUpdated":"2017","lastActive":"no","area":45.88254213552296,"changesets":1024,"mappers":45,"roads":8.66046196915923,"buildings":2599,"edits":2747,"latest":"2017-03-20T06:37:37.000Z"},"geometry":{"type":"Point","coordinates":[27.3770530470706,-16.6969472336215]}},{"type":"Feature","properties":{"id":2569,"title":"Missing Maps: Zambia Malaria Elimination 17","status":"ARCHIVED","created":"2017","lastUpdated":"2017","lastActive":"no","area":54.8149033238161,"changesets":1760,"mappers":78,"roads":49.3003192544686,"buildings":13157,"edits":13567,"latest":"2017-03-24T17:08:17.000Z"},"geometry":{"type":"Point","coordinates":[27.9146509689315,-16.2317136626271]}},{"type":"Feature","properties":{"id":2622,"title":"Missing Maps: Zambia Malaria Elimination 43","status":"ARCHIVED","created":"2017","lastUpdated":"2017","lastActive":"no","area":52.94171063556428,"changesets":1003,"mappers":100,"roads":121.692857457407,"buildings":6453,"edits":7526,"latest":"2017-04-20T09:57:23.000Z"},"geometry":{"type":"Point","coordinates":[27.4793076354582,-16.5586713314048]}},{"type":"Feature","properties":{"id":2669,"title":"Missing Maps: Zambia Malaria Elimination 57","status":"ARCHIVED","created":"2017","lastUpdated":"2017","lastActive":"no","area":55.88803814252673,"changesets":1112,"mappers":52,"roads":69.3347912659,"buildings":5338,"edits":5892,"latest":"2017-04-09T11:12:22.000Z"},"geometry":{"type":"Point","coordinates":[26.5525450023961,-16.8546851465236]}},{"type":"Feature","properties":{"id":2757,"title":"Missing Maps: Zambia Malaria Elimination 72","status":"ARCHIVED","created":"2017","lastUpdated":"2017","lastActive":"no","area":30.78403487211502,"changesets":389,"mappers":28,"roads":0,"buildings":2146,"edits":2146,"latest":"2017-04-04T14:16:36.000Z"},"geometry":{"type":"Point","coordinates":[26.5256121601278,-17.2547069167342]}},{"type":"Feature","properties":{"id":2736,"title":"Missing Maps: Zambia Malaria Elimination 70","status":"ARCHIVED","created":"2017","lastUpdated":"2017","lastActive":"no","area":33.24163315836576,"changesets":341,"mappers":23,"roads":175.977641171891,"buildings":1896,"edits":2110,"latest":"2017-04-01T19:57:39.000Z"},"geometry":{"type":"Point","coordinates":[26.867910752944,-17.1530808793803]}},{"type":"Feature","properties":{"id":2584,"title":"Missing Maps: Zambia Malaria Elimination 23","status":"ARCHIVED","created":"2017","lastUpdated":"2017","lastActive":"no","area":23.463381411934975,"changesets":1223,"mappers":42,"roads":0.0809701518192749,"buildings":8832,"edits":8922,"latest":"2017-04-11T23:16:31.000Z"},"geometry":{"type":"Point","coordinates":[27.6601962414265,-16.3432360476813]}},{"type":"Feature","properties":{"id":2659,"title":"Missing Maps: Zambia Malaria Elimination 53","status":"ARCHIVED","created":"2017","lastUpdated":"2017","lastActive":"no","area":46.56177364588499,"changesets":1124,"mappers":44,"roads":170.883635532992,"buildings":16338,"edits":17239,"latest":"2017-04-14T16:17:55.000Z"},"geometry":{"type":"Point","coordinates":[26.9784802450858,-16.7848355634603]}},{"type":"Feature","properties":{"id":2582,"title":"Missing Maps: Zambia Malaria Elimination 21","status":"ARCHIVED","created":"2017","lastUpdated":"2017","lastActive":"no","area":33.664759342899956,"changesets":1117,"mappers":45,"roads":3.11622270231003,"buildings":6257,"edits":6323,"latest":"2017-03-24T06:47:38.000Z"},"geometry":{"type":"Point","coordinates":[27.6071403992898,-16.2228775931531]}},{"type":"Feature","properties":{"id":2555,"title":"Missing Maps: Zambia Malaria Elimination 10","status":"ARCHIVED","created":"2017","lastUpdated":"2017","lastActive":"no","area":31.10985637117499,"changesets":1022,"mappers":75,"roads":4.69389639139936,"buildings":11460,"edits":11552,"latest":"2017-03-31T12:42:23.000Z"},"geometry":{"type":"Point","coordinates":[28.1305373435524,-15.8314610173578]}},{"type":"Feature","properties":{"id":2586,"title":"Missing Maps: Zambia Malaria Elimination 25","status":"ARCHIVED","created":"2017","lastUpdated":"2017","lastActive":"no","area":11.867807532613435,"changesets":544,"mappers":33,"roads":6.4267548796816,"buildings":2167,"edits":2195,"latest":"2017-03-27T10:49:22.000Z"},"geometry":{"type":"Point","coordinates":[28.0011485249086,-15.9342298085104]}},{"type":"Feature","properties":{"id":2591,"title":"Missing Maps: Zambia Malaria Elimination 29","status":"ARCHIVED","created":"2017","lastUpdated":"2017","lastActive":"no","area":53.75292702905735,"changesets":1426,"mappers":63,"roads":86.361484210331,"buildings":7390,"edits":7828,"latest":"2017-03-31T11:18:37.000Z"},"geometry":{"type":"Point","coordinates":[27.3280030364326,-16.131696018737]}},{"type":"Feature","properties":{"id":2604,"title":"Missing Maps: Zambia Malaria Elimination 35","status":"ARCHIVED","created":"2017","lastUpdated":"2017","lastActive":"no","area":47.681523032445796,"changesets":747,"mappers":61,"roads":0.646824385341615,"buildings":2683,"edits":2695,"latest":"2017-03-03T10:25:07.000Z"},"geometry":{"type":"Point","coordinates":[27.39946944317,-16.3376490201743]}},{"type":"Feature","properties":{"id":1091,"title":"Peace Corps Zambia - Keemba Catchment Area","status":"PUBLISHED","created":"2015","lastUpdated":"2015","lastActive":"no","area":175.01785803119873,"changesets":527,"mappers":24,"roads":1750.24098059605,"buildings":4095,"edits":20596,"latest":"2018-03-19T08:41:29.000Z"},"geometry":{"type":"Point","coordinates":[27.3726081848145,-16.054879034396]}},{"type":"Feature","properties":{"id":2761,"title":"Missing Maps: Zambia Malaria Elimination 74","status":"ARCHIVED","created":"2017","lastUpdated":"2017","lastActive":"no","area":47.19235660906852,"changesets":579,"mappers":40,"roads":20.5626297877843,"buildings":3277,"edits":3389,"latest":"2017-04-12T13:01:45.000Z"},"geometry":{"type":"Point","coordinates":[26.6191107116027,-17.4284490157584]}},{"type":"Feature","properties":{"id":3184,"title":"Missing Maps: Zambia Malaria Elimination 80","status":"ARCHIVED","created":"2017","lastUpdated":"2017","lastActive":"no","area":740.5068822656518,"changesets":2995,"mappers":163,"roads":86.0025580626028,"buildings":35042,"edits":36444,"latest":"2017-11-04T16:55:47.000Z"},"geometry":{"type":"Point","coordinates":[27.6920513530111,-15.9415376214092]}},{"type":"Feature","properties":{"id":2699,"title":"Missing Maps: Zambia Malaria Elimination 66","status":"ARCHIVED","created":"2017","lastUpdated":"2017","lastActive":"no","area":50.124720955913006,"changesets":468,"mappers":27,"roads":22.076364361358,"buildings":2535,"edits":2638,"latest":"2017-03-29T08:18:05.000Z"},"geometry":{"type":"Point","coordinates":[26.8835639647511,-17.0174401852459]}},{"type":"Feature","properties":{"id":2695,"title":"Missing Maps: Zambia Malaria Elimination 62","status":"ARCHIVED","created":"2017","lastUpdated":"2017","lastActive":"no","area":51.13514152568108,"changesets":838,"mappers":120,"roads":173.537791642929,"buildings":3216,"edits":5411,"latest":"2017-05-11T18:23:23.000Z"},"geometry":{"type":"Point","coordinates":[26.3806990487336,-16.9367301018994]}},{"type":"Feature","properties":{"id":2773,"title":"Missing Maps: Zambia Malaria Elimination 76","status":"ARCHIVED","created":"2017","lastUpdated":"2017","lastActive":"no","area":38.49078939239585,"changesets":320,"mappers":24,"roads":0,"buildings":2320,"edits":2320,"latest":"2017-04-07T16:10:34.000Z"},"geometry":{"type":"Point","coordinates":[26.0526745550425,-17.1420374248002]}},{"type":"Feature","properties":{"id":2549,"title":"Zambia14","status":"ARCHIVED","created":"2017","lastUpdated":"2017","lastActive":"no","area":30.905717274348312,"changesets":0,"mappers":0,"roads":0,"buildings":0,"edits":0,"latest":null},"geometry":{"type":"Point","coordinates":[26.8995524285374,-15.9672565612992]}},{"type":"Feature","properties":{"id":2564,"title":"Missing Maps: Zambia Malaria Elimination 13","status":"ARCHIVED","created":"2017","lastUpdated":"2017","lastActive":"no","area":56.69497094655045,"changesets":1658,"mappers":79,"roads":7.43757499480842,"buildings":13947,"edits":14009,"latest":"2017-03-27T02:04:28.000Z"},"geometry":{"type":"Point","coordinates":[28.1346276664275,-16.0665704523542]}},{"type":"Feature","properties":{"id":2565,"title":"MISTAKE IN PROJECT SIZE/ARCHIVE/DONOTUSE Missing Maps: Zambia Malaria Elimination 14","status":"ARCHIVED","created":"2017","lastUpdated":"2017","lastActive":"no","area":248.49122523499858,"changesets":5,"mappers":1,"roads":0,"buildings":201,"edits":201,"latest":"2017-02-20T23:41:04.000Z"},"geometry":{"type":"Point","coordinates":[27.9359633607359,-16.2255998428879]}},{"type":"Feature","properties":{"id":2489,"title":"Missing Maps: Zambia Malaria Elimination 1","status":"ARCHIVED","created":"2017","lastUpdated":"2017","lastActive":"no","area":148.37833628040136,"changesets":5122,"mappers":165,"roads":4778.22806566751,"buildings":30233,"edits":78251,"latest":"2017-05-09T16:04:32.000Z"},"geometry":{"type":"Point","coordinates":[26.1105651610199,-15.6279672930532]}},{"type":"Feature","properties":{"id":2568,"title":"Missing Maps: Zambia Malaria Elimination 16","status":"ARCHIVED","created":"2017","lastUpdated":"2017","lastActive":"no","area":33.45666280635502,"changesets":1374,"mappers":53,"roads":19.0981468558553,"buildings":9558,"edits":9838,"latest":"2017-03-24T19:33:24.000Z"},"geometry":{"type":"Point","coordinates":[27.8088598196124,-16.1509845533222]}},{"type":"Feature","properties":{"id":2547,"title":"Missing Maps: Zambia Malaria Elimination 7","status":"ARCHIVED","created":"2017","lastUpdated":"2017","lastActive":"no","area":52.427783564638844,"changesets":1886,"mappers":75,"roads":65.5101126680653,"buildings":12773,"edits":13399,"latest":"2017-07-13T01:59:29.000Z"},"geometry":{"type":"Point","coordinates":[26.4802715979837,-15.780440516558]}},{"type":"Feature","properties":{"id":2545,"title":"Missing Maps: Zambia Malaria Elimination 5","status":"ARCHIVED","created":"2017","lastUpdated":"2017","lastActive":"no","area":29.240261299687603,"changesets":2462,"mappers":63,"roads":59.6692415195899,"buildings":19056,"edits":19476,"latest":"2017-07-21T09:55:23.000Z"},"geometry":{"type":"Point","coordinates":[26.0720422320165,-15.9727674891682]}},{"type":"Feature","properties":{"id":2554,"title":"Missing Maps: Zambia Malaria Elimination 9","status":"ARCHIVED","created":"2017","lastUpdated":"2017","lastActive":"no","area":46.63360623178158,"changesets":1400,"mappers":77,"roads":91.0983080137419,"buildings":11789,"edits":12218,"latest":"2017-03-24T12:08:48.000Z"},"geometry":{"type":"Point","coordinates":[27.9162150772687,-15.8650475722509]}},{"type":"Feature","properties":{"id":2562,"title":"Missing Maps: Zambia Malaria Elimination 11","status":"ARCHIVED","created":"2017","lastUpdated":"2017","lastActive":"no","area":35.92752078925789,"changesets":651,"mappers":65,"roads":1.58523798925695,"buildings":5055,"edits":5085,"latest":"2017-03-24T06:14:13.000Z"},"geometry":{"type":"Point","coordinates":[28.1010543332572,-15.9357645571568]}},{"type":"Feature","properties":{"id":2539,"title":"Missing Maps: Zambia Malaria Elimination 3","status":"ARCHIVED","created":"2017","lastUpdated":"2017","lastActive":"no","area":47.85281626919188,"changesets":2132,"mappers":67,"roads":210.90010582889,"buildings":10376,"edits":11864,"latest":"2017-03-25T11:48:59.000Z"},"geometry":{"type":"Point","coordinates":[26.7206669822313,-15.482276061765]}},{"type":"Feature","properties":{"id":3994,"title":"Zambia cholera outbreak 2018","status":"PUBLISHED","created":"2018","lastUpdated":"2018","lastActive":"no","area":6.356624742313112,"changesets":856,"mappers":90,"roads":66.5336672603758,"buildings":17631,"edits":19976,"latest":"2018-02-06T15:59:00.000Z"},"geometry":{"type":"Point","coordinates":[28.2898386983077,-15.3586482413544]}},{"type":"Feature","properties":{"id":4010,"title":"Zambia Cholera Outbreak 2018","status":"PUBLISHED","created":"2018","lastUpdated":"2018","lastActive":"no","area":5.210083377958257,"changesets":693,"mappers":66,"roads":21.7905925162644,"buildings":11559,"edits":13153,"latest":"2018-01-13T22:26:32.000Z"},"geometry":{"type":"Point","coordinates":[28.2955256322922,-15.3894090810857]}},{"type":"Feature","properties":{"id":3991,"title":"Zambia Cholera Outbreak","status":"PUBLISHED","created":"2018","lastUpdated":"2018","lastActive":"no","area":5.372296232208056,"changesets":1244,"mappers":91,"roads":53.6028823570509,"buildings":22152,"edits":24175,"latest":"2018-01-21T07:17:12.000Z"},"geometry":{"type":"Point","coordinates":[28.2617501969979,-15.445347941535]}},{"type":"Feature","properties":{"id":2765,"title":"Mistake Do Not Use","status":"ARCHIVED","created":"2017","lastUpdated":"2017","lastActive":"no","area":27.331276133688156,"changesets":0,"mappers":0,"roads":0,"buildings":0,"edits":0,"latest":null},"geometry":{"type":"Point","coordinates":[27.9848791243,-16.0892558881978]}},{"type":"Feature","properties":{"id":2738,"title":"Mistake Do Not Use","status":"ARCHIVED","created":"2017","lastUpdated":"2017","lastActive":"no","area":41.631798204787955,"changesets":0,"mappers":0,"roads":0,"buildings":0,"edits":0,"latest":null},"geometry":{"type":"Point","coordinates":[26.791156583287,-15.7950682288584]}},{"type":"Feature","properties":{"id":2779,"title":"Missing Maps: Zambia Malaria Elimination 78","status":"ARCHIVED","created":"2017","lastUpdated":"2017","lastActive":"no","area":44.7317181021396,"changesets":506,"mappers":28,"roads":9.17382543070227,"buildings":3197,"edits":3235,"latest":"2017-04-11T19:49:21.000Z"},"geometry":{"type":"Point","coordinates":[26.2287295157117,-17.3713061163891]}},{"type":"Feature","properties":{"id":2642,"title":"Missing Maps: Zambia Malaria Elimination 52","status":"ARCHIVED","created":"2017","lastUpdated":"2017","lastActive":"no","area":49.72869770830729,"changesets":520,"mappers":38,"roads":7.23413713857558,"buildings":2444,"edits":2472,"latest":"2017-03-21T17:54:13.000Z"},"geometry":{"type":"Point","coordinates":[27.1361907402668,-16.7816063615116]}},{"type":"Feature","properties":{"id":2672,"title":"Missing Maps: Zambia Malaria Elimination 60","status":"ARCHIVED","created":"2017","lastUpdated":"2017","lastActive":"no","area":57.4773662312199,"changesets":463,"mappers":31,"roads":22.291356841362,"buildings":2319,"edits":2563,"latest":"2017-03-24T22:32:53.000Z"},"geometry":{"type":"Point","coordinates":[27.0354447769297,-16.9098554673388]}},{"type":"Feature","properties":{"id":2731,"title":"Missing Maps: Zambia Malaria Elimination 68","status":"ARCHIVED","created":"2017","lastUpdated":"2017","lastActive":"no","area":51.51935242815336,"changesets":425,"mappers":32,"roads":10.4783148994824,"buildings":5005,"edits":5054,"latest":"2017-04-20T11:50:05.000Z"},"geometry":{"type":"Point","coordinates":[27.2405219328737,-17.0266096020833]}},{"type":"Feature","properties":{"id":2670,"title":"Missing Maps: Zambia Malaria Elimination 58","status":"ARCHIVED","created":"2017","lastUpdated":"2017","lastActive":"no","area":52.22446425255846,"changesets":450,"mappers":42,"roads":12.5052306014992,"buildings":3306,"edits":3498,"latest":"2017-03-23T21:36:31.000Z"},"geometry":{"type":"Point","coordinates":[26.682991358299,-16.7963311571231]}},{"type":"Feature","properties":{"id":2661,"title":"Missing Maps: Zambia Malaria Elimination 55","status":"ARCHIVED","created":"2017","lastUpdated":"2017","lastActive":"no","area":44.95788437690187,"changesets":381,"mappers":40,"roads":6.26931224903175,"buildings":1937,"edits":2049,"latest":"2017-03-18T11:10:07.000Z"},"geometry":{"type":"Point","coordinates":[26.7095184288564,-16.6529817809649]}},{"type":"Feature","properties":{"id":2697,"title":"Missing Maps: Zambia Malaria Elimination 64","status":"ARCHIVED","created":"2017","lastUpdated":"2017","lastActive":"no","area":54.73285642282335,"changesets":1359,"mappers":162,"roads":173.143135524862,"buildings":10487,"edits":12607,"latest":"2017-04-03T18:54:51.000Z"},"geometry":{"type":"Point","coordinates":[26.5192874610287,-17.037699901068]}},{"type":"Feature","properties":{"id":2623,"title":"Missing Maps: Zambia Malaria Elimination 44","status":"ARCHIVED","created":"2017","lastUpdated":"2017","lastActive":"no","area":48.79156262885752,"changesets":716,"mappers":71,"roads":6.99278637098004,"buildings":3963,"edits":4037,"latest":"2017-07-11T19:02:08.000Z"},"geometry":{"type":"Point","coordinates":[27.5674841857883,-16.5988506403521]}},{"type":"Feature","properties":{"id":2641,"title":"Missing Maps: Zambia Malaria Elimination 51","status":"ARCHIVED","created":"2017","lastUpdated":"2017","lastActive":"no","area":31.791115128426945,"changesets":394,"mappers":4,"roads":0.00966484763269278,"buildings":3001,"edits":3101,"latest":"2017-04-20T08:28:56.000Z"},"geometry":{"type":"Point","coordinates":[27.4001075890881,-16.7999763980603]}},{"type":"Feature","properties":{"id":2633,"title":"Missing Maps: Zambia Malaria Elimination 48","status":"ARCHIVED","created":"2017","lastUpdated":"2017","lastActive":"no","area":32.57131581006427,"changesets":500,"mappers":35,"roads":2.44756255431118,"buildings":3279,"edits":3316,"latest":"2017-03-14T11:37:25.000Z"},"geometry":{"type":"Point","coordinates":[27.537414156998,-16.6966256500116]}},{"type":"Feature","properties":{"id":2631,"title":"Missing Maps: Zambia Malaria Elimination 46","status":"ARCHIVED","created":"2017","lastUpdated":"2017","lastActive":"no","area":39.983921412768375,"changesets":491,"mappers":67,"roads":73.66628039145,"buildings":1499,"edits":1809,"latest":"2017-03-17T14:59:40.000Z"},"geometry":{"type":"Point","coordinates":[27.2661845406609,-16.5416785036011]}},{"type":"Feature","properties":{"id":2613,"title":"Missing Maps: Zambia Malaria Elimination 42","status":"ARCHIVED","created":"2017","lastUpdated":"2017","lastActive":"no","area":34.20674904384274,"changesets":797,"mappers":58,"roads":69.4566018998316,"buildings":3701,"edits":3997,"latest":"2017-03-27T07:55:49.000Z"},"geometry":{"type":"Point","coordinates":[27.4023544901047,-16.5187437761834]}},{"type":"Feature","properties":{"id":2611,"title":"Missing Maps: Zambia Malaria Elimination 40","status":"ARCHIVED","created":"2017","lastUpdated":"2017","lastActive":"no","area":46.032921401337944,"changesets":1214,"mappers":68,"roads":93.1964349675993,"buildings":9730,"edits":11380,"latest":"2017-04-10T00:49:03.000Z"},"geometry":{"type":"Point","coordinates":[27.5760387640245,-16.4560598833974]}},{"type":"Feature","properties":{"id":2596,"title":"Missing Maps: Zambia Malaria Elimination 34","status":"ARCHIVED","created":"2017","lastUpdated":"2017","lastActive":"no","area":41.75863317020604,"changesets":595,"mappers":57,"roads":69.4666263553352,"buildings":2590,"edits":2841,"latest":"2017-05-12T13:20:22.000Z"},"geometry":{"type":"Point","coordinates":[27.2748432297805,-16.343342308143]}},{"type":"Feature","properties":{"id":2607,"title":"Missing Maps: Zambia Malaria Elimination 38","status":"ARCHIVED","created":"2017","lastUpdated":"2017","lastActive":"no","area":39.885067149317884,"changesets":2853,"mappers":69,"roads":32.2568933614399,"buildings":16567,"edits":17223,"latest":"2017-06-10T16:37:04.000Z"},"geometry":{"type":"Point","coordinates":[27.3140013351165,-16.4411592545615]}},{"type":"Feature","properties":{"id":2605,"title":"Missing Maps: Zambia Malaria Elimination 36","status":"ARCHIVED","created":"2017","lastUpdated":"2017","lastActive":"no","area":44.753791671609655,"changesets":843,"mappers":108,"roads":446.771408867532,"buildings":5729,"edits":7002,"latest":"2017-03-25T11:28:00.000Z"},"geometry":{"type":"Point","coordinates":[27.161827481475,-16.4392560957868]}},{"type":"Feature","properties":{"id":2594,"title":"Missing Maps: Zambia Malaria Elimination 32","status":"ARCHIVED","created":"2017","lastUpdated":"2017","lastActive":"no","area":43.26936567615261,"changesets":1273,"mappers":70,"roads":18.9927893029869,"buildings":7488,"edits":7992,"latest":"2017-04-08T00:18:09.000Z"},"geometry":{"type":"Point","coordinates":[27.3457489157097,-16.2479875735404]}},{"type":"Feature","properties":{"id":2583,"title":"Missing Maps: Zambia Malaria Elimination 22","status":"ARCHIVED","created":"2017","lastUpdated":"2017","lastActive":"no","area":34.18059431752515,"changesets":771,"mappers":42,"roads":0.996544975341289,"buildings":5804,"edits":5856,"latest":"2017-03-31T12:29:12.000Z"},"geometry":{"type":"Point","coordinates":[27.6589125365533,-16.2620039900826]}},{"type":"Feature","properties":{"id":2592,"title":"Missing Maps: Zambia Malaria Elimination 30","status":"ARCHIVED","created":"2017","lastUpdated":"2017","lastActive":"no","area":48.89367966790246,"changesets":929,"mappers":62,"roads":8.39795410362155,"buildings":5011,"edits":5076,"latest":"2017-04-27T22:45:51.000Z"},"geometry":{"type":"Point","coordinates":[27.1605308545981,-16.179257781807]}},{"type":"Feature","properties":{"id":2587,"title":"Missing Maps: Zambia Malaria Elimination 26","status":"ARCHIVED","created":"2017","lastUpdated":"2017","lastActive":"no","area":48.47737778370312,"changesets":1359,"mappers":51,"roads":14.6576054579623,"buildings":9391,"edits":9515,"latest":"2017-03-28T13:22:21.000Z"},"geometry":{"type":"Point","coordinates":[28.1794821130395,-15.8658428913252]}},{"type":"Feature","properties":{"id":2589,"title":"Missing Maps: Zambia Malaria Elimination 28","status":"ARCHIVED","created":"2017","lastUpdated":"2017","lastActive":"no","area":48.38205996241602,"changesets":1278,"mappers":56,"roads":24.505756009633,"buildings":7465,"edits":7886,"latest":"2017-03-30T07:48:05.000Z"},"geometry":{"type":"Point","coordinates":[27.4374700656247,-16.150438096581]}},{"type":"Feature","properties":{"id":2585,"title":"Missing Maps: Zambia Malaria Elimination 24","status":"ARCHIVED","created":"2017","lastUpdated":"2017","lastActive":"no","area":45.640231042502336,"changesets":1130,"mappers":58,"roads":3.23377267316928,"buildings":7223,"edits":7383,"latest":"2017-03-29T02:58:36.000Z"},"geometry":{"type":"Point","coordinates":[27.5837411428749,-16.3334845054347]}},{"type":"Feature","properties":{"id":2570,"title":"Missing Maps: Zambia Malaria Elimination 18","status":"ARCHIVED","created":"2017","lastUpdated":"2017","lastActive":"no","area":40.265860179426525,"changesets":1259,"mappers":53,"roads":11.0265424356229,"buildings":9511,"edits":9739,"latest":"2017-03-23T04:33:37.000Z"},"geometry":{"type":"Point","coordinates":[27.7552911263455,-16.2151912459413]}},{"type":"Feature","properties":{"id":2566,"title":"Missing Maps: Zambia Malaria Elimination 14","status":"ARCHIVED","created":"2017","lastUpdated":"2017","lastActive":"no","area":57.65449460173831,"changesets":1552,"mappers":63,"roads":2.83580702588112,"buildings":16749,"edits":16926,"latest":"2017-04-07T12:01:50.000Z"},"geometry":{"type":"Point","coordinates":[28.122352304328,-16.2042708842274]}},{"type":"Feature","properties":{"id":2581,"title":"Missing Maps: Zambia Malaria Elimination 20","status":"ARCHIVED","created":"2017","lastUpdated":"2017","lastActive":"no","area":38.16669959165131,"changesets":1058,"mappers":54,"roads":22.504826579566,"buildings":5525,"edits":6767,"latest":"2017-03-27T07:54:59.000Z"},"geometry":{"type":"Point","coordinates":[27.641978536512,-16.123850659574]}},{"type":"Feature","properties":{"id":2639,"title":"Missing Maps: Zambia Malaria Elimination 49","status":"ARCHIVED","created":"2017","lastUpdated":"2017","lastActive":"no","area":52.814073050735566,"changesets":852,"mappers":67,"roads":23.8160874785416,"buildings":5854,"edits":6222,"latest":"2017-03-28T13:32:47.000Z"},"geometry":{"type":"Point","coordinates":[27.2697037774623,-16.746202197447]}}],"Yemen":[{"type":"Feature","properties":{"id":4889,"title":"Missing Maps: Mapping roads North of Ad Dhale, Yemen (2)","status":"PUBLISHED","created":"2018","lastUpdated":"2018","lastActive":"no","area":81.12198546270292,"changesets":751,"mappers":45,"roads":319.50604877815,"buildings":284,"edits":2176,"latest":"2018-08-17T08:57:34.000Z"},"geometry":{"type":"Point","coordinates":[44.7750160344912,13.7611033590513]}},{"type":"Feature","properties":{"id":4872,"title":"Missing Maps: Mapping roads North of Ad Dhale, Yemen (1)","status":"PUBLISHED","created":"2018","lastUpdated":"2018","lastActive":"no","area":23.75410461396328,"changesets":152,"mappers":28,"roads":206.36041968676,"buildings":6,"edits":1284,"latest":"2018-07-20T05:20:13.000Z"},"geometry":{"type":"Point","coordinates":[44.7366924885203,13.7309384546703]}},{"type":"Feature","properties":{"id":4830,"title":"Missing Maps: Mapping buildings in Ad Dhale, Yemen","status":"ARCHIVED","created":"2018","lastUpdated":"2018","lastActive":"no","area":7.3196337002883896,"changesets":486,"mappers":51,"roads":3.29274452120948,"buildings":4409,"edits":4499,"latest":"2018-07-31T22:44:36.000Z"},"geometry":{"type":"Point","coordinates":[44.7312218753365,13.7001647466239]}},{"type":"Feature","properties":{"id":4890,"title":"Missing Maps: Mapping roads around Qataba, Yemen","status":"PUBLISHED","created":"2018","lastUpdated":"2018","lastActive":"no","area":75.52895455718537,"changesets":265,"mappers":19,"roads":360.062945217252,"buildings":270,"edits":1817,"latest":"2018-09-18T17:25:41.000Z"},"geometry":{"type":"Point","coordinates":[44.7559173730778,13.8193538787754]}},{"type":"Feature","properties":{"id":4885,"title":"Mapping roads in Al Azariq, Yemen","status":"ARCHIVED","created":"2018","lastUpdated":"2018","lastActive":"no","area":7.671983538148573,"changesets":54,"mappers":7,"roads":74.5169585382258,"buildings":16,"edits":346,"latest":"2018-07-23T00:01:04.000Z"},"geometry":{"type":"Point","coordinates":[44.705429034235,13.621150674685]}},{"type":"Feature","properties":{"id":4886,"title":"Mapping buildings in Al Azariq, Yemen","status":"ARCHIVED","created":"2018","lastUpdated":"2018","lastActive":"no","area":7.671983538148573,"changesets":111,"mappers":31,"roads":25.8544313712553,"buildings":2708,"edits":2824,"latest":"2018-07-24T21:05:25.000Z"},"geometry":{"type":"Point","coordinates":[44.705429034235,13.621150674685]}},{"type":"Feature","properties":{"id":4838,"title":"Mapping buildings in Qataba, Yemen","status":"ARCHIVED","created":"2018","lastUpdated":"2018","lastActive":"no","area":8.51943253870287,"changesets":592,"mappers":50,"roads":10.7388641375619,"buildings":4381,"edits":4562,"latest":"2018-07-24T08:37:14.000Z"},"geometry":{"type":"Point","coordinates":[44.7067329664529,13.8403954335386]}},{"type":"Feature","properties":{"id":4837,"title":"Missing Maps: Mapping roads in Qataba, Yemen","status":"ARCHIVED","created":"2018","lastUpdated":"2018","lastActive":"no","area":8.51943253870287,"changesets":178,"mappers":16,"roads":119.741773329884,"buildings":19,"edits":906,"latest":"2018-07-11T09:36:58.000Z"},"geometry":{"type":"Point","coordinates":[44.7067329664529,13.8403954335386]}},{"type":"Feature","properties":{"id":3310,"title":"Ibb draft","status":"ARCHIVED","created":"2017","lastUpdated":"2017","lastActive":"no","area":8999.022831874463,"changesets":0,"mappers":0,"roads":0,"buildings":0,"edits":0,"latest":null},"geometry":{"type":"Point","coordinates":[44.1615033373132,13.9844930587461]}}],"Tanzania":[{"type":"Feature","properties":{"id":4896,"title":"Tanzania Development Trust:  Manyara FGM 3","status":"PUBLISHED","created":"2018","lastUpdated":"2018","lastActive":"no","area":2283.4732623040454,"changesets":1771,"mappers":168,"roads":225.333231420998,"buildings":15423,"edits":15979,"latest":"2018-10-24T12:40:31.000Z"},"geometry":{"type":"Point","coordinates":[37.0771755450608,-5.56656722298389]}},{"type":"Feature","properties":{"id":4892,"title":"Tanzania Development Trust:  Manyara FGM 1","status":"PUBLISHED","created":"2018","lastUpdated":"2018","lastActive":"no","area":2282.5577295654634,"changesets":3806,"mappers":257,"roads":2036.28510189099,"buildings":26583,"edits":32480,"latest":"2018-10-25T13:25:22.000Z"},"geometry":{"type":"Point","coordinates":[36.6759072253252,-5.56757567856636]}},{"type":"Feature","properties":{"id":4868,"title":"Kasuku Building Import Workflow Test (South))","status":"ARCHIVED","created":"2018","lastUpdated":"2018","lastActive":"no","area":1.6123125790816706,"changesets":18,"mappers":6,"roads":0.534707746129971,"buildings":276,"edits":281,"latest":"2018-10-09T23:04:15.000Z"},"geometry":{"type":"Point","coordinates":[29.741340447652,-4.90496095600047]}},{"type":"Feature","properties":{"id":4753,"title":"Njombe Region, Tanzania Mini Grids Project 07","status":"PUBLISHED","created":"2018","lastUpdated":"2018","lastActive":"no","area":2035.3854283933017,"changesets":870,"mappers":31,"roads":0.492269625730374,"buildings":19332,"edits":19400,"latest":"2018-07-02T08:36:50.000Z"},"geometry":{"type":"Point","coordinates":[34.7732339287425,-9.52302069979256]}},{"type":"Feature","properties":{"id":4802,"title":"Priority Villages, Lindi Region, Tanzania Mini Grids Project","status":"PUBLISHED","created":"2018","lastUpdated":"2018","lastActive":"no","area":616.0229189680824,"changesets":447,"mappers":18,"roads":0.198453497004405,"buildings":12715,"edits":12741,"latest":"2018-07-03T09:25:50.000Z"},"geometry":{"type":"Point","coordinates":[38.5089337611704,-10.1840429590014]}},