{"totalEdits":42921875,"totalBuildings":35574701,"totalRoads":909468.48632338,"mappersOnline":122,"totalTasksMapped":1710251,"totalMappers":146755,"totalProjects":4181,"totalArea":2404927481.656018,"Tanzania":[{"type":"Feature","properties":{"id":4258,"title":"Lindi_minigrids","status":"ARCHIVED","created":"2018","lastUpdated":"2018","lastActive":"no","area":399.008958691099,"changesets":0,"mappers":0,"roads":0,"buildings":0,"edits":0,"latest":null},"geometry":{"type":"Point","coordinates":[39.206344562057,-10.7886215078052]}},{"type":"Feature","properties":{"id":4324,"title":"Tanzania Development Trust: Nyakaiga Karagwe Community Mapping Project","status":"ARCHIVED","created":"2018","lastUpdated":"2018","lastActive":"no","area":12.111231176337705,"changesets":103,"mappers":12,"roads":99.5600341898669,"buildings":1190,"edits":1678,"latest":"2018-03-18T16:20:36.000Z"},"geometry":{"type":"Point","coordinates":[30.9630721040928,-1.72913994836662]}},{"type":"Feature","properties":{"id":4334,"title":"Tanzania Development Trust: Ihemi Iringa Community Mapping Project","status":"ARCHIVED","created":"2018","lastUpdated":"2018","lastActive":"no","area":17.979652120471023,"changesets":138,"mappers":17,"roads":162.956597880068,"buildings":1531,"edits":2481,"latest":"2018-03-20T18:15:43.000Z"},"geometry":{"type":"Point","coordinates":[35.5059379677161,-8.01149565167227]}},{"type":"Feature","properties":{"id":5136,"title":"Tanzania Development Trust:  Manyara FGM 6","status":"PUBLISHED","created":"2018","lastUpdated":"2018","lastActive":"no","area":1127.3539356225028,"changesets":3418,"mappers":247,"roads":1503.31183849317,"buildings":43527,"edits":46787,"latest":"2018-11-16T21:59:25.000Z"},"geometry":{"type":"Point","coordinates":[37.0715783941217,-6.08590867686194]}},{"type":"Feature","properties":{"id":3489,"title":"Missing Maps: Dar es Salaam - Ramani Huria 2.0 - 37","status":"PUBLISHED","created":"2017","lastUpdated":"2017","lastActive":"no","area":417.09462410666663,"changesets":822,"mappers":61,"roads":562.998240273241,"buildings":1882,"edits":10391,"latest":"2017-11-09T12:33:34.000Z"},"geometry":{"type":"Point","coordinates":[39.4732760819387,-7.07035250724075]}},{"type":"Feature","properties":{"id":3993,"title":"Tanzania Development Trust:  Mwanza East","status":"PUBLISHED","created":"2018","lastUpdated":"2018","lastActive":"yes","area":6942.748601206665,"changesets":9668,"mappers":431,"roads":10725.8345726525,"buildings":170819,"edits":232927,"latest":"2018-11-17T21:35:57.000Z"},"geometry":{"type":"Point","coordinates":[33.1460082996701,-2.93920908459836]}},{"type":"Feature","properties":{"id":974,"title":"Missing Maps: Masasa, Tanzania","status":"ARCHIVED","created":"2015","lastUpdated":"2017","lastActive":"no","area":30.35388422411191,"changesets":362,"mappers":37,"roads":573.257983913129,"buildings":5562,"edits":11439,"latest":"2015-06-17T16:21:53.000Z"},"geometry":{"type":"Point","coordinates":[31.5237257525497,-3.33292161211319]}},{"type":"Feature","properties":{"id":5428,"title":"Tanzania missing buildings Mbulu District","status":"PUBLISHED","created":"2018","lastUpdated":"2018","lastActive":"yes","area":1102.5651278977764,"changesets":6408,"mappers":505,"roads":323.766340203125,"buildings":39139,"edits":40674,"latest":"2018-11-17T21:54:23.000Z"},"geometry":{"type":"Point","coordinates":[35.4288815332799,-3.84128025510992]}},{"type":"Feature","properties":{"id":5474,"title":"Tanzania missing buildings Harang District, Manyara Region","status":"PUBLISHED","created":"2018","lastUpdated":"2018","lastActive":"yes","area":310.80393427101467,"changesets":341,"mappers":53,"roads":14.4410236401359,"buildings":1187,"edits":1284,"latest":"2018-11-17T22:19:46.000Z"},"geometry":{"type":"Point","coordinates":[35.3330397028835,-4.60695096355219]}},{"type":"Feature","properties":{"id":4710,"title":"Tanzania Development Trust: Rubale Community Mapping Project","status":"ARCHIVED","created":"2018","lastUpdated":"2018","lastActive":"no","area":2.8694421907196968,"changesets":223,"mappers":15,"roads":47.6921069447722,"buildings":1026,"edits":1672,"latest":"2018-06-10T20:40:39.000Z"},"geometry":{"type":"Point","coordinates":[31.5198154824657,-1.60317363606181]}},{"type":"Feature","properties":{"id":4406,"title":"Tanzania Development Trust: Kyaibumba Community Mapping Project","status":"ARCHIVED","created":"2018","lastUpdated":"2018","lastActive":"no","area":14.678296379059542,"changesets":158,"mappers":30,"roads":133.357573789262,"buildings":795,"edits":1536,"latest":"2018-04-09T12:26:56.000Z"},"geometry":{"type":"Point","coordinates":[31.4548536327291,-1.9073101465972]}},{"type":"Feature","properties":{"id":4357,"title":"Tanzania Development Trust: Rungwe Kasulu Community Mapping Project","status":"ARCHIVED","created":"2018","lastUpdated":"2018","lastActive":"no","area":1013.1767777919853,"changesets":5552,"mappers":409,"roads":4999.48387166668,"buildings":20822,"edits":49162,"latest":"2018-06-17T14:10:03.000Z"},"geometry":{"type":"Point","coordinates":[30.2493018751241,-4.77015701562809]}},{"type":"Feature","properties":{"id":4404,"title":"Tanzania Development Trust: Kiyebe Community Mapping Project","status":"ARCHIVED","created":"2018","lastUpdated":"2018","lastActive":"no","area":14.54425632534702,"changesets":165,"mappers":25,"roads":179.882131248454,"buildings":904,"edits":2112,"latest":"2018-04-12T18:26:16.000Z"},"geometry":{"type":"Point","coordinates":[31.5213611368364,-2.01443774986169]}},{"type":"Feature","properties":{"id":4991,"title":"Data Zetu Hotsports_Mbeya","status":"PUBLISHED","created":"2018","lastUpdated":"2018","lastActive":"no","area":16.90944585735463,"changesets":1032,"mappers":30,"roads":0.570750636793558,"buildings":19667,"edits":19935,"latest":"2018-08-14T07:22:14.000Z"},"geometry":{"type":"Point","coordinates":[33.4961424334101,-8.92572377814541]}},{"type":"Feature","properties":{"id":4335,"title":"Tanzania Development Trust: Urambo Community Mapping Project","status":"ARCHIVED","created":"2018","lastUpdated":"2018","lastActive":"no","area":22.72434812488303,"changesets":539,"mappers":76,"roads":209.42903890829,"buildings":7236,"edits":9333,"latest":"2018-03-25T09:46:55.000Z"},"geometry":{"type":"Point","coordinates":[32.0763834649408,-5.08236418614099]}},{"type":"Feature","properties":{"id":4325,"title":"Tanzania Development Trust: Kakuraijo Karagwe Community Mapping Project","status":"ARCHIVED","created":"2018","lastUpdated":"2018","lastActive":"no","area":26.03432942227103,"changesets":294,"mappers":21,"roads":200.728606871569,"buildings":2268,"edits":3280,"latest":"2018-03-19T17:29:04.000Z"},"geometry":{"type":"Point","coordinates":[30.9998529759753,-1.76362344469638]}},{"type":"Feature","properties":{"id":4307,"title":"Tanzania Development Trust: Burungura Community Mapping Project","status":"ARCHIVED","created":"2018","lastUpdated":"2018","lastActive":"no","area":12.132811235880215,"changesets":422,"mappers":60,"roads":224.496584040424,"buildings":934,"edits":2752,"latest":"2018-03-15T22:38:18.000Z"},"geometry":{"type":"Point","coordinates":[31.4863826867625,-1.89364869788793]}},{"type":"Feature","properties":{"id":4316,"title":"Tanzania Development Trust: Ngara Community Mapping Project","status":"ARCHIVED","created":"2018","lastUpdated":"2018","lastActive":"no","area":5.680090353476652,"changesets":293,"mappers":44,"roads":80.4486420340574,"buildings":3478,"edits":4114,"latest":"2018-03-30T14:34:54.000Z"},"geometry":{"type":"Point","coordinates":[30.6563660461257,-2.51312893241178]}},{"type":"Feature","properties":{"id":4329,"title":"Tanzania Development Trust: Chabuhora Karagwe Community Mapping Project","status":"ARCHIVED","created":"2018","lastUpdated":"2018","lastActive":"no","area":29.098942849205926,"changesets":337,"mappers":36,"roads":136.59546293545,"buildings":2260,"edits":3376,"latest":"2018-03-20T08:56:00.000Z"},"geometry":{"type":"Point","coordinates":[30.9793967385239,-1.78282439868476]}},{"type":"Feature","properties":{"id":4293,"title":"Tanzania Development Trust: Kibirizi Community Mapping Project","status":"ARCHIVED","created":"2018","lastUpdated":"2018","lastActive":"no","area":75.76463029779623,"changesets":932,"mappers":112,"roads":628.528332051034,"buildings":2461,"edits":8182,"latest":"2018-03-25T15:01:12.000Z"},"geometry":{"type":"Point","coordinates":[31.4031606875565,-1.63216015619948]}},{"type":"Feature","properties":{"id":4284,"title":"Tanzania Development Trust: Nyakigando Ikimba Community Mapping Project","status":"ARCHIVED","created":"2018","lastUpdated":"2018","lastActive":"no","area":9.041298427344486,"changesets":320,"mappers":21,"roads":159.247797886851,"buildings":1179,"edits":3057,"latest":"2018-03-12T21:12:54.000Z"},"geometry":{"type":"Point","coordinates":[31.5705837031557,-1.51810455931155]}},{"type":"Feature","properties":{"id":4292,"title":"Tanzania Development Trust: Nyaishozi Karagwe Community Mapping Project","status":"ARCHIVED","created":"2018","lastUpdated":"2018","lastActive":"no","area":34.276689435879305,"changesets":399,"mappers":36,"roads":474.815969390101,"buildings":2973,"edits":4948,"latest":"2018-03-18T21:40:04.000Z"},"geometry":{"type":"Point","coordinates":[31.1192616184384,-1.74718623175017]}},{"type":"Feature","properties":{"id":4281,"title":"Tanzania Development Trust: Muleba Community Mapping Project","status":"ARCHIVED","created":"2018","lastUpdated":"2018","lastActive":"no","area":7.595025994574089,"changesets":807,"mappers":46,"roads":152.380940730158,"buildings":3685,"edits":5608,"latest":"2018-03-14T04:07:41.000Z"},"geometry":{"type":"Point","coordinates":[31.6560461932452,-1.84575729647524]}},{"type":"Feature","properties":{"id":5467,"title":"Makuburi","status":"PUBLISHED","created":"2018","lastUpdated":"2018","lastActive":"no","area":7.6743988229254745,"changesets":63,"mappers":8,"roads":7.63816287996377e-10,"buildings":236,"edits":238,"latest":"2018-11-15T20:52:51.000Z"},"geometry":{"type":"Point","coordinates":[39.2000761299092,-6.80869248275905]}},{"type":"Feature","properties":{"id":5405,"title":"keko magurumbasi_METEOR","status":"PUBLISHED","created":"2018","lastUpdated":"2018","lastActive":"no","area":0.03630974064275755,"changesets":62,"mappers":8,"roads":0.307114787463726,"buildings":204,"edits":378,"latest":"2018-10-29T07:08:01.000Z"},"geometry":{"type":"Point","coordinates":[39.2738899567246,-6.83651914744131]}},{"type":"Feature","properties":{"id":4166,"title":"Tanzania Development Trust: Shinyanga East community mapping project","status":"PUBLISHED","created":"2018","lastUpdated":"2018","lastActive":"no","area":1007.0589397559861,"changesets":4064,"mappers":501,"roads":2581.65210196992,"buildings":34085,"edits":46569,"latest":"2018-11-17T20:18:26.000Z"},"geometry":{"type":"Point","coordinates":[33.6837535541805,-3.51751040221294]}},{"type":"Feature","properties":{"id":4234,"title":"Tanzania Development Trust: Sigunga Kigoma Community Mapping Project","status":"ARCHIVED","created":"2018","lastUpdated":"2018","lastActive":"no","area":818.7157786819456,"changesets":1881,"mappers":148,"roads":845.753785159552,"buildings":5279,"edits":10353,"latest":"2018-04-11T09:53:47.000Z"},"geometry":{"type":"Point","coordinates":[30.0041057178603,-5.67930749441936]}},{"type":"Feature","properties":{"id":5442,"title":"Ukonga","status":"PUBLISHED","created":"2018","lastUpdated":"2018","lastActive":"no","area":9.973212227035186,"changesets":1,"mappers":1,"roads":0.0957173698489048,"buildings":0,"edits":1,"latest":"2018-11-08T18:22:56.000Z"},"geometry":{"type":"Point","coordinates":[39.1716103075864,-6.87643354356797]}},{"type":"Feature","properties":{"id":955,"title":"Missing Maps: Ushirombo, Tanzania","status":"ARCHIVED","created":"2015","lastUpdated":"2017","lastActive":"no","area":734.2330870305057,"changesets":5658,"mappers":205,"roads":2686.98537358062,"buildings":25007,"edits":61755,"latest":"2015-10-29T23:37:03.000Z"},"geometry":{"type":"Point","coordinates":[31.8893884959412,-3.44082642084493]}},{"type":"Feature","properties":{"id":5444,"title":"Kawe","status":"PUBLISHED","created":"2018","lastUpdated":"2018","lastActive":"no","area":14.787548318407664,"changesets":273,"mappers":19,"roads":0.443529945999423,"buildings":2287,"edits":2362,"latest":"2018-11-14T18:15:29.000Z"},"geometry":{"type":"Point","coordinates":[39.225268225533,-6.72642707641227]}},{"type":"Feature","properties":{"id":4256,"title":"Manyara","status":"ARCHIVED","created":"2018","lastUpdated":"2018","lastActive":"no","area":63.093260840318564,"changesets":0,"mappers":0,"roads":0,"buildings":0,"edits":0,"latest":null},"geometry":{"type":"Point","coordinates":[35.3368133697752,-4.30430004427207]}},{"type":"Feature","properties":{"id":2364,"title":"PEPFAR Tanzania: Mbeya CC West","status":"ARCHIVED","created":"2016","lastUpdated":"2017","lastActive":"no","area":313.7964362335892,"changesets":723,"mappers":60,"roads":144.308325077847,"buildings":11368,"edits":14015,"latest":"2017-02-16T17:25:26.000Z"},"geometry":{"type":"Point","coordinates":[33.4157752990723,-8.91982473995592]}},{"type":"Feature","properties":{"id":4100,"title":"Kigoma_14","status":"PUBLISHED","created":"2018","lastUpdated":"2018","lastActive":"no","area":0.8979043606940176,"changesets":179,"mappers":9,"roads":0,"buildings":906,"edits":906,"latest":"2018-02-16T06:08:51.000Z"},"geometry":{"type":"Point","coordinates":[29.6417696354094,-4.62513776686475]}},{"type":"Feature","properties":{"id":2143,"title":"Earthquake in Uganda and Tanzania, 10/09/2016 - Epicenter Buildings Mapping","status":"ARCHIVED","created":"2016","lastUpdated":"2016","lastActive":"no","area":206.58898646813577,"changesets":2152,"mappers":115,"roads":180.842068422114,"buildings":20024,"edits":23343,"latest":"2017-06-19T12:21:25.000Z"},"geometry":{"type":"Point","coordinates":[31.5531060476886,-1.03087731821331]}},{"type":"Feature","properties":{"id":4584,"title":"Tabora, Tabora, Tanzania Mini Grids Project 02","status":"PUBLISHED","created":"2018","lastUpdated":"2018","lastActive":"no","area":2042.6757607922066,"changesets":1784,"mappers":62,"roads":5.15594602627106,"buildings":37695,"edits":38500,"latest":"2018-06-20T13:55:11.000Z"},"geometry":{"type":"Point","coordinates":[33.388749292109,-4.83616487999496]}},{"type":"Feature","properties":{"id":5422,"title":"Tanzania Mbinga Test","status":"ARCHIVED","created":"2018","lastUpdated":"2018","lastActive":"no","area":0.09678392301278596,"changesets":0,"mappers":0,"roads":0,"buildings":0,"edits":0,"latest":null},"geometry":{"type":"Point","coordinates":[35.0530360761986,-10.9293321539577]}},{"type":"Feature","properties":{"id":5387,"title":"Kagera Mikoroshoni_METEOR","status":"PUBLISHED","created":"2018","lastUpdated":"2018","lastActive":"no","area":0.08697368560971801,"changesets":267,"mappers":16,"roads":0.854564025781823,"buildings":1018,"edits":1290,"latest":"2018-10-26T11:50:08.000Z"},"geometry":{"type":"Point","coordinates":[39.2429037515631,-6.79943400787608]}},{"type":"Feature","properties":{"id":5389,"title":"Karakata_METEOR","status":"PUBLISHED","created":"2018","lastUpdated":"2018","lastActive":"no","area":0.06278618638144412,"changesets":169,"mappers":16,"roads":0.00354592966511319,"buildings":653,"edits":657,"latest":"2018-10-29T08:18:50.000Z"},"geometry":{"type":"Point","coordinates":[39.2067495928809,-6.8487382427679]}},{"type":"Feature","properties":{"id":5427,"title":"Tanzania missing buildings Mwanga District","status":"PUBLISHED","created":"2018","lastUpdated":"2018","lastActive":"no","area":531.5288207222752,"changesets":3686,"mappers":372,"roads":273.748041333242,"buildings":32081,"edits":33618,"latest":"2018-11-16T05:03:24.000Z"},"geometry":{"type":"Point","coordinates":[37.6385252591535,-3.69810262753919]}},{"type":"Feature","properties":{"id":5391,"title":"Kivule_METEOR","status":"PUBLISHED","created":"2018","lastUpdated":"2018","lastActive":"no","area":0.5583741907798839,"changesets":105,"mappers":10,"roads":1.83379910834756,"buildings":757,"edits":834,"latest":"2018-10-31T08:17:39.000Z"},"geometry":{"type":"Point","coordinates":[39.169724511382,-6.9352240012431]}},{"type":"Feature","properties":{"id":5395,"title":"Pwani 2_METEOR","status":"PUBLISHED","created":"2018","lastUpdated":"2018","lastActive":"no","area":0.3697493857621717,"changesets":0,"mappers":0,"roads":0,"buildings":0,"edits":0,"latest":null},"geometry":{"type":"Point","coordinates":[39.0994490443233,-6.90247043542125]}},{"type":"Feature","properties":{"id":5397,"title":"TPDC_METEOR","status":"PUBLISHED","created":"2018","lastUpdated":"2018","lastActive":"no","area":0.11797338733636886,"changesets":94,"mappers":18,"roads":0.266615772031029,"buildings":517,"edits":536,"latest":"2018-11-01T12:33:09.000Z"},"geometry":{"type":"Point","coordinates":[39.2441458818339,-6.76148596392833]}},{"type":"Feature","properties":{"id":3160,"title":"Tanzania Development Trust: Msisi ward community mapping project ","status":"PUBLISHED","created":"2017","lastUpdated":"2018","lastActive":"no","area":81.67279767012198,"changesets":756,"mappers":80,"roads":1050.75353218731,"buildings":3765,"edits":9570,"latest":"2018-11-15T14:44:08.000Z"},"geometry":{"type":"Point","coordinates":[34.6639591437227,-4.61768230807472]}},{"type":"Feature","properties":{"id":5011,"title":"Jangwani","status":"PUBLISHED","created":"2018","lastUpdated":"2018","lastActive":"no","area":0.6459967593125133,"changesets":490,"mappers":40,"roads":0.568461679535797,"buildings":3198,"edits":3929,"latest":"2018-09-21T12:34:17.000Z"},"geometry":{"type":"Point","coordinates":[39.2733984600485,-6.81599868171233]}},{"type":"Feature","properties":{"id":2157,"title":"MSD & JSI/USAID Tanzania Road Import - Iringa region","status":"PUBLISHED","created":"2016","lastUpdated":"2016","lastActive":"no","area":30284.59973311939,"changesets":85,"mappers":13,"roads":2909.39047680426,"buildings":712,"edits":3579,"latest":"2016-10-19T21:15:43.000Z"},"geometry":{"type":"Point","coordinates":[35.1789503436915,-8.51724619788918]}},{"type":"Feature","properties":{"id":5021,"title":"Upanga_Mashariki","status":"PUBLISHED","created":"2018","lastUpdated":"2018","lastActive":"no","area":1.4528463303068069,"changesets":556,"mappers":36,"roads":0.210929800621173,"buildings":3591,"edits":3907,"latest":"2018-08-23T07:15:45.000Z"},"geometry":{"type":"Point","coordinates":[39.2817166819394,-6.80692717291293]}},{"type":"Feature","properties":{"id":5027,"title":"Ilala","status":"PUBLISHED","created":"2018","lastUpdated":"2018","lastActive":"no","area":2.1401569895589914,"changesets":990,"mappers":36,"roads":0.685158972388242,"buildings":8391,"edits":9512,"latest":"2018-09-05T11:06:57.000Z"},"geometry":{"type":"Point","coordinates":[39.2595696928926,-6.82787629400169]}},{"type":"Feature","properties":{"id":2138,"title":"MSD & JSI/USAID Tanzania Road Import - Mwanza region","status":"PUBLISHED","created":"2016","lastUpdated":"2017","lastActive":"no","area":18452.858077930265,"changesets":149,"mappers":15,"roads":3770.57157796073,"buildings":105,"edits":5447,"latest":"2016-11-14T12:29:58.000Z"},"geometry":{"type":"Point","coordinates":[32.8094293934558,-2.76285550770699]}},{"type":"Feature","properties":{"id":5029,"title":"Kigogo","status":"PUBLISHED","created":"2018","lastUpdated":"2018","lastActive":"no","area":1.919044857626449,"changesets":1335,"mappers":37,"roads":2.99758976000865,"buildings":13712,"edits":15491,"latest":"2018-08-31T08:16:38.000Z"},"geometry":{"type":"Point","coordinates":[39.245687327176,-6.81863004202305]}},{"type":"Feature","properties":{"id":4236,"title":"Tanzania Development Trust: Mitwero, Lindi Community Mapping Project","status":"ARCHIVED","created":"2018","lastUpdated":"2018","lastActive":"no","area":80.77775171781835,"changesets":528,"mappers":67,"roads":468.376805254014,"buildings":2230,"edits":4918,"latest":"2018-06-22T20:06:01.000Z"},"geometry":{"type":"Point","coordinates":[39.7342788001324,-9.91500147746219]}},{"type":"Feature","properties":{"id":4076,"title":"Shinyanga_Tabora_Geita","status":"PUBLISHED","created":"2018","lastUpdated":"2018","lastActive":"no","area":3994.8430365253507,"changesets":50,"mappers":14,"roads":0.000161002645333808,"buildings":2248,"edits":2251,"latest":"2018-08-23T03:54:33.000Z"},"geometry":{"type":"Point","coordinates":[31.8409955510823,-4.30414913053918]}},{"type":"Feature","properties":{"id":3204,"title":"PEPFAR Tanzania: Kyela (Coast)","status":"PUBLISHED","created":"2017","lastUpdated":"2018","lastActive":"no","area":267.9000890686287,"changesets":2170,"mappers":236,"roads":904.598187828586,"buildings":19959,"edits":29760,"latest":"2018-11-15T20:05:32.000Z"},"geometry":{"type":"Point","coordinates":[33.8624923854606,-9.60932245038593]}},{"type":"Feature","properties":{"id":4211,"title":"Tanzania Development Trust: Kayanga Karagwe Community Mapping Project","status":"ARCHIVED","created":"2018","lastUpdated":"2018","lastActive":"no","area":9.817134429272661,"changesets":2030,"mappers":111,"roads":257.875156407586,"buildings":6739,"edits":9339,"latest":"2018-06-25T20:44:51.000Z"},"geometry":{"type":"Point","coordinates":[31.1517912801376,-1.53378723172487]}},{"type":"Feature","properties":{"id":4613,"title":"Tabora, Tabora, Tanzania Mini Grids Project 06","status":"PUBLISHED","created":"2018","lastUpdated":"2018","lastActive":"no","area":1436.2802264029842,"changesets":1238,"mappers":65,"roads":0.181888238898926,"buildings":23073,"edits":23084,"latest":"2018-07-02T12:11:10.000Z"},"geometry":{"type":"Point","coordinates":[33.8103198291512,-5.1010027795118]}},{"type":"Feature","properties":{"id":5356,"title":"Kimanga","status":"PUBLISHED","created":"2018","lastUpdated":"2018","lastActive":"no","area":9.377792323494011,"changesets":1,"mappers":1,"roads":0,"buildings":2,"edits":2,"latest":"2018-10-16T13:25:26.000Z"},"geometry":{"type":"Point","coordinates":[39.1889734397382,-6.82488295475237]}},{"type":"Feature","properties":{"id":4260,"title":"Lindi - Mini Grids","status":"PUBLISHED","created":"2018","lastUpdated":"2018","lastActive":"no","area":235.67207484051517,"changesets":137,"mappers":24,"roads":23.0772557724216,"buildings":2599,"edits":3017,"latest":"2018-09-04T05:43:44.000Z"},"geometry":{"type":"Point","coordinates":[39.1930035755225,-10.7075182203544]}},{"type":"Feature","properties":{"id":5466,"title":"Makongo","status":"PUBLISHED","created":"2018","lastUpdated":"2018","lastActive":"yes","area":18.298105774811496,"changesets":14,"mappers":6,"roads":0.686712931545164,"buildings":67,"edits":89,"latest":"2018-11-17T20:50:57.000Z"},"geometry":{"type":"Point","coordinates":[39.195804874665,-6.75981768277186]}},{"type":"Feature","properties":{"id":2159,"title":"Earthquake in Uganda and Tanzania, 10/09/2016 - NW of Bukoba Buildings Mapping","status":"ARCHIVED","created":"2016","lastUpdated":"2016","lastActive":"no","area":35.25230685743545,"changesets":692,"mappers":35,"roads":17.305928804687,"buildings":7977,"edits":8616,"latest":"2016-09-19T09:02:48.000Z"},"geometry":{"type":"Point","coordinates":[31.764514331462,-1.30982429531606]}},{"type":"Feature","properties":{"id":2149,"title":"Earthquake in Uganda and Tanzania, 10/09/2016 - Bukoba Buildings Mapping","status":"ARCHIVED","created":"2016","lastUpdated":"2016","lastActive":"no","area":31.690178701237453,"changesets":993,"mappers":43,"roads":31.6646699010167,"buildings":26227,"edits":27057,"latest":"2017-01-06T13:44:11.000Z"},"geometry":{"type":"Point","coordinates":[31.8096442169796,-1.32589362270035]}},{"type":"Feature","properties":{"id":5131,"title":"Mwanga","status":"PUBLISHED","created":"2018","lastUpdated":"2018","lastActive":"no","area":3782.6420454970325,"changesets":569,"mappers":80,"roads":7.81830506173643,"buildings":21219,"edits":21349,"latest":"2018-09-05T19:32:28.000Z"},"geometry":{"type":"Point","coordinates":[37.5770749373082,-3.7639028140101]}},{"type":"Feature","properties":{"id":5151,"title":"Sandali","status":"PUBLISHED","created":"2018","lastUpdated":"2018","lastActive":"no","area":2.754693570123113,"changesets":1143,"mappers":35,"roads":0.699111235055834,"buildings":7843,"edits":8260,"latest":"2018-09-18T13:58:19.000Z"},"geometry":{"type":"Point","coordinates":[39.2468576140869,-6.85541663438858]}},{"type":"Feature","properties":{"id":5155,"title":"Temeke","status":"PUBLISHED","created":"2018","lastUpdated":"2018","lastActive":"no","area":2.940691262220834,"changesets":949,"mappers":23,"roads":0.984664545466694,"buildings":7916,"edits":9508,"latest":"2018-10-08T14:01:02.000Z"},"geometry":{"type":"Point","coordinates":[39.2555695686437,-6.85004422213022]}},{"type":"Feature","properties":{"id":5148,"title":"Magomeni","status":"PUBLISHED","created":"2018","lastUpdated":"2018","lastActive":"no","area":1.0950286991089058,"changesets":537,"mappers":24,"roads":1.68967398993952,"buildings":4473,"edits":5416,"latest":"2018-11-02T07:59:40.000Z"},"geometry":{"type":"Point","coordinates":[39.2615816536214,-6.80400422217293]}},{"type":"Feature","properties":{"id":4423,"title":"Tunduru, Ruvuma, Tanzania Mini Grids Project 01","status":"PUBLISHED","created":"2018","lastUpdated":"2018","lastActive":"no","area":1513.3163670277308,"changesets":748,"mappers":73,"roads":0.672637130613432,"buildings":15105,"edits":15129,"latest":"2018-06-29T11:40:17.000Z"},"geometry":{"type":"Point","coordinates":[37.2136110366055,-11.5541265436822]}},{"type":"Feature","properties":{"id":4806,"title":"Tanzania Development Trust: Salesforce Manyara FGM 1","status":"ARCHIVED","created":"2018","lastUpdated":"2018","lastActive":"no","area":4622.432534591587,"changesets":0,"mappers":0,"roads":0,"buildings":0,"edits":0,"latest":null},"geometry":{"type":"Point","coordinates":[36.6099230731213,-5.44490485431505]}},{"type":"Feature","properties":{"id":5159,"title":"Mbeya","status":"PUBLISHED","created":"2018","lastUpdated":"2018","lastActive":"no","area":8.421146412497725,"changesets":887,"mappers":139,"roads":3.09824799104305,"buildings":6638,"edits":6994,"latest":"2018-09-07T08:19:25.000Z"},"geometry":{"type":"Point","coordinates":[33.4236752858494,-8.89458266134112]}},{"type":"Feature","properties":{"id":5371,"title":"DAR Wards_METEOR","status":"PUBLISHED","created":"2018","lastUpdated":"2018","lastActive":"no","area":1.4384185421356332,"changesets":132,"mappers":16,"roads":6.29776572367043,"buildings":1424,"edits":1694,"latest":"2018-10-31T14:01:56.000Z"},"geometry":{"type":"Point","coordinates":[39.2733530998677,-6.83014324994139]}},{"type":"Feature","properties":{"id":3159,"title":"Tanzania Development Trust: Singida district community mapping project ","status":"PUBLISHED","created":"2017","lastUpdated":"2018","lastActive":"no","area":746.5381861519145,"changesets":8150,"mappers":372,"roads":10510.3568767361,"buildings":97686,"edits":203262,"latest":"2018-08-01T11:02:23.000Z"},"geometry":{"type":"Point","coordinates":[34.973843496759,-4.67540763811596]}},{"type":"Feature","properties":{"id":4377,"title":"Urambo, Tabora, Tanzania Mini Grids Project 09-10","status":"PUBLISHED","created":"2018","lastUpdated":"2018","lastActive":"no","area":1677.5206088742302,"changesets":1703,"mappers":67,"roads":0.363745706229784,"buildings":26610,"edits":26624,"latest":"2018-05-21T13:49:44.000Z"},"geometry":{"type":"Point","coordinates":[32.1987393372539,-4.49824794936506]}},{"type":"Feature","properties":{"id":5166,"title":"Mbeya_mbalizi","status":"PUBLISHED","created":"2018","lastUpdated":"2018","lastActive":"no","area":4.490606172472349,"changesets":997,"mappers":124,"roads":7.51774112907024,"buildings":10937,"edits":11617,"latest":"2018-09-07T08:30:01.000Z"},"geometry":{"type":"Point","coordinates":[33.3401519377328,-8.93506614586956]}},{"type":"Feature","properties":{"id":5191,"title":"Arusha Urban","status":"PUBLISHED","created":"2018","lastUpdated":"2018","lastActive":"no","area":21.060253845499485,"changesets":416,"mappers":40,"roads":6.50091898417892,"buildings":9367,"edits":9585,"latest":"2018-11-15T12:15:14.000Z"},"geometry":{"type":"Point","coordinates":[36.6801067826224,-3.35473835249449]}},{"type":"Feature","properties":{"id":5204,"title":"Makumbusho","status":"PUBLISHED","created":"2018","lastUpdated":"2018","lastActive":"no","area":1.7495807696096894,"changesets":1019,"mappers":20,"roads":5.8505806882872,"buildings":7506,"edits":9235,"latest":"2018-11-07T13:50:16.000Z"},"geometry":{"type":"Point","coordinates":[39.2508110711774,-6.78966677791311]}},{"type":"Feature","properties":{"id":4925,"title":"Kibamba, Dar es Salaam - Ramani Huria 2.0","status":"PUBLISHED","created":"2018","lastUpdated":"2018","lastActive":"no","area":19.884124388620787,"changesets":347,"mappers":59,"roads":25.6782323040697,"buildings":2830,"edits":4202,"latest":"2018-09-05T08:16:04.000Z"},"geometry":{"type":"Point","coordinates":[39.0391190561899,-6.7724521522622]}},{"type":"Feature","properties":{"id":2050,"title":"MSD & JSI/USAID Tanzania Road Import - Morogoro region","status":"PUBLISHED","created":"2016","lastUpdated":"2016","lastActive":"no","area":28136.915277094853,"changesets":232,"mappers":9,"roads":5403.72286464984,"buildings":8,"edits":6562,"latest":"2016-08-17T09:47:25.000Z"},"geometry":{"type":"Point","coordinates":[37.1326578119178,-7.21230071196328]}},{"type":"Feature","properties":{"id":5194,"title":"Hananasifu","status":"PUBLISHED","created":"2018","lastUpdated":"2018","lastActive":"no","area":1.8382439011755702,"changesets":775,"mappers":19,"roads":3.34109193738527,"buildings":6357,"edits":7943,"latest":"2018-10-03T07:37:03.000Z"},"geometry":{"type":"Point","coordinates":[39.2696283358805,-6.79609178054355]}},{"type":"Feature","properties":{"id":4955,"title":"Msigani, Dar es Salaam - Ramani Huria 2.0","status":"PUBLISHED","created":"2018","lastUpdated":"2018","lastActive":"no","area":14.732300581422955,"changesets":75,"mappers":19,"roads":0.408947956373816,"buildings":768,"edits":791,"latest":"2018-08-31T08:18:28.000Z"},"geometry":{"type":"Point","coordinates":[39.1166689708451,-6.80285279520175]}},{"type":"Feature","properties":{"id":4957,"title":"Gongo la Mboto, Dar es Salaam - Ramani Huria 2.0","status":"PUBLISHED","created":"2018","lastUpdated":"2018","lastActive":"no","area":12.42114909208458,"changesets":24,"mappers":9,"roads":2.09455045359767,"buildings":129,"edits":164,"latest":"2018-08-09T13:01:49.000Z"},"geometry":{"type":"Point","coordinates":[39.1497392908264,-6.87859919492805]}},{"type":"Feature","properties":{"id":4358,"title":"Tanzania Development Trust: Mwanza West Community Mapping Project","status":"PUBLISHED","created":"2018","lastUpdated":"2018","lastActive":"no","area":1290.9455273129195,"changesets":20189,"mappers":1234,"roads":9842.35171623151,"buildings":173086,"edits":239704,"latest":"2018-11-16T23:07:17.000Z"},"geometry":{"type":"Point","coordinates":[32.539528576888,-2.61529690008607]}},{"type":"Feature","properties":{"id":5376,"title":"Tanzania Isolated Tertiary Highway Tags","status":"PUBLISHED","created":"2018","lastUpdated":"2018","lastActive":"yes","area":2974.7878575458826,"changesets":159,"mappers":7,"roads":1385.73182134771,"buildings":1531,"edits":8380,"latest":"2018-11-17T16:14:32.000Z"},"geometry":{"type":"Point","coordinates":[34.6409452084005,-5.50791412422014]}},{"type":"Feature","properties":{"id":2261,"title":"Tanzania Development Trust: Serengeti district mapping project part 2","status":"PUBLISHED","created":"2016","lastUpdated":"2018","lastActive":"no","area":11207.631576365555,"changesets":34023,"mappers":1630,"roads":29645.1220241716,"buildings":604840,"edits":921128,"latest":"2018-10-31T21:58:06.000Z"},"geometry":{"type":"Point","coordinates":[33.6631417496372,-1.71314326443619]}},{"type":"Feature","properties":{"id":2177,"title":"Earthquake in Uganda and Tanzania, 10/09/2016 - SE of Epicenter Buildings Mapping","status":"ARCHIVED","created":"2016","lastUpdated":"2016","lastActive":"no","area":40.23315767364361,"changesets":615,"mappers":44,"roads":80.1324630799427,"buildings":4510,"edits":6507,"latest":"2016-09-29T09:44:41.000Z"},"geometry":{"type":"Point","coordinates":[31.6705138437158,-1.26898587395043]}},{"type":"Feature","properties":{"id":1904,"title":"Peace Corps Tanzania -- Mnavira","status":"ARCHIVED","created":"2016","lastUpdated":"2016","lastActive":"no","area":2.392296820488899,"changesets":67,"mappers":12,"roads":34.4734407565492,"buildings":1089,"edits":1629,"latest":"2016-07-19T15:50:21.000Z"},"geometry":{"type":"Point","coordinates":[39.2554909570247,-11.0739917532281]}},{"type":"Feature","properties":{"id":4824,"title":"Zanzibar-Digitization","status":"PUBLISHED","created":"2018","lastUpdated":"2018","lastActive":"no","area":448.3142744445994,"changesets":603,"mappers":31,"roads":4.54690549735974,"buildings":12573,"edits":12893,"latest":"2018-08-17T09:34:31.000Z"},"geometry":{"type":"Point","coordinates":[39.2874808727826,-5.91212678450974]}},{"type":"Feature","properties":{"id":3371,"title":"Missing Maps: Dar es Salaam - Ramani Huria 2.0 - 16","status":"ARCHIVED","created":"2017","lastUpdated":"2017","lastActive":"no","area":92.06647987703117,"changesets":643,"mappers":55,"roads":534.03438564358,"buildings":332,"edits":9986,"latest":"2017-08-17T13:11:30.000Z"},"geometry":{"type":"Point","coordinates":[39.107002934666,-6.82229799377065]}},{"type":"Feature","properties":{"id":3367,"title":"Missing Maps: Dar es Salaam - Ramani Huria 2.0 - 12","status":"ARCHIVED","created":"2017","lastUpdated":"2017","lastActive":"no","area":46.989431752117035,"changesets":1171,"mappers":70,"roads":4.56309136875794,"buildings":12968,"edits":14464,"latest":"2017-08-14T07:51:05.000Z"},"geometry":{"type":"Point","coordinates":[39.1233638270739,-6.72154964029819]}},{"type":"Feature","properties":{"id":5284,"title":"Tanzania Development Trust:  Manyara FGM 7","status":"PUBLISHED","created":"2018","lastUpdated":"2018","lastActive":"no","area":4559.343921547239,"changesets":1664,"mappers":263,"roads":962.289756772172,"buildings":8565,"edits":10819,"latest":"2018-11-07T12:52:35.000Z"},"geometry":{"type":"Point","coordinates":[37.147103144532,-4.15751878737149]}},{"type":"Feature","properties":{"id":5135,"title":"Tanzania Development Trust:  Manyara FGM 5","status":"PUBLISHED","created":"2018","lastUpdated":"2018","lastActive":"no","area":991.6562638564619,"changesets":2940,"mappers":150,"roads":1815.95503012453,"buildings":42456,"edits":47415,"latest":"2018-10-18T10:53:25.000Z"},"geometry":{"type":"Point","coordinates":[36.7289186751711,-6.10532709565547]}},{"type":"Feature","properties":{"id":1040,"title":"Ngorongoro Conservation Area","status":"PUBLISHED","created":"2015","lastUpdated":"2017","lastActive":"no","area":8640.922363295951,"changesets":4,"mappers":4,"roads":0.858932545129337,"buildings":9,"edits":22,"latest":"2018-11-05T21:26:14.000Z"},"geometry":{"type":"Point","coordinates":[35.3664176041182,-3.069196107836]}},{"type":"Feature","properties":{"id":1194,"title":"MSD & JSI/USAID Tanzania Road Import - Mtwara & Lindi Regions + Tunduru District","status":"PUBLISHED","created":"2015","lastUpdated":"2016","lastActive":"no","area":59075.33727007736,"changesets":95,"mappers":14,"roads":8427.25928271959,"buildings":232,"edits":9140,"latest":"2015-09-27T16:09:33.000Z"},"geometry":{"type":"Point","coordinates":[38.6918770231749,-10.1588297147212]}},{"type":"Feature","properties":{"id":1256,"title":"MSD & JSI/USAID Tanzania Road Import - West Ruvuma region","status":"PUBLISHED","created":"2015","lastUpdated":"2016","lastActive":"no","area":10512.14514732082,"changesets":39,"mappers":4,"roads":5476.97375385643,"buildings":7,"edits":9471,"latest":"2016-04-04T16:27:27.000Z"},"geometry":{"type":"Point","coordinates":[35.4090779040358,-10.7330492383707]}},{"type":"Feature","properties":{"id":1066,"title":"Missing Maps: Kigoma region towns, Burundi / Tanzania","status":"ARCHIVED","created":"2015","lastUpdated":"2015","lastActive":"no","area":213.63718639264667,"changesets":2,"mappers":1,"roads":1.68154796651448,"buildings":231,"edits":245,"latest":"2015-09-27T23:38:29.000Z"},"geometry":{"type":"Point","coordinates":[29.6664188192449,-4.72722002716652]}},{"type":"Feature","properties":{"id":3826,"title":"Tanzania Development Trust: Ihanda Community Mapping Project","status":"ARCHIVED","created":"2017","lastUpdated":"2018","lastActive":"no","area":84.22986494226826,"changesets":308,"mappers":18,"roads":373.737137847268,"buildings":3803,"edits":6185,"latest":"2018-06-21T20:32:04.000Z"},"geometry":{"type":"Point","coordinates":[31.088492540636,-1.549140845654]}},{"type":"Feature","properties":{"id":5325,"title":"Mwananyamala","status":"PUBLISHED","created":"2018","lastUpdated":"2018","lastActive":"no","area":2.49542175237576,"changesets":336,"mappers":20,"roads":0.154280978731387,"buildings":1714,"edits":2074,"latest":"2018-10-09T13:18:30.000Z"},"geometry":{"type":"Point","coordinates":[39.2586298839167,-6.78686342634381]}},{"type":"Feature","properties":{"id":5320,"title":"Mburahati","status":"PUBLISHED","created":"2018","lastUpdated":"2018","lastActive":"no","area":1.1212118323428015,"changesets":15,"mappers":2,"roads":0.0911120604846218,"buildings":12,"edits":16,"latest":"2018-10-10T03:09:39.000Z"},"geometry":{"type":"Point","coordinates":[39.242086920805,-6.81266527325492]}},{"type":"Feature","properties":{"id":5322,"title":"Gerezani","status":"PUBLISHED","created":"2018","lastUpdated":"2018","lastActive":"no","area":0.6617969975738225,"changesets":244,"mappers":19,"roads":0.0429388379459798,"buildings":959,"edits":1687,"latest":"2018-10-05T09:50:57.000Z"},"geometry":{"type":"Point","coordinates":[39.2751643416466,-6.82552891846113]}},{"type":"Feature","properties":{"id":5317,"title":"Kijitonyama","status":"PUBLISHED","created":"2018","lastUpdated":"2018","lastActive":"no","area":3.944334462943499,"changesets":984,"mappers":24,"roads":1.36938792486868,"buildings":12348,"edits":13618,"latest":"2018-11-02T12:54:37.000Z"},"geometry":{"type":"Point","coordinates":[39.2362348265782,-6.77781749264387]}},{"type":"Feature","properties":{"id":5201,"title":"Mbagala Kuu","status":"PUBLISHED","created":"2018","lastUpdated":"2018","lastActive":"no","area":6.586352566704119,"changesets":696,"mappers":18,"roads":2.03386537084955,"buildings":7935,"edits":8531,"latest":"2018-10-18T10:59:16.000Z"},"geometry":{"type":"Point","coordinates":[39.2823935446052,-6.90745859327607]}},{"type":"Feature","properties":{"id":3968,"title":"Tanzania Development Trust: Mbozi district community mapping project","status":"PUBLISHED","created":"2017","lastUpdated":"2018","lastActive":"yes","area":270.15833206747897,"changesets":2274,"mappers":248,"roads":2524.73042835568,"buildings":13869,"edits":37413,"latest":"2018-11-17T11:38:08.000Z"},"geometry":{"type":"Point","coordinates":[32.7810690177479,-9.02055139563406]}},{"type":"Feature","properties":{"id":5218,"title":"Vingunguti","status":"PUBLISHED","created":"2018","lastUpdated":"2018","lastActive":"no","area":4.5147969243730985,"changesets":1476,"mappers":25,"roads":5.76973550436218,"buildings":14462,"edits":17891,"latest":"2018-11-09T13:30:13.000Z"},"geometry":{"type":"Point","coordinates":[39.2283271509236,-6.845412414447]}},{"type":"Feature","properties":{"id":4323,"title":"Tanzania Development Trust: Simiyu South","status":"PUBLISHED","created":"2018","lastUpdated":"2018","lastActive":"yes","area":3977.4740524717954,"changesets":7486,"mappers":555,"roads":5310.18525120465,"buildings":88492,"edits":105857,"latest":"2018-11-17T19:34:24.000Z"},"geometry":{"type":"Point","coordinates":[34.3684346241635,-3.14466084541383]}},{"type":"Feature","properties":{"id":3352,"title":"Missing Maps: Dar es Salaam - Ramani Huria 2.0 - 07","status":"ARCHIVED","created":"2017","lastUpdated":"2017","lastActive":"no","area":43.602163515930684,"changesets":1015,"mappers":62,"roads":384.282174733633,"buildings":221,"edits":8861,"latest":"2017-08-04T07:19:27.000Z"},"geometry":{"type":"Point","coordinates":[39.1225445864321,-6.72392047199685]}},{"type":"Feature","properties":{"id":1119,"title":"Missing Maps: Dar es Salaam (phase 2 & 3)","status":"ARCHIVED","created":"2015","lastUpdated":"2017","lastActive":"no","area":18.40993909198471,"changesets":922,"mappers":50,"roads":8.97784506878528,"buildings":3303,"edits":3812,"latest":"2015-11-18T19:10:47.000Z"},"geometry":{"type":"Point","coordinates":[39.245717821605,-6.81747513993096]}},{"type":"Feature","properties":{"id":1233,"title":"MSD & JSI/USAID Tanzania Road Import - Kigoma and Tabora regions","status":"PUBLISHED","created":"2015","lastUpdated":"2017","lastActive":"no","area":55716.44775664574,"changesets":89,"mappers":5,"roads":7164.0075520837,"buildings":137,"edits":14011,"latest":"2015-10-15T16:49:58.000Z"},"geometry":{"type":"Point","coordinates":[31.938951757194,-4.84880832874386]}},{"type":"Feature","properties":{"id":1389,"title":" Missing Maps: Dar es Salaam - Ramani Huria2","status":"ARCHIVED","created":"2015","lastUpdated":"2016","lastActive":"no","area":17.055250175253022,"changesets":1779,"mappers":105,"roads":2952.23609891391,"buildings":25963,"edits":29457,"latest":"2016-08-23T11:52:57.000Z"},"geometry":{"type":"Point","coordinates":[39.193973920295,-6.81759743655606]}},{"type":"Feature","properties":{"id":1462,"title":"MSD & JSI/USAID Tanzania Road Import - Rukwa and Katavi regions","status":"PUBLISHED","created":"2016","lastUpdated":"2016","lastActive":"no","area":23601.174016426638,"changesets":46,"mappers":13,"roads":2965.50978720348,"buildings":26,"edits":3295,"latest":"2016-11-09T18:57:31.000Z"},"geometry":{"type":"Point","coordinates":[31.386548500474,-7.66185013891424]}},{"type":"Feature","properties":{"id":1544,"title":"Missing Maps: Dar es Salaam - Ramani Huria5","status":"ARCHIVED","created":"2016","lastUpdated":"2016","lastActive":"no","area":5.586401873878637,"changesets":1381,"mappers":124,"roads":368.316305127799,"buildings":20873,"edits":24593,"latest":"2016-09-07T11:12:52.000Z"},"geometry":{"type":"Point","coordinates":[39.2262531835573,-6.87782624257323]}},{"type":"Feature","properties":{"id":1788,"title":"Tanzania Development Trust: Serengeti district mapping project","status":"ARCHIVED","created":"2016","lastUpdated":"2018","lastActive":"no","area":13584.124479203561,"changesets":22885,"mappers":911,"roads":32070.8722414286,"buildings":416061,"edits":635374,"latest":"2018-10-07T14:50:39.000Z"},"geometry":{"type":"Point","coordinates":[34.6535890667968,-1.94252940124096]}},{"type":"Feature","properties":{"id":1903,"title":"Peace Corps Tanzania -- Lushoto","status":"PUBLISHED","created":"2016","lastUpdated":"2017","lastActive":"no","area":69.21165370312055,"changesets":640,"mappers":88,"roads":126.39665147357,"buildings":9101,"edits":10836,"latest":"2017-07-28T23:41:56.000Z"},"geometry":{"type":"Point","coordinates":[38.3007954725319,-4.81163810650237]}},{"type":"Feature","properties":{"id":1971,"title":"MSD & JSI/USAID Tanzania Road Import - Arusha region","status":"PUBLISHED","created":"2016","lastUpdated":"2017","lastActive":"no","area":31245.987566415035,"changesets":35,"mappers":2,"roads":4684.0273299004,"buildings":2,"edits":2696,"latest":"2016-06-26T10:45:01.000Z"},"geometry":{"type":"Point","coordinates":[36.012472285039,-2.97438359363947]}},{"type":"Feature","properties":{"id":3388,"title":"Missing Maps: Dar es Salaam - Ramani Huria 2.0 - 21","status":"PUBLISHED","created":"2017","lastUpdated":"2017","lastActive":"no","area":69.65587897048133,"changesets":1939,"mappers":75,"roads":6.84000186734417,"buildings":36784,"edits":37868,"latest":"2017-08-11T12:28:34.000Z"},"geometry":{"type":"Point","coordinates":[39.1283057323213,-6.89210398958084]}},{"type":"Feature","properties":{"id":3251,"title":"Tanzania Development Trust: Masasi district, Mtwara Region","status":"PUBLISHED","created":"2017","lastUpdated":"2018","lastActive":"no","area":1622.139093292662,"changesets":2462,"mappers":183,"roads":4785.67042099275,"buildings":85484,"edits":125427,"latest":"2018-10-21T13:23:11.000Z"},"geometry":{"type":"Point","coordinates":[38.7777142279862,-10.7640181242256]}},{"type":"Feature","properties":{"id":3078,"title":"Tanzania Development Trust: Ishunju, Ishozi and Gera districts community mapping project ","status":"ARCHIVED","created":"2017","lastUpdated":"2018","lastActive":"no","area":117.52166194056245,"changesets":514,"mappers":48,"roads":167.554220708217,"buildings":5211,"edits":9222,"latest":"2018-07-03T14:55:27.000Z"},"geometry":{"type":"Point","coordinates":[31.7577065704359,-1.19192302980064]}},{"type":"Feature","properties":{"id":2609,"title":"Tanzania Development Trust: Maswa district mapping project part 2","status":"ARCHIVED","created":"2017","lastUpdated":"2017","lastActive":"no","area":562.8015857815028,"changesets":3334,"mappers":121,"roads":2584.15851997412,"buildings":32479,"edits":61974,"latest":"2017-07-23T02:02:02.000Z"},"geometry":{"type":"Point","coordinates":[33.8216815175903,-3.13671054186429]}},{"type":"Feature","properties":{"id":2578,"title":"Tanzania Development Trust: Maswa district mapping project part 1","status":"PUBLISHED","created":"2017","lastUpdated":"2017","lastActive":"no","area":159.57894576974346,"changesets":798,"mappers":47,"roads":907.46038769883,"buildings":10840,"edits":16860,"latest":"2018-06-24T09:29:40.000Z"},"geometry":{"type":"Point","coordinates":[33.8183321244147,-3.27981056061139]}},{"type":"Feature","properties":{"id":2343,"title":"Tanzania Development Trust - Shinyanga District","status":"ARCHIVED","created":"2016","lastUpdated":"2017","lastActive":"no","area":3427.959635629754,"changesets":242,"mappers":17,"roads":361.927248485148,"buildings":10209,"edits":12652,"latest":"2017-03-03T22:08:46.000Z"},"geometry":{"type":"Point","coordinates":[33.4638429794363,-3.57935372837378]}}],"Zambia":[{"type":"Feature","properties":{"id":2565,"title":"MISTAKE IN PROJECT SIZE/ARCHIVE/DONOTUSE Missing Maps: Zambia Malaria Elimination 14","status":"ARCHIVED","created":"2017","lastUpdated":"2017","lastActive":"no","area":248.49122523499858,"changesets":5,"mappers":1,"roads":0,"buildings":201,"edits":201,"latest":"2017-02-20T23:41:04.000Z"},"geometry":{"type":"Point","coordinates":[27.9359633607359,-16.2255998428879]}},{"type":"Feature","properties":{"id":2757,"title":"Missing Maps: Zambia Malaria Elimination 72","status":"ARCHIVED","created":"2017","lastUpdated":"2017","lastActive":"no","area":30.78403487211502,"changesets":389,"mappers":28,"roads":0,"buildings":2146,"edits":2146,"latest":"2017-04-04T14:16:36.000Z"},"geometry":{"type":"Point","coordinates":[26.5256121601278,-17.2547069167342]}},{"type":"Feature","properties":{"id":2761,"title":"Missing Maps: Zambia Malaria Elimination 74","status":"ARCHIVED","created":"2017","lastUpdated":"2017","lastActive":"no","area":47.19235660906852,"changesets":579,"mappers":40,"roads":20.5626297877843,"buildings":3277,"edits":3389,"latest":"2017-04-12T13:01:45.000Z"},"geometry":{"type":"Point","coordinates":[26.6191107116027,-17.4284490157584]}},{"type":"Feature","properties":{"id":2584,"title":"Missing Maps: Zambia Malaria Elimination 23","status":"ARCHIVED","created":"2017","lastUpdated":"2017","lastActive":"no","area":23.463381411934975,"changesets":1223,"mappers":42,"roads":0.080970151819275,"buildings":8832,"edits":8922,"latest":"2017-04-11T23:16:31.000Z"},"geometry":{"type":"Point","coordinates":[27.6601962414265,-16.3432360476813]}},{"type":"Feature","properties":{"id":1223,"title":"Peace Corps Zambia -- Mukonchi","status":"PUBLISHED","created":"2015","lastUpdated":"2016","lastActive":"no","area":4.289717557054117,"changesets":240,"mappers":4,"roads":72.5224569621769,"buildings":1197,"edits":1885,"latest":"2016-01-18T18:14:54.000Z"},"geometry":{"type":"Point","coordinates":[28.8208715196713,-14.2669367060573]}},{"type":"Feature","properties":{"id":2640,"title":"Missing Maps: Zambia Malaria Elimination 50","status":"ARCHIVED","created":"2017","lastUpdated":"2017","lastActive":"no","area":45.88254213552296,"changesets":1024,"mappers":45,"roads":8.66046196915923,"buildings":2599,"edits":2747,"latest":"2017-03-20T06:37:37.000Z"},"geometry":{"type":"Point","coordinates":[27.3770530470706,-16.6969472336215]}},{"type":"Feature","properties":{"id":4959,"title":"Priority Areas, Muchinga Province, Zambia Mini Grids Project 10","status":"PUBLISHED","created":"2018","lastUpdated":"2018","lastActive":"no","area":17.589736562807172,"changesets":1,"mappers":1,"roads":0,"buildings":0,"edits":0,"latest":"2018-08-06T11:16:25.000Z"},"geometry":{"type":"Point","coordinates":[30.6198102841667,-12.4054873343945]}},{"type":"Feature","properties":{"id":4980,"title":"Priority Areas, Muchinga, Zambia Mini Grids Project 12","status":"PUBLISHED","created":"2018","lastUpdated":"2018","lastActive":"no","area":997.7532177414813,"changesets":903,"mappers":35,"roads":0.0817213038505782,"buildings":35060,"edits":35105,"latest":"2018-08-16T08:30:19.000Z"},"geometry":{"type":"Point","coordinates":[32.3373403353059,-12.3399446395909]}},{"type":"Feature","properties":{"id":4973,"title":"Priority Areas, Northern Province, Zambia Mini Grids Project 10","status":"PUBLISHED","created":"2018","lastUpdated":"2018","lastActive":"no","area":1633.8093711185227,"changesets":1681,"mappers":30,"roads":6.41696979581537,"buildings":18945,"edits":19694,"latest":"2018-08-14T11:28:58.000Z"},"geometry":{"type":"Point","coordinates":[33.0320112059923,-9.68945187433094]}},{"type":"Feature","properties":{"id":4961,"title":"Priority Areas, North-Western Province, Zambia Mini Grids Project 08","status":"PUBLISHED","created":"2018","lastUpdated":"2018","lastActive":"no","area":62.42190994922546,"changesets":213,"mappers":31,"roads":0.0456716403757625,"buildings":4762,"edits":4784,"latest":"2018-08-14T07:27:41.000Z"},"geometry":{"type":"Point","coordinates":[23.7742274914027,-13.2667271386372]}},{"type":"Feature","properties":{"id":2540,"title":"Missing Maps: Zambia Malaria Elimination 4","status":"ARCHIVED","created":"2017","lastUpdated":"2017","lastActive":"no","area":22.907473399342862,"changesets":540,"mappers":48,"roads":18.2163761096354,"buildings":4774,"edits":4996,"latest":"2017-03-17T23:36:14.000Z"},"geometry":{"type":"Point","coordinates":[26.9741712856948,-15.6427599577224]}},{"type":"Feature","properties":{"id":2567,"title":"Missing Maps: Zambia Malaria Elimination 15","status":"ARCHIVED","created":"2017","lastUpdated":"2017","lastActive":"no","area":35.688557069757834,"changesets":1113,"mappers":61,"roads":4.50367607505807,"buildings":8009,"edits":8063,"latest":"2017-03-24T16:48:39.000Z"},"geometry":{"type":"Point","coordinates":[28.0348670421815,-16.2052939633314]}},{"type":"Feature","properties":{"id":2606,"title":"Missing Maps: Zambia Malaria Elimination 37","status":"ARCHIVED","created":"2017","lastUpdated":"2017","lastActive":"no","area":30.975047863285592,"changesets":922,"mappers":62,"roads":102.254978189865,"buildings":7438,"edits":8154,"latest":"2017-04-12T14:36:51.000Z"},"geometry":{"type":"Point","coordinates":[27.0010022975683,-16.5926195924436]}},{"type":"Feature","properties":{"id":2622,"title":"Missing Maps: Zambia Malaria Elimination 43","status":"ARCHIVED","created":"2017","lastUpdated":"2017","lastActive":"no","area":52.94171063556428,"changesets":1003,"mappers":100,"roads":121.692857457407,"buildings":6453,"edits":7526,"latest":"2017-04-20T09:57:23.000Z"},"geometry":{"type":"Point","coordinates":[27.4793076354582,-16.5586713314048]}},{"type":"Feature","properties":{"id":2593,"title":"Missing Maps: Zambia Malaria Elimination 31","status":"ARCHIVED","created":"2017","lastUpdated":"2017","lastActive":"no","area":50.83118300093933,"changesets":1306,"mappers":55,"roads":19.5905650528771,"buildings":26904,"edits":31435,"latest":"2017-04-03T02:04:07.000Z"},"geometry":{"type":"Point","coordinates":[27.4800186849158,-16.2925738916435]}},{"type":"Feature","properties":{"id":2569,"title":"Missing Maps: Zambia Malaria Elimination 17","status":"ARCHIVED","created":"2017","lastUpdated":"2017","lastActive":"no","area":54.8149033238161,"changesets":1760,"mappers":78,"roads":49.3003192544686,"buildings":13157,"edits":13567,"latest":"2017-03-24T17:08:17.000Z"},"geometry":{"type":"Point","coordinates":[27.9146509689315,-16.2317136626271]}},{"type":"Feature","properties":{"id":2546,"title":"Missing Maps: Zambia Malaria Elimination 6","status":"ARCHIVED","created":"2017","lastUpdated":"2017","lastActive":"no","area":33.848371279562905,"changesets":1125,"mappers":60,"roads":59.5274783501727,"buildings":5533,"edits":5905,"latest":"2017-03-20T13:03:45.000Z"},"geometry":{"type":"Point","coordinates":[26.2861727088638,-15.8927405111516]}},{"type":"Feature","properties":{"id":2595,"title":"Missing Maps: Zambia Malaria Elimination 33","status":"ARCHIVED","created":"2017","lastUpdated":"2017","lastActive":"no","area":57.2682467492817,"changesets":1480,"mappers":58,"roads":13.6501543296384,"buildings":6800,"edits":6992,"latest":"2017-04-10T07:00:04.000Z"},"geometry":{"type":"Point","coordinates":[27.1672873119992,-16.3183967538568]}},{"type":"Feature","properties":{"id":2632,"title":"Missing Maps: Zambia Malaria Elimination 47","status":"ARCHIVED","created":"2017","lastUpdated":"2017","lastActive":"no","area":39.791315431881884,"changesets":608,"mappers":36,"roads":11.5886398532412,"buildings":2428,"edits":2531,"latest":"2017-03-18T18:18:41.000Z"},"geometry":{"type":"Point","coordinates":[27.3180403968393,-16.624657481662]}},{"type":"Feature","properties":{"id":2519,"title":"Missing Maps: Zambia Malaria Elimination 2","status":"ARCHIVED","created":"2017","lastUpdated":"2017","lastActive":"no","area":41.63797409694132,"changesets":2695,"mappers":78,"roads":827.788975646997,"buildings":9568,"edits":22400,"latest":"2017-05-06T14:07:18.000Z"},"geometry":{"type":"Point","coordinates":[26.4141100958582,-15.6153664821107]}},{"type":"Feature","properties":{"id":2580,"title":"Missing Maps: Zambia Malaria Elimination 19","status":"ARCHIVED","created":"2017","lastUpdated":"2017","lastActive":"no","area":32.151266169300655,"changesets":2947,"mappers":45,"roads":568.344862594093,"buildings":25957,"edits":26997,"latest":"2017-04-29T20:04:28.000Z"},"geometry":{"type":"Point","coordinates":[27.8510327277559,-16.3723544510643]}},{"type":"Feature","properties":{"id":4815,"title":"Priority Areas, Southern Province, Zambia Mini Grids Project 01","status":"PUBLISHED","created":"2018","lastUpdated":"2018","lastActive":"no","area":2421.4759557891675,"changesets":3756,"mappers":40,"roads":0.0343579811795723,"buildings":66955,"edits":66966,"latest":"2018-07-16T14:03:50.000Z"},"geometry":{"type":"Point","coordinates":[26.5621274778074,-16.4445758757379]}},{"type":"Feature","properties":{"id":2588,"title":"Missing Maps: Zambia Malaria Elimination 27","status":"ARCHIVED","created":"2017","lastUpdated":"2017","lastActive":"no","area":31.889495041013184,"changesets":1413,"mappers":34,"roads":24.1011558976978,"buildings":7618,"edits":8792,"latest":"2017-04-04T18:16:46.000Z"},"geometry":{"type":"Point","coordinates":[27.5352249359389,-16.1835984997993]}},{"type":"Feature","properties":{"id":2586,"title":"Missing Maps: Zambia Malaria Elimination 25","status":"ARCHIVED","created":"2017","lastUpdated":"2017","lastActive":"no","area":11.867807532613435,"changesets":544,"mappers":33,"roads":6.4267548796816,"buildings":2167,"edits":2195,"latest":"2017-03-27T10:49:22.000Z"},"geometry":{"type":"Point","coordinates":[28.0011485249086,-15.9342298085104]}},{"type":"Feature","properties":{"id":2610,"title":"Missing Maps: Zambia Malaria Elimination 39","status":"ARCHIVED","created":"2017","lastUpdated":"2017","lastActive":"no","area":51.10622722327789,"changesets":1447,"mappers":59,"roads":110.565243716719,"buildings":10273,"edits":12222,"latest":"2017-04-06T09:53:30.000Z"},"geometry":{"type":"Point","coordinates":[27.4968094062617,-16.4326310664699]}},{"type":"Feature","properties":{"id":2604,"title":"Missing Maps: Zambia Malaria Elimination 35","status":"ARCHIVED","created":"2017","lastUpdated":"2017","lastActive":"no","area":47.681523032445796,"changesets":747,"mappers":61,"roads":0.646824385341615,"buildings":2683,"edits":2695,"latest":"2017-03-03T10:25:07.000Z"},"geometry":{"type":"Point","coordinates":[27.39946944317,-16.3376490201743]}},{"type":"Feature","properties":{"id":1850,"title":"Peace Corps Zambia -- Chongwe","status":"ARCHIVED","created":"2016","lastUpdated":"2016","lastActive":"no","area":15.78878457562414,"changesets":157,"mappers":33,"roads":24.2593874468821,"buildings":788,"edits":1127,"latest":"2016-06-21T19:38:32.000Z"},"geometry":{"type":"Point","coordinates":[28.6757137724548,-15.3323089385514]}},{"type":"Feature","properties":{"id":2548,"title":"Missing Maps: Zambia Malaria Elimination 8","status":"ARCHIVED","created":"2017","lastUpdated":"2017","lastActive":"no","area":41.631798204787955,"changesets":1318,"mappers":57,"roads":76.2881293155675,"buildings":7120,"edits":7570,"latest":"2017-03-25T19:39:09.000Z"},"geometry":{"type":"Point","coordinates":[26.791156583287,-15.7950682288584]}},{"type":"Feature","properties":{"id":2695,"title":"Missing Maps: Zambia Malaria Elimination 62","status":"ARCHIVED","created":"2017","lastUpdated":"2017","lastActive":"no","area":51.13514152568108,"changesets":838,"mappers":120,"roads":173.537791642928,"buildings":3216,"edits":5411,"latest":"2017-05-11T18:23:23.000Z"},"geometry":{"type":"Point","coordinates":[26.3806990487336,-16.9367301018994]}},{"type":"Feature","properties":{"id":2360,"title":"Misisi, Lusaka, Zambia","status":"PUBLISHED","created":"2016","lastUpdated":"2017","lastActive":"no","area":3.254160281977127,"changesets":977,"mappers":35,"roads":14.7746021737245,"buildings":10044,"edits":12131,"latest":"2017-04-19T06:30:14.000Z"},"geometry":{"type":"Point","coordinates":[28.2793157762274,-15.4433304402041]}},{"type":"Feature","properties":{"id":3183,"title":"Missing Maps: Zambia Malaria Elimination 79","status":"ARCHIVED","created":"2017","lastUpdated":"2017","lastActive":"no","area":978.3907149799423,"changesets":2285,"mappers":192,"roads":52.4306319853615,"buildings":8399,"edits":8880,"latest":"2017-08-19T15:28:24.000Z"},"geometry":{"type":"Point","coordinates":[26.7839004297929,-15.9198612690273]}},{"type":"Feature","properties":{"id":4994,"title":"Missing Maps - Zambia - Kalabo","status":"ARCHIVED","created":"2018","lastUpdated":"2018","lastActive":"no","area":42.40842194753424,"changesets":677,"mappers":36,"roads":407.521760117119,"buildings":4512,"edits":7041,"latest":"2018-10-29T14:39:36.000Z"},"geometry":{"type":"Point","coordinates":[22.6657569509904,-15.0166112347884]}},{"type":"Feature","properties":{"id":2473,"title":"Missing Maps: Kanyama, Lusaka, Zambia - Cholera Crisis - Buildings Only - Area 2","status":"ARCHIVED","created":"2017","lastUpdated":"2017","lastActive":"no","area":4.097444955118227,"changesets":960,"mappers":69,"roads":1.24701144334619,"buildings":14460,"edits":14939,"latest":"2017-02-02T00:10:35.000Z"},"geometry":{"type":"Point","coordinates":[28.2347584624704,-15.4362575093508]}},{"type":"Feature","properties":{"id":2699,"title":"Missing Maps: Zambia Malaria Elimination 66","status":"ARCHIVED","created":"2017","lastUpdated":"2017","lastActive":"no","area":50.124720955913006,"changesets":468,"mappers":27,"roads":22.076364361358,"buildings":2535,"edits":2638,"latest":"2017-03-29T08:18:05.000Z"},"geometry":{"type":"Point","coordinates":[26.8835639647511,-17.0174401852459]}},{"type":"Feature","properties":{"id":2642,"title":"Missing Maps: Zambia Malaria Elimination 52","status":"ARCHIVED","created":"2017","lastUpdated":"2017","lastActive":"no","area":49.72869770830729,"changesets":520,"mappers":38,"roads":7.23413713857558,"buildings":2444,"edits":2472,"latest":"2017-03-21T17:54:13.000Z"},"geometry":{"type":"Point","coordinates":[27.1361907402668,-16.7816063615116]}},{"type":"Feature","properties":{"id":2672,"title":"Missing Maps: Zambia Malaria Elimination 60","status":"ARCHIVED","created":"2017","lastUpdated":"2017","lastActive":"no","area":57.4773662312199,"changesets":463,"mappers":31,"roads":22.291356841362,"buildings":2319,"edits":2563,"latest":"2017-03-24T22:32:53.000Z"},"geometry":{"type":"Point","coordinates":[27.0354447769297,-16.9098554673388]}},{"type":"Feature","properties":{"id":2489,"title":"Missing Maps: Zambia Malaria Elimination 1","status":"ARCHIVED","created":"2017","lastUpdated":"2017","lastActive":"no","area":148.37833628040136,"changesets":5122,"mappers":165,"roads":4778.22806566751,"buildings":30233,"edits":78251,"latest":"2017-05-09T16:04:32.000Z"},"geometry":{"type":"Point","coordinates":[26.1105651610199,-15.6279672930532]}},{"type":"Feature","properties":{"id":2697,"title":"Missing Maps: Zambia Malaria Elimination 64","status":"ARCHIVED","created":"2017","lastUpdated":"2017","lastActive":"no","area":54.73285642282335,"changesets":1359,"mappers":162,"roads":173.143135524862,"buildings":10487,"edits":12607,"latest":"2017-04-03T18:54:51.000Z"},"geometry":{"type":"Point","coordinates":[26.5192874610287,-17.037699901068]}},{"type":"Feature","properties":{"id":2348,"title":"Archived/Replaced by other Projects - Kuzungula District, Zambia","status":"ARCHIVED","created":"2016","lastUpdated":"2017","lastActive":"no","area":12042.04128837934,"changesets":401,"mappers":69,"roads":247.402666716234,"buildings":8464,"edits":9075,"latest":"2017-03-11T15:09:21.000Z"},"geometry":{"type":"Point","coordinates":[25.6273733502222,-17.213353497404]}},{"type":"Feature","properties":{"id":2591,"title":"Missing Maps: Zambia Malaria Elimination 29","status":"ARCHIVED","created":"2017","lastUpdated":"2017","lastActive":"no","area":53.75292702905735,"changesets":1426,"mappers":63,"roads":86.361484210331,"buildings":7390,"edits":7828,"latest":"2017-03-31T11:18:37.000Z"},"geometry":{"type":"Point","coordinates":[27.3280030364326,-16.131696018737]}},{"type":"Feature","properties":{"id":2555,"title":"Missing Maps: Zambia Malaria Elimination 10","status":"ARCHIVED","created":"2017","lastUpdated":"2017","lastActive":"no","area":31.10985637117499,"changesets":1022,"mappers":75,"roads":4.69389639139936,"buildings":11460,"edits":11552,"latest":"2017-03-31T12:42:23.000Z"},"geometry":{"type":"Point","coordinates":[28.1305373435524,-15.8314610173578]}},{"type":"Feature","properties":{"id":4853,"title":"Priority Areas, Muchinga Province, Zambia Mini Grids Project 06","status":"PUBLISHED","created":"2018","lastUpdated":"2018","lastActive":"no","area":1817.6416004508362,"changesets":2092,"mappers":37,"roads":0.905534581714069,"buildings":44070,"edits":44266,"latest":"2018-08-17T07:34:09.000Z"},"geometry":{"type":"Point","coordinates":[32.2083821683174,-9.14371619923103]}},{"type":"Feature","properties":{"id":5172,"title":"Missing Maps - Zambia - Limulunga","status":"ARCHIVED","created":"2018","lastUpdated":"2018","lastActive":"no","area":12.712710414575804,"changesets":149,"mappers":18,"roads":39.4267387243411,"buildings":2634,"edits":3095,"latest":"2018-09-11T13:11:05.000Z"},"geometry":{"type":"Point","coordinates":[23.1467113223816,-15.1304589194704]}},{"type":"Feature","properties":{"id":4940,"title":"Priority Areas, Western Province, Zambia Mini Grids Project 03","status":"PUBLISHED","created":"2018","lastUpdated":"2018","lastActive":"no","area":130.71131986754082,"changesets":433,"mappers":35,"roads":0.00411933590482505,"buildings":6454,"edits":6459,"latest":"2018-08-14T05:55:53.000Z"},"geometry":{"type":"Point","coordinates":[23.1741374464,-14.8113230531681]}},{"type":"Feature","properties":{"id":4949,"title":"Priority Areas, Northern Province, Zambia Mini Grids Project 07","status":"PUBLISHED","created":"2018","lastUpdated":"2018","lastActive":"no","area":339.45238810279517,"changesets":767,"mappers":39,"roads":0.0434383106502137,"buildings":13417,"edits":13438,"latest":"2018-08-03T12:45:03.000Z"},"geometry":{"type":"Point","coordinates":[30.5470506290675,-11.0575128068587]}},{"type":"Feature","properties":{"id":669,"title":"Peace Corps Stomp Out Malaria - Kazungula","status":"ARCHIVED","created":"2014","lastUpdated":"2014","lastActive":"no","area":16.95503106955802,"changesets":0,"mappers":0,"roads":0,"buildings":0,"edits":0,"latest":null},"geometry":{"type":"Point","coordinates":[25.2648704594212,-17.7887846157581]}},{"type":"Feature","properties":{"id":4992,"title":"Priority Areas, Northern Province, Zambia Mini Grids Project 11","status":"PUBLISHED","created":"2018","lastUpdated":"2018","lastActive":"no","area":901.9638924123662,"changesets":329,"mappers":30,"roads":0.0446413623321236,"buildings":5527,"edits":5541,"latest":"2018-08-15T06:39:00.000Z"},"geometry":{"type":"Point","coordinates":[24.2081720913225,-11.2232120149847]}},{"type":"Feature","properties":{"id":4972,"title":"Priority Areas, Northern Province, Zambia Mini Grids Project 09","status":"PUBLISHED","created":"2018","lastUpdated":"2018","lastActive":"no","area":128.6555616326287,"changesets":389,"mappers":29,"roads":0.0168751266411869,"buildings":6113,"edits":6114,"latest":"2018-08-09T13:31:07.000Z"},"geometry":{"type":"Point","coordinates":[33.0220173680045,-10.2276804756312]}},{"type":"Feature","properties":{"id":4968,"title":"Priority Areas, Muchinga, Zambia Mini Grids Project 11","status":"PUBLISHED","created":"2018","lastUpdated":"2018","lastActive":"no","area":1104.3187258348034,"changesets":1521,"mappers":38,"roads":0.0817142328227262,"buildings":46830,"edits":46881,"latest":"2018-08-15T07:39:18.000Z"},"geometry":{"type":"Point","coordinates":[32.9454122077498,-11.2985955740601]}},{"type":"Feature","properties":{"id":4960,"title":"Priority Areas, North-Western Province, Zambia Mini Grids Project 07","status":"PUBLISHED","created":"2018","lastUpdated":"2018","lastActive":"no","area":117.51835470650506,"changesets":114,"mappers":28,"roads":0,"buildings":815,"edits":815,"latest":"2018-08-06T12:35:48.000Z"},"geometry":{"type":"Point","coordinates":[24.1717302208412,-11.959699745309]}},{"type":"Feature","properties":{"id":2563,"title":"Missing Maps: Zambia Malaria Elimination 12","status":"ARCHIVED","created":"2017","lastUpdated":"2017","lastActive":"no","area":27.331276133688156,"changesets":1358,"mappers":54,"roads":1.32529243975568,"buildings":9472,"edits":9584,"latest":"2017-05-23T04:22:15.000Z"},"geometry":{"type":"Point","coordinates":[27.9848791243,-16.0892558881978]}},{"type":"Feature","properties":{"id":1985,"title":"Livingstone District","status":"ARCHIVED","created":"2016","lastUpdated":"2017","lastActive":"no","area":1410.1440580372778,"changesets":2645,"mappers":115,"roads":898.550362927222,"buildings":62760,"edits":72734,"latest":"2016-11-05T05:45:24.000Z"},"geometry":{"type":"Point","coordinates":[25.9018638485985,-17.689744421582]}},{"type":"Feature","properties":{"id":1630,"title":"Meheba Refugee Camp, Orientale Province, Zambia","status":"PUBLISHED","created":"2016","lastUpdated":"2018","lastActive":"no","area":571.3092959181358,"changesets":1266,"mappers":46,"roads":1338.14496774085,"buildings":8517,"edits":18055,"latest":"2018-07-18T13:01:51.000Z"},"geometry":{"type":"Point","coordinates":[25.8799543120095,-12.4909479937957]}},{"type":"Feature","properties":{"id":2779,"title":"Missing Maps: Zambia Malaria Elimination 78","status":"ARCHIVED","created":"2017","lastUpdated":"2017","lastActive":"no","area":44.7317181021396,"changesets":506,"mappers":28,"roads":9.17382543070227,"buildings":3197,"edits":3235,"latest":"2017-04-11T19:49:21.000Z"},"geometry":{"type":"Point","coordinates":[26.2287295157117,-17.3713061163891]}},{"type":"Feature","properties":{"id":2736,"title":"Missing Maps: Zambia Malaria Elimination 70","status":"ARCHIVED","created":"2017","lastUpdated":"2017","lastActive":"no","area":33.24163315836576,"changesets":341,"mappers":23,"roads":175.977641171891,"buildings":1896,"edits":2110,"latest":"2017-04-01T19:57:39.000Z"},"geometry":{"type":"Point","coordinates":[26.867910752944,-17.1530808793803]}},{"type":"Feature","properties":{"id":2738,"title":"Mistake Do Not Use","status":"ARCHIVED","created":"2017","lastUpdated":"2017","lastActive":"no","area":41.631798204787955,"changesets":0,"mappers":0,"roads":0,"buildings":0,"edits":0,"latest":null},"geometry":{"type":"Point","coordinates":[26.791156583287,-15.7950682288584]}},{"type":"Feature","properties":{"id":2661,"title":"Missing Maps: Zambia Malaria Elimination 55","status":"ARCHIVED","created":"2017","lastUpdated":"2017","lastActive":"no","area":44.95788437690187,"changesets":381,"mappers":40,"roads":6.26931224903175,"buildings":1937,"edits":2049,"latest":"2017-03-18T11:10:07.000Z"},"geometry":{"type":"Point","coordinates":[26.7095184288564,-16.6529817809649]}},{"type":"Feature","properties":{"id":2731,"title":"Missing Maps: Zambia Malaria Elimination 68","status":"ARCHIVED","created":"2017","lastUpdated":"2017","lastActive":"no","area":51.51935242815336,"changesets":425,"mappers":32,"roads":10.4783148994824,"buildings":5005,"edits":5054,"latest":"2017-04-20T11:50:05.000Z"},"geometry":{"type":"Point","coordinates":[27.2405219328737,-17.0266096020833]}},{"type":"Feature","properties":{"id":2659,"title":"Missing Maps: Zambia Malaria Elimination 53","status":"ARCHIVED","created":"2017","lastUpdated":"2017","lastActive":"no","area":46.56177364588499,"changesets":1124,"mappers":44,"roads":170.883635532992,"buildings":16338,"edits":17239,"latest":"2017-04-14T16:17:55.000Z"},"geometry":{"type":"Point","coordinates":[26.9784802450858,-16.7848355634603]}},{"type":"Feature","properties":{"id":2670,"title":"Missing Maps: Zambia Malaria Elimination 58","status":"ARCHIVED","created":"2017","lastUpdated":"2017","lastActive":"no","area":52.22446425255846,"changesets":450,"mappers":42,"roads":12.5052306014992,"buildings":3306,"edits":3498,"latest":"2017-03-23T21:36:31.000Z"},"geometry":{"type":"Point","coordinates":[26.682991358299,-16.7963311571231]}},{"type":"Feature","properties":{"id":2612,"title":"Missing Maps: Zambia Malaria Elimination 41","status":"ARCHIVED","created":"2017","lastUpdated":"2017","lastActive":"no","area":39.12071193861273,"changesets":1201,"mappers":50,"roads":38.6208702735164,"buildings":8369,"edits":8715,"latest":"2017-08-07T12:21:04.000Z"},"geometry":{"type":"Point","coordinates":[27.6376904065045,-16.4473867460371]}},{"type":"Feature","properties":{"id":2630,"title":"Missing Maps: Zambia Malaria Elimination 45","status":"ARCHIVED","created":"2017","lastUpdated":"2017","lastActive":"no","area":55.532451331247486,"changesets":987,"mappers":74,"roads":37.3246916241503,"buildings":6066,"edits":6197,"latest":"2017-03-12T20:21:09.000Z"},"geometry":{"type":"Point","coordinates":[27.5978076767458,-15.8387716061384]}},{"type":"Feature","properties":{"id":2526,"title":"Missing Maps: Kanyama, Lusaka, Zambia - Cholera Crisis - Buildings Only - Zone 3","status":"PUBLISHED","created":"2017","lastUpdated":"2017","lastActive":"no","area":0.5147784574323778,"changesets":627,"mappers":32,"roads":3.25666696508614,"buildings":5953,"edits":8991,"latest":"2017-04-27T22:59:45.000Z"},"geometry":{"type":"Point","coordinates":[28.2525022824477,-15.4221490787427]}},{"type":"Feature","properties":{"id":2031,"title":"OpenStreetMap Zambia - Mtendere","status":"ARCHIVED","created":"2016","lastUpdated":"2016","lastActive":"no","area":5.635788875345352,"changesets":1161,"mappers":43,"roads":35.9611312740036,"buildings":11885,"edits":13502,"latest":"2016-08-14T06:48:25.000Z"},"geometry":{"type":"Point","coordinates":[28.3594399342708,-15.3969707564864]}},{"type":"Feature","properties":{"id":3293,"title":"Livingstone mapping - OSM Zambia","status":"PUBLISHED","created":"2017","lastUpdated":"2017","lastActive":"no","area":101.17010264284768,"changesets":994,"mappers":12,"roads":308.983608542543,"buildings":36591,"edits":45782,"latest":"2017-08-23T14:14:19.000Z"},"geometry":{"type":"Point","coordinates":[25.8585971206155,-17.8421540120287]}},{"type":"Feature","properties":{"id":5343,"title":"Missing Maps - Zambia - Malengwa","status":"ARCHIVED","created":"2018","lastUpdated":"2018","lastActive":"no","area":19.26248831210457,"changesets":409,"mappers":36,"roads":129.920029364859,"buildings":2828,"edits":4381,"latest":"2018-10-23T20:14:30.000Z"},"geometry":{"type":"Point","coordinates":[23.1496450351179,-15.21927210925]}},{"type":"Feature","properties":{"id":5327,"title":"North-west","status":"PUBLISHED","created":"2018","lastUpdated":"2018","lastActive":"no","area":13433.522391139175,"changesets":66,"mappers":27,"roads":36.5202921965932,"buildings":1492,"edits":1537,"latest":"2018-11-07T11:13:03.000Z"},"geometry":{"type":"Point","coordinates":[24.5495147016021,-13.5993734203055]}},{"type":"Feature","properties":{"id":5231,"title":"Missing Maps - Zambia - Mongu centre2","status":"ARCHIVED","created":"2018","lastUpdated":"2018","lastActive":"no","area":8.07328076511913,"changesets":512,"mappers":48,"roads":43.1174108384455,"buildings":5945,"edits":6708,"latest":"2018-09-24T14:29:59.000Z"},"geometry":{"type":"Point","coordinates":[23.1451122969085,-15.2747772857719]}},{"type":"Feature","properties":{"id":3414,"title":"Chaisa Mapping","status":"PUBLISHED","created":"2017","lastUpdated":"2018","lastActive":"no","area":3.265366535228419,"changesets":0,"mappers":0,"roads":0,"buildings":0,"edits":0,"latest":null},"geometry":{"type":"Point","coordinates":[28.2845032358776,-15.3776746534989]}},{"type":"Feature","properties":{"id":1484,"title":"Mayukwayukwa Refugee Camp, Orientale Province, Zambia","status":"PUBLISHED","created":"2016","lastUpdated":"2017","lastActive":"no","area":79.68379557842741,"changesets":456,"mappers":54,"roads":494.708091818575,"buildings":2041,"edits":8445,"latest":"2017-01-17T13:21:46.000Z"},"geometry":{"type":"Point","coordinates":[24.1974973288105,-14.5525750273743]}},{"type":"Feature","properties":{"id":3256,"title":"Kawama East mapping - OSM Zambia","status":"PUBLISHED","created":"2017","lastUpdated":"2017","lastActive":"no","area":3.0950709950460236,"changesets":508,"mappers":24,"roads":62.5279621119056,"buildings":5053,"edits":7635,"latest":"2017-07-13T16:30:54.000Z"},"geometry":{"type":"Point","coordinates":[28.266482957122,-12.5780687712885]}},{"type":"Feature","properties":{"id":2543,"title":"Missing Maps: Kanyama, Lusaka, Zambia - Cholera Crisis - Buildings Only - Zone 4","status":"PUBLISHED","created":"2017","lastUpdated":"2017","lastActive":"no","area":0.9470639118601474,"changesets":520,"mappers":25,"roads":0.847052105657445,"buildings":10436,"edits":13972,"latest":"2017-04-14T08:01:31.000Z"},"geometry":{"type":"Point","coordinates":[28.2549772567581,-15.4283251911849]}},{"type":"Feature","properties":{"id":2478,"title":"Missing Maps: Kanyama, Lusaka, Zambia - Cholera Crisis - Buildings Only - Area 3","status":"ARCHIVED","created":"2017","lastUpdated":"2017","lastActive":"no","area":4.947543772031465,"changesets":511,"mappers":46,"roads":23.4457534347014,"buildings":8589,"edits":8999,"latest":"2017-02-02T13:14:10.000Z"},"geometry":{"type":"Point","coordinates":[28.221133823274,-15.4342346339895]}}],"Russia":[{"type":"Feature","properties":{"id":5074,"title":"Voronezh, RU - Road Alignment","status":"PUBLISHED","created":"2018","lastUpdated":"2018","lastActive":"no","area":51.88857016130644,"changesets":34,"mappers":1,"roads":0.812561863103931,"buildings":19,"edits":545,"latest":"2018-11-16T10:34:45.000Z"},"geometry":{"type":"Point","coordinates":[40.2695201655274,50.9627839626112]}},{"type":"Feature","properties":{"id":5116,"title":"Buryatia, RU - Road Alignment","status":"PUBLISHED","created":"2018","lastUpdated":"2018","lastActive":"no","area":11.921423464616145,"changesets":7,"mappers":2,"roads":3.08056904568076,"buildings":19,"edits":104,"latest":"2018-10-19T08:54:02.000Z"},"geometry":{"type":"Point","coordinates":[107.505299618937,51.7364622992778]}},{"type":"Feature","properties":{"id":5076,"title":"Kostroma, RU - Road Alignment","status":"PUBLISHED","created":"2018","lastUpdated":"2018","lastActive":"no","area":16.55786446991269,"changesets":15,"mappers":1,"roads":5.17449485836067,"buildings":50,"edits":265,"latest":"2018-11-13T22:32:46.000Z"},"geometry":{"type":"Point","coordinates":[43.391536924522,58.3815490365323]}},{"type":"Feature","properties":{"id":5084,"title":"Astrakhan, RU - Road Alignment","status":"PUBLISHED","created":"2018","lastUpdated":"2018","lastActive":"no","area":5.310775583716296,"changesets":6,"mappers":1,"roads":0.576440915991893,"buildings":4,"edits":39,"latest":"2018-10-09T13:35:52.000Z"},"geometry":{"type":"Point","coordinates":[47.1830142680223,46.8862236799227]}},{"type":"Feature","properties":{"id":5082,"title":"Mordovia, RU - Road Alignment","status":"PUBLISHED","created":"2018","lastUpdated":"2018","lastActive":"no","area":21.05104067660312,"changesets":0,"mappers":0,"roads":0,"buildings":0,"edits":0,"latest":null},"geometry":{"type":"Point","coordinates":[44.471800865344,54.2889054581946]}},{"type":"Feature","properties":{"id":5098,"title":"Kirov, RU - Road Alignment","status":"PUBLISHED","created":"2018","lastUpdated":"2018","lastActive":"no","area":15.917259356789708,"changesets":17,"mappers":1,"roads":36.6975410331902,"buildings":163,"edits":874,"latest":"2018-10-25T09:45:05.000Z"},"geometry":{"type":"Point","coordinates":[49.5005171491877,58.0035735138105]}},{"type":"Feature","properties":{"id":5088,"title":"North Ossetia-Alania, RU - Road Alignment","status":"PUBLISHED","created":"2018","lastUpdated":"2018","lastActive":"no","area":14.537601490829601,"changesets":32,"mappers":1,"roads":0.783488296930156,"buildings":1,"edits":447,"latest":"2018-11-01T08:23:46.000Z"},"geometry":{"type":"Point","coordinates":[44.4413630478819,43.1296771004067]}},{"type":"Feature","properties":{"id":5068,"title":"Kursk, RU - Road Alignment","status":"PUBLISHED","created":"2018","lastUpdated":"2018","lastActive":"no","area":11.035515934842362,"changesets":8,"mappers":1,"roads":0.0390462728168895,"buildings":0,"edits":58,"latest":"2018-11-01T10:06:42.000Z"},"geometry":{"type":"Point","coordinates":[36.0226384904065,51.6480514245577]}},{"type":"Feature","properties":{"id":5045,"title":"Nenetsia, RU - Road Alignment","status":"PUBLISHED","created":"2018","lastUpdated":"2018","lastActive":"yes","area":1.271696291426983,"changesets":7,"mappers":2,"roads":8.39223990109274,"buildings":130,"edits":410,"latest":"2018-11-05T20:55:39.000Z"},"geometry":{"type":"Point","coordinates":[56.0799294668555,67.3851766016729]}},{"type":"Feature","properties":{"id":5041,"title":"Yaroslavl, RU - Road Alignment","status":"PUBLISHED","created":"2018","lastUpdated":"2018","lastActive":"no","area":4.819215675862653,"changesets":39,"mappers":1,"roads":2.74991066466789,"buildings":47,"edits":479,"latest":"2018-11-06T18:47:40.000Z"},"geometry":{"type":"Point","coordinates":[39.1443497130268,57.5982859823097]}},{"type":"Feature","properties":{"id":5078,"title":"Vladmi, RU - Road Alignment","status":"PUBLISHED","created":"2018","lastUpdated":"2018","lastActive":"no","area":19.39018729280983,"changesets":11,"mappers":1,"roads":0.0993819937216351,"buildings":0,"edits":136,"latest":"2018-11-15T20:12:22.000Z"},"geometry":{"type":"Point","coordinates":[41.4000375718571,56.0011972964679]}},{"type":"Feature","properties":{"id":5080,"title":"Ryazan, RU - Road Alignment","status":"PUBLISHED","created":"2018","lastUpdated":"2018","lastActive":"no","area":28.47380571426955,"changesets":33,"mappers":1,"roads":1.42742427154212,"buildings":102,"edits":709,"latest":"2018-11-16T22:25:01.000Z"},"geometry":{"type":"Point","coordinates":[40.2725467479178,54.1247114552182]}},{"type":"Feature","properties":{"id":5114,"title":"Tuva, RU - Road Alignment","status":"PUBLISHED","created":"2018","lastUpdated":"2018","lastActive":"no","area":2.5382251706946253,"changesets":11,"mappers":1,"roads":0.699784508480752,"buildings":20,"edits":104,"latest":"2018-10-19T10:22:55.000Z"},"geometry":{"type":"Point","coordinates":[94.0463114123556,51.781508254766]}},{"type":"Feature","properties":{"id":5110,"title":"Yamalia, RU - Road Alignment","status":"PUBLISHED","created":"2018","lastUpdated":"2018","lastActive":"no","area":8.273190558193892,"changesets":2,"mappers":2,"roads":6.55221612351271,"buildings":0,"edits":6,"latest":"2018-11-02T17:59:53.000Z"},"geometry":{"type":"Point","coordinates":[75.2427001306948,65.7007370208771]}},{"type":"Feature","properties":{"id":5120,"title":"JAO, RU - Road Alignment","status":"PUBLISHED","created":"2018","lastUpdated":"2018","lastActive":"no","area":5.488146548063193,"changesets":4,"mappers":1,"roads":0.0327054624556719,"buildings":1,"edits":20,"latest":"2018-10-24T16:47:52.000Z"},"geometry":{"type":"Point","coordinates":[132.011691687188,48.253714915435]}},{"type":"Feature","properties":{"id":5118,"title":"Amur, RU - Road Alignment","status":"PUBLISHED","created":"2018","lastUpdated":"2018","lastActive":"no","area":19.385680339287482,"changesets":7,"mappers":1,"roads":5.53178454751479,"buildings":28,"edits":99,"latest":"2018-10-17T10:54:27.000Z"},"geometry":{"type":"Point","coordinates":[127.669291747133,51.1636667407178]}},{"type":"Feature","properties":{"id":5122,"title":"Khabarovsk, RU - Road Alignment","status":"PUBLISHED","created":"2018","lastUpdated":"2018","lastActive":"no","area":11.161541130978934,"changesets":42,"mappers":1,"roads":24.3213672545452,"buildings":19,"edits":928,"latest":"2018-11-12T19:15:17.000Z"},"geometry":{"type":"Point","coordinates":[138.396774935942,51.8199623333501]}},{"type":"Feature","properties":{"id":5071,"title":"Belgorad, RU - Road Alignment","status":"PUBLISHED","created":"2018","lastUpdated":"2018","lastActive":"yes","area":38.115130732068074,"changesets":28,"mappers":1,"roads":5.05034734801173,"buildings":25,"edits":311,"latest":"2018-11-17T10:58:48.000Z"},"geometry":{"type":"Point","coordinates":[37.4150271811611,50.6657608441237]}},{"type":"Feature","properties":{"id":5035,"title":"St. Petersburg, RU - Road Alignment","status":"PUBLISHED","created":"2018","lastUpdated":"2018","lastActive":"no","area":8.561300785249289,"changesets":91,"mappers":1,"roads":4.56392165941811,"buildings":109,"edits":1811,"latest":"2018-11-07T19:59:02.000Z"},"geometry":{"type":"Point","coordinates":[30.23445185656,59.9410578806373]}},{"type":"Feature","properties":{"id":5033,"title":"Karelia, RU - Road Alignment","status":"PUBLISHED","created":"2018","lastUpdated":"2018","lastActive":"no","area":15.783143957120704,"changesets":0,"mappers":0,"roads":0,"buildings":0,"edits":0,"latest":null},"geometry":{"type":"Point","coordinates":[32.653970249643,63.1683112124834]}},{"type":"Feature","properties":{"id":5087,"title":"Ingushetia, RU - Road Alignment","status":"PUBLISHED","created":"2018","lastUpdated":"2018","lastActive":"no","area":5.5580742626089785,"changesets":2,"mappers":1,"roads":0.037670290924601,"buildings":0,"edits":14,"latest":"2018-10-30T15:42:37.000Z"},"geometry":{"type":"Point","coordinates":[44.9998103358445,43.2859058104622]}},{"type":"Feature","properties":{"id":5092,"title":"Krasnodar, RU - Road Alignment","status":"PUBLISHED","created":"2018","lastUpdated":"2018","lastActive":"yes","area":65.77382796758191,"changesets":157,"mappers":2,"roads":4.60544430914148,"buildings":490,"edits":2185,"latest":"2018-11-17T21:21:53.000Z"},"geometry":{"type":"Point","coordinates":[39.4116507753946,45.4518856931549]}},{"type":"Feature","properties":{"id":5121,"title":"Sakhalin, RU - Road Alignment","status":"PUBLISHED","created":"2018","lastUpdated":"2018","lastActive":"no","area":5.566677215936195,"changesets":5,"mappers":1,"roads":1.36468434946041,"buildings":3,"edits":40,"latest":"2018-10-24T17:19:44.000Z"},"geometry":{"type":"Point","coordinates":[142.738432590344,48.9062608568148]}},{"type":"Feature","properties":{"id":5117,"title":"Zabaykalsk, RU - Road Alignment","status":"PUBLISHED","created":"2018","lastUpdated":"2018","lastActive":"no","area":15.535301906848705,"changesets":0,"mappers":0,"roads":0,"buildings":0,"edits":0,"latest":null},"geometry":{"type":"Point","coordinates":[115.893622536766,50.898877166788]}},{"type":"Feature","properties":{"id":5115,"title":"Krasnoyarsk, RU - Road Alignment","status":"PUBLISHED","created":"2018","lastUpdated":"2018","lastActive":"no","area":22.824888459707374,"changesets":78,"mappers":1,"roads":15.4802476295007,"buildings":108,"edits":630,"latest":"2018-10-20T05:40:12.000Z"},"geometry":{"type":"Point","coordinates":[93.4116099617817,57.0117959504218]}},{"type":"Feature","properties":{"id":5101,"title":"Orenburg, RU - Road Alignment","status":"PUBLISHED","created":"2018","lastUpdated":"2018","lastActive":"no","area":62.971849944699215,"changesets":22,"mappers":1,"roads":3.45699288107569,"buildings":53,"edits":181,"latest":"2018-10-24T08:43:40.000Z"},"geometry":{"type":"Point","coordinates":[54.8065548783445,52.0610390047715]}},{"type":"Feature","properties":{"id":5038,"title":"Novgorod, RU - Road Alignment","status":"PUBLISHED","created":"2018","lastUpdated":"2018","lastActive":"no","area":10.46150373873454,"changesets":0,"mappers":0,"roads":0,"buildings":0,"edits":0,"latest":null},"geometry":{"type":"Point","coordinates":[31.9263050659094,58.2489414609353]}},{"type":"Feature","properties":{"id":5046,"title":"Komi, RU - Road Alignment","status":"PUBLISHED","created":"2018","lastUpdated":"2018","lastActive":"no","area":14.971932687664575,"changesets":1,"mappers":1,"roads":0.00554685444333487,"buildings":0,"edits":3,"latest":"2018-10-09T20:34:56.000Z"},"geometry":{"type":"Point","coordinates":[54.8314035068119,63.1269365587441]}},{"type":"Feature","properties":{"id":5036,"title":"Kalingrad, RU - Road Alignment","status":"PUBLISHED","created":"2018","lastUpdated":"2018","lastActive":"no","area":8.85709870763704,"changesets":54,"mappers":3,"roads":6.74090503360196,"buildings":42,"edits":1491,"latest":"2018-11-09T18:06:16.000Z"},"geometry":{"type":"Point","coordinates":[21.2683677067525,54.7166459195005]}},{"type":"Feature","properties":{"id":5048,"title":"Bryansk, RU - Road Alignment","status":"PUBLISHED","created":"2018","lastUpdated":"2018","lastActive":"no","area":30.262723825140842,"changesets":8,"mappers":1,"roads":1.09229506192473,"buildings":1,"edits":39,"latest":"2018-10-28T12:49:03.000Z"},"geometry":{"type":"Point","coordinates":[33.4570235672206,53.0043322730238]}},{"type":"Feature","properties":{"id":5032,"title":"Murmansk, RU - Road Alignment","status":"PUBLISHED","created":"2018","lastUpdated":"2018","lastActive":"no","area":6.135141048257239,"changesets":4,"mappers":3,"roads":0.15765872321554,"buildings":0,"edits":11,"latest":"2018-11-14T11:47:29.000Z"},"geometry":{"type":"Point","coordinates":[32.1535937499972,68.1519441236096]}},{"type":"Feature","properties":{"id":5072,"title":"Oryol, RU - Road Alignment","status":"PUBLISHED","created":"2018","lastUpdated":"2018","lastActive":"no","area":16.540756268279804,"changesets":0,"mappers":0,"roads":0,"buildings":0,"edits":0,"latest":null},"geometry":{"type":"Point","coordinates":[36.5339864599229,52.7957040500738]}},{"type":"Feature","properties":{"id":5034,"title":"Leningrad, RU - Road Alignment","status":"PUBLISHED","created":"2018","lastUpdated":"2018","lastActive":"no","area":23.54027298174626,"changesets":2,"mappers":1,"roads":0.0224792879778619,"buildings":0,"edits":6,"latest":"2018-10-28T21:26:36.000Z"},"geometry":{"type":"Point","coordinates":[30.839409774744,60.1248894787618]}},{"type":"Feature","properties":{"id":5040,"title":"Tver, RU - Road Alignment","status":"PUBLISHED","created":"2018","lastUpdated":"2018","lastActive":"no","area":23.79800173254469,"changesets":30,"mappers":1,"roads":4.08514426550506,"buildings":13,"edits":377,"latest":"2018-11-06T18:49:45.000Z"},"geometry":{"type":"Point","coordinates":[34.6891817016017,56.9824041620985]}},{"type":"Feature","properties":{"id":5077,"title":"Ivanovo, RU - Road Alignment","status":"PUBLISHED","created":"2018","lastUpdated":"2018","lastActive":"no","area":13.702294049661324,"changesets":0,"mappers":0,"roads":0,"buildings":0,"edits":0,"latest":null},"geometry":{"type":"Point","coordinates":[41.5762520611261,56.9819705148539]}},{"type":"Feature","properties":{"id":5075,"title":"Lipetsk, RU - Road Alignment","status":"PUBLISHED","created":"2018","lastUpdated":"2018","lastActive":"no","area":12.278823639779748,"changesets":24,"mappers":1,"roads":2.47261798372648,"buildings":281,"edits":652,"latest":"2018-11-10T00:49:57.000Z"},"geometry":{"type":"Point","coordinates":[39.1004986289472,52.6545859654903]}},{"type":"Feature","properties":{"id":5089,"title":"Kabardino-Balkaria, RU - Road Alignment","status":"PUBLISHED","created":"2018","lastUpdated":"2018","lastActive":"no","area":23.622718462797803,"changesets":62,"mappers":1,"roads":8.4411900439592,"buildings":1317,"edits":1924,"latest":"2018-11-16T08:31:11.000Z"},"geometry":{"type":"Point","coordinates":[43.9811521507747,43.5359455756532]}},{"type":"Feature","properties":{"id":5095,"title":"Ulianovsk, RU - Road Alignment","status":"PUBLISHED","created":"2018","lastUpdated":"2018","lastActive":"no","area":10.512720117766863,"changesets":13,"mappers":1,"roads":0.195155068289131,"buildings":0,"edits":78,"latest":"2018-11-01T07:42:38.000Z"},"geometry":{"type":"Point","coordinates":[48.0134617931904,53.772705368293]}},{"type":"Feature","properties":{"id":5044,"title":"Arkhangelsk, RU - Road Alignment","status":"PUBLISHED","created":"2018","lastUpdated":"2018","lastActive":"no","area":12.606328751411732,"changesets":7,"mappers":1,"roads":0.839928983903169,"buildings":6,"edits":251,"latest":"2018-11-06T15:55:43.000Z"},"geometry":{"type":"Point","coordinates":[42.0930614019958,62.114544765511]}},{"type":"Feature","properties":{"id":5050,"title":"Moscow, RU - Road Alignment","status":"PUBLISHED","created":"2018","lastUpdated":"2018","lastActive":"no","area":67.22729165523474,"changesets":388,"mappers":29,"roads":134.579730807153,"buildings":592,"edits":4404,"latest":"2018-11-15T15:24:08.000Z"},"geometry":{"type":"Point","coordinates":[37.5334085802161,55.6984793925584]}},{"type":"Feature","properties":{"id":5105,"title":"Kurgan, RU - Road Alignment","status":"PUBLISHED","created":"2018","lastUpdated":"2018","lastActive":"no","area":10.828553519234841,"changesets":19,"mappers":1,"roads":2.15622438545207,"buildings":1,"edits":123,"latest":"2018-10-28T13:16:40.000Z"},"geometry":{"type":"Point","coordinates":[65.1515824192141,55.1397216389689]}},{"type":"Feature","properties":{"id":5085,"title":"Kalmykia, RU - Road Alignment","status":"PUBLISHED","created":"2018","lastUpdated":"2018","lastActive":"no","area":10.056908395488977,"changesets":10,"mappers":1,"roads":4.37148898049341,"buildings":12,"edits":202,"latest":"2018-10-31T16:42:50.000Z"},"geometry":{"type":"Point","coordinates":[44.9932637551155,46.0090609593374]}},{"type":"Feature","properties":{"id":5079,"title":"Nizhny Novgorod, RU - Road Alignment","status":"PUBLISHED","created":"2018","lastUpdated":"2018","lastActive":"no","area":23.49516750453581,"changesets":5,"mappers":1,"roads":0.0220785561293529,"buildings":0,"edits":10,"latest":"2018-10-08T13:09:31.000Z"},"geometry":{"type":"Point","coordinates":[44.5683003348931,55.6787726091367]}},{"type":"Feature","properties":{"id":5093,"title":"Stavropol, RU - Road Alignment","status":"PUBLISHED","created":"2018","lastUpdated":"2018","lastActive":"no","area":39.278249308473754,"changesets":9,"mappers":1,"roads":0.142855842145349,"buildings":0,"edits":56,"latest":"2018-11-01T06:46:47.000Z"},"geometry":{"type":"Point","coordinates":[42.9341936478082,44.7607848987624]}},{"type":"Feature","properties":{"id":5083,"title":"Saratov, RU - Road Alignment","status":"PUBLISHED","created":"2018","lastUpdated":"2018","lastActive":"no","area":32.40097117720466,"changesets":34,"mappers":1,"roads":0.77353210229752,"buildings":6,"edits":341,"latest":"2018-10-28T13:14:20.000Z"},"geometry":{"type":"Point","coordinates":[46.1811223773877,51.5916763633425]}},{"type":"Feature","properties":{"id":5091,"title":"Adygeya, RU - Road Alignment","status":"PUBLISHED","created":"2018","lastUpdated":"2018","lastActive":"no","area":3.5556777849193764,"changesets":13,"mappers":1,"roads":0.34216005800038,"buildings":2,"edits":224,"latest":"2018-10-29T19:34:26.000Z"},"geometry":{"type":"Point","coordinates":[39.6558268279716,44.8484239957608]}},{"type":"Feature","properties":{"id":5107,"title":"Omsk, RU - Road Alignment","status":"PUBLISHED","created":"2018","lastUpdated":"2018","lastActive":"no","area":18.92588387234162,"changesets":5,"mappers":1,"roads":0.0915746009074978,"buildings":0,"edits":23,"latest":"2018-10-24T15:05:46.000Z"},"geometry":{"type":"Point","coordinates":[73.1251378094216,55.4331855578523]}},{"type":"Feature","properties":{"id":5111,"title":"Tomsk, RU - Road Alignment","status":"PUBLISHED","created":"2018","lastUpdated":"2018","lastActive":"no","area":8.291597604665306,"changesets":5,"mappers":1,"roads":0.629914577296326,"buildings":5,"edits":37,"latest":"2018-10-20T21:50:51.000Z"},"geometry":{"type":"Point","coordinates":[83.3986752670868,57.7318453073323]}},{"type":"Feature","properties":{"id":5103,"title":"Perm, RU - Road Alignment","status":"PUBLISHED","created":"2018","lastUpdated":"2018","lastActive":"no","area":19.050963663499118,"changesets":36,"mappers":2,"roads":1.89355946602952,"buildings":10,"edits":284,"latest":"2018-10-17T18:01:41.000Z"},"geometry":{"type":"Point","coordinates":[55.8676360593071,57.9984261773804]}},{"type":"Feature","properties":{"id":5109,"title":"Khantia-Mansia, RU - Road Alignment","status":"PUBLISHED","created":"2018","lastUpdated":"2018","lastActive":"no","area":30.253087893790546,"changesets":15,"mappers":1,"roads":4.51497994941806,"buildings":10,"edits":99,"latest":"2018-11-06T07:57:43.000Z"},"geometry":{"type":"Point","coordinates":[71.975901037221,61.2624729564418]}},{"type":"Feature","properties":{"id":5113,"title":"Khakassia, RU - Road Alignment","status":"PUBLISHED","created":"2018","lastUpdated":"2018","lastActive":"no","area":2.2758892585070725,"changesets":15,"mappers":1,"roads":2.89320533561135,"buildings":1,"edits":62,"latest":"2018-10-28T13:13:05.000Z"},"geometry":{"type":"Point","coordinates":[91.0513384700272,53.6367519341592]}},{"type":"Feature","properties":{"id":5081,"title":"Tambov, RU - Road Alignment","status":"PUBLISHED","created":"2018","lastUpdated":"2018","lastActive":"no","area":26.18715669406076,"changesets":1,"mappers":1,"roads":0.00403649833909725,"buildings":0,"edits":2,"latest":"2018-10-07T22:41:13.000Z"},"geometry":{"type":"Point","coordinates":[41.3729375849855,52.7601922019812]}},{"type":"Feature","properties":{"id":5097,"title":"Mari El, RU - Road Alignment","status":"PUBLISHED","created":"2018","lastUpdated":"2018","lastActive":"no","area":2.1194954020724452,"changesets":9,"mappers":1,"roads":0.126755578113588,"buildings":0,"edits":45,"latest":"2018-10-04T16:23:52.000Z"},"geometry":{"type":"Point","coordinates":[48.561181273909,56.5923240658307]}},{"type":"Feature","properties":{"id":5099,"title":"Samara, RU - Road Alignment","status":"PUBLISHED","created":"2018","lastUpdated":"2018","lastActive":"no","area":30.485075606543912,"changesets":151,"mappers":1,"roads":22.4323424152844,"buildings":519,"edits":1982,"latest":"2018-10-17T10:16:33.000Z"},"geometry":{"type":"Point","coordinates":[50.3445307565892,53.3708217054506]}},{"type":"Feature","properties":{"id":5123,"title":"Magadan, RU - Road Alignment","status":"PUBLISHED","created":"2018","lastUpdated":"2018","lastActive":"no","area":5.034648396223297,"changesets":6,"mappers":1,"roads":0.0962224326601914,"buildings":0,"edits":37,"latest":"2018-10-13T15:44:20.000Z"},"geometry":{"type":"Point","coordinates":[151.195448468034,60.5667867782767]}},{"type":"Feature","properties":{"id":5119,"title":"Sakha, RU - Road Alignment","status":"PUBLISHED","created":"2018","lastUpdated":"2018","lastActive":"no","area":33.426355275199285,"changesets":0,"mappers":0,"roads":0,"buildings":0,"edits":0,"latest":null},"geometry":{"type":"Point","coordinates":[124.725706215512,61.3401873829566]}}],"Nepal":[{"type":"Feature","properties":{"id":3569,"title":"Missing Maps: Nepal - This project has been replaced by project #3605 to reduce size of AOI","status":"ARCHIVED","created":"2017","lastUpdated":"2017","lastActive":"no","area":1394.2150242679536,"changesets":84,"mappers":10,"roads":9.87487984352557,"buildings":729,"edits":799,"latest":"2017-10-20T18:04:55.000Z"},"geometry":{"type":"Point","coordinates":[86.100402915096,26.7484089164806]}},{"type":"Feature","properties":{"id":451,"title":"OSM Patrol in Kathmandu","status":"PUBLISHED","created":"2014","lastUpdated":"2015","lastActive":"no","area":39.123235135575364,"changesets":0,"mappers":0,"roads":0,"buildings":0,"edits":0,"latest":null},"geometry":{"type":"Point","coordinates":[85.3242254956593,27.7075014836134]}},{"type":"Feature","properties":{"id":1016,"title":"Nepal Earthquake Mapping - Langtang Rasuwa  ( Highly Effected Area ) ","status":"PUBLISHED","created":"2015","lastUpdated":"2017","lastActive":"no","area":503.7484641624975,"changesets":109,"mappers":50,"roads":22.8163040777894,"buildings":379,"edits":523,"latest":"2017-02-08T12:45:49.000Z"},"geometry":{"type":"Point","coordinates":[85.6171427770942,28.2285000973272]}},{"type":"Feature","properties":{"id":1006,"title":"Nepal Earthquake, 2015, Residential areas and buildings - task 7","status":"ARCHIVED","created":"2015","lastUpdated":"2016","lastActive":"no","area":2491.4527408371837,"changesets":3,"mappers":2,"roads":2.83453464364618,"buildings":326,"edits":366,"latest":"2015-05-01T12:45:41.000Z"},"geometry":{"type":"Point","coordinates":[84.3231526757755,28.0583421357581]}},{"type":"Feature","properties":{"id":1046,"title":"Nepal Earthquake, 2015, Severely damaged housing areas and IDP Informal camps, Kadichaur","status":"ARCHIVED","created":"2015","lastUpdated":"2017","lastActive":"no","area":2638.6644291446355,"changesets":0,"mappers":0,"roads":0,"buildings":0,"edits":0,"latest":null},"geometry":{"type":"Point","coordinates":[85.901521589833,27.4809242222573]}},{"type":"Feature","properties":{"id":1001,"title":"Nepal Earthquake, 2015, Road Network - task 3","status":"ARCHIVED","created":"2015","lastUpdated":"2015","lastActive":"no","area":2491.4527408371837,"changesets":1,"mappers":1,"roads":4.61768990848999,"buildings":0,"edits":22,"latest":"2015-04-26T07:14:07.000Z"},"geometry":{"type":"Point","coordinates":[84.3231526757755,28.0583421357581]}},{"type":"Feature","properties":{"id":1024,"title":"Nepal Earthquake, 2015, Severely damaged housing areas and IDP Informal camps, Gorkha","status":"ARCHIVED","created":"2015","lastUpdated":"2017","lastActive":"no","area":2050.1939424595353,"changesets":1,"mappers":1,"roads":0,"buildings":0,"edits":0,"latest":"2015-05-02T14:40:47.000Z"},"geometry":{"type":"Point","coordinates":[84.7338988873733,27.9962532135225]}},{"type":"Feature","properties":{"id":1062,"title":"Nepal Earthquake, 2015, Severely damaged housing areas and IDP Informal camps, Chautara, 2015-05-14","status":"ARCHIVED","created":"2015","lastUpdated":"2015","lastActive":"no","area":431.9231507367645,"changesets":0,"mappers":0,"roads":0,"buildings":0,"edits":0,"latest":null},"geometry":{"type":"Point","coordinates":[85.7363880166625,27.737324374975]}},{"type":"Feature","properties":{"id":1070,"title":"Kaligandaki Landslide - Myagdi (High Alert District)","status":"PUBLISHED","created":"2015","lastUpdated":"2018","lastActive":"no","area":2293.8704385608917,"changesets":1129,"mappers":82,"roads":544.625252164751,"buildings":20426,"edits":25083,"latest":"2018-04-21T23:26:33.000Z"},"geometry":{"type":"Point","coordinates":[83.4619549574507,28.5529600565022]}},{"type":"Feature","properties":{"id":2614,"title":"Open Data Day Nepal 2017 - Rajapur Mapping","status":"PUBLISHED","created":"2017","lastUpdated":"2018","lastActive":"no","area":240.9449448084045,"changesets":0,"mappers":0,"roads":0,"buildings":0,"edits":0,"latest":null},