{"totalEdits":42478616,"totalBuildings":35163111,"totalRoads":902449.873328633,"mappersOnline":134,"totalTasksMapped":1689307,"totalMappers":144250,"totalProjects":4123,"Tanzania":[{"type":"Feature","properties":{"id":4368,"title":"Tanzania Development Trust: Morogoro Community Mapping Project","status":"ARCHIVED","created":"2018","lastUpdated":"2018","lastActive":"no","area":6.725652855463129,"changesets":1281,"mappers":89,"roads":81.8895955188457,"buildings":19328,"edits":20942,"latest":"2018-07-08T14:32:19.000Z"},"geometry":{"type":"Point","coordinates":[37.6521283051778,-6.82130428335325]}},{"type":"Feature","properties":{"id":4894,"title":"Tanzania Development Trust: Manyara FGM 2","status":"PUBLISHED","created":"2018","lastUpdated":"2018","lastActive":"no","area":2355.6428351187137,"changesets":3864,"mappers":326,"roads":1035.67397496495,"buildings":32606,"edits":35318,"latest":"2018-11-06T12:44:19.000Z"},"geometry":{"type":"Point","coordinates":[36.5477142150534,-5.33552036818312]}},{"type":"Feature","properties":{"id":5022,"title":"Mchikichini","status":"PUBLISHED","created":"2018","lastUpdated":"2018","lastActive":"no","area":1.696085516193505,"changesets":668,"mappers":38,"roads":2.21692032106359,"buildings":7214,"edits":8160,"latest":"2018-08-24T13:48:26.000Z"},"geometry":{"type":"Point","coordinates":[39.2653533791413,-6.81925346992819]}},{"type":"Feature","properties":{"id":4480,"title":"S. Monduli, Simanjiro, Tanzania Mini Grids - MapSwipe Project 04 - 01","status":"PUBLISHED","created":"2018","lastUpdated":"2018","lastActive":"no","area":133.48441769177396,"changesets":554,"mappers":60,"roads":0,"buildings":4661,"edits":4661,"latest":"2018-06-29T09:11:00.000Z"},"geometry":{"type":"Point","coordinates":[36.517118656702,-5.00585608461163]}},{"type":"Feature","properties":{"id":4478,"title":"S. Monduli, Simanjiro, Tanzania Mini Grids - MapSwipe Project 04 - 03","status":"PUBLISHED","created":"2018","lastUpdated":"2018","lastActive":"no","area":166.70877071205354,"changesets":123,"mappers":47,"roads":0,"buildings":1480,"edits":1480,"latest":"2018-05-04T09:16:49.000Z"},"geometry":{"type":"Point","coordinates":[37.5536277769889,-5.0036348154615]}},{"type":"Feature","properties":{"id":4405,"title":"Tanzania Development Trust: Rushwa Community Mapping Project","status":"ARCHIVED","created":"2018","lastUpdated":"2018","lastActive":"no","area":28.44762453258442,"changesets":298,"mappers":40,"roads":300.470888123495,"buildings":1582,"edits":3500,"latest":"2018-04-12T05:58:16.000Z"},"geometry":{"type":"Point","coordinates":[31.4939209647812,-1.78766119268283]}},{"type":"Feature","properties":{"id":4324,"title":"Tanzania Development Trust: Nyakaiga Karagwe Community Mapping Project","status":"ARCHIVED","created":"2018","lastUpdated":"2018","lastActive":"no","area":12.111231176337705,"changesets":103,"mappers":12,"roads":99.5600341898669,"buildings":1190,"edits":1678,"latest":"2018-03-18T16:20:36.000Z"},"geometry":{"type":"Point","coordinates":[30.9630721040928,-1.72913994836662]}},{"type":"Feature","properties":{"id":4326,"title":"Tanzania Development Trust: Chamchuzi Karagwe Community Mapping Project","status":"ARCHIVED","created":"2018","lastUpdated":"2018","lastActive":"no","area":14.620352225319428,"changesets":96,"mappers":13,"roads":118.753544967723,"buildings":625,"edits":1031,"latest":"2018-03-18T21:53:31.000Z"},"geometry":{"type":"Point","coordinates":[30.8657918691606,-1.79784583007795]}},{"type":"Feature","properties":{"id":5397,"title":"TPDC_METEOR","status":"PUBLISHED","created":"2018","lastUpdated":"2018","lastActive":"no","area":0.11797338733636886,"changesets":94,"mappers":18,"roads":0.266615772031029,"buildings":517,"edits":536,"latest":"2018-11-01T12:33:09.000Z"},"geometry":{"type":"Point","coordinates":[39.2441458818339,-6.76148596392833]}},{"type":"Feature","properties":{"id":5405,"title":"keko magurumbasi_METEOR","status":"PUBLISHED","created":"2018","lastUpdated":"2018","lastActive":"no","area":0.03630974064275755,"changesets":62,"mappers":8,"roads":0.307114787463726,"buildings":204,"edits":378,"latest":"2018-10-29T07:08:01.000Z"},"geometry":{"type":"Point","coordinates":[39.2738899567246,-6.83651914744131]}},{"type":"Feature","properties":{"id":4418,"title":"Mpwapwa, Dodoma, Tanzania Mini Grids Project 08","status":"PUBLISHED","created":"2018","lastUpdated":"2018","lastActive":"no","area":69.68255741962724,"changesets":1926,"mappers":103,"roads":18.7990415103299,"buildings":25541,"edits":25683,"latest":"2018-05-19T20:41:29.000Z"},"geometry":{"type":"Point","coordinates":[36.4532594329466,-5.95045585855322]}},{"type":"Feature","properties":{"id":4294,"title":"Tanzania Development Trust: Mubunda Muleba Community Mapping Project","status":"ARCHIVED","created":"2018","lastUpdated":"2018","lastActive":"no","area":7.587230914571072,"changesets":306,"mappers":43,"roads":177.651635751973,"buildings":1516,"edits":2786,"latest":"2018-03-16T04:45:19.000Z"},"geometry":{"type":"Point","coordinates":[31.5148740880789,-1.94608709963417]}},{"type":"Feature","properties":{"id":4282,"title":"Tanzania Development Trust: Kamishango Community Mapping Project","status":"ARCHIVED","created":"2018","lastUpdated":"2018","lastActive":"no","area":9.427409216356606,"changesets":237,"mappers":26,"roads":63.4951655647916,"buildings":946,"edits":1796,"latest":"2018-03-27T14:29:57.000Z"},"geometry":{"type":"Point","coordinates":[31.6140883568513,-1.8374625035104]}},{"type":"Feature","properties":{"id":4292,"title":"Tanzania Development Trust: Nyaishozi Karagwe Community Mapping Project","status":"ARCHIVED","created":"2018","lastUpdated":"2018","lastActive":"no","area":34.276689435879305,"changesets":399,"mappers":36,"roads":474.815969390101,"buildings":2973,"edits":4948,"latest":"2018-03-18T21:40:04.000Z"},"geometry":{"type":"Point","coordinates":[31.1192616184384,-1.74718623175017]}},{"type":"Feature","properties":{"id":4824,"title":"Zanzibar-Digitization","status":"PUBLISHED","created":"2018","lastUpdated":"2018","lastActive":"no","area":448.3142744445994,"changesets":603,"mappers":31,"roads":4.54690549735974,"buildings":12573,"edits":12893,"latest":"2018-08-17T09:34:31.000Z"},"geometry":{"type":"Point","coordinates":[39.2874808727826,-5.91212678450974]}},{"type":"Feature","properties":{"id":5321,"title":"Sinza","status":"PUBLISHED","created":"2018","lastUpdated":"2018","lastActive":"no","area":3.361250557091652,"changesets":797,"mappers":22,"roads":1.58255838155942,"buildings":10827,"edits":12143,"latest":"2018-10-12T08:09:26.000Z"},"geometry":{"type":"Point","coordinates":[39.2227970545496,-6.78373809051709]}},{"type":"Feature","properties":{"id":4097,"title":"Kigoma_11","status":"PUBLISHED","created":"2018","lastUpdated":"2018","lastActive":"no","area":4.492849273495634,"changesets":215,"mappers":4,"roads":0,"buildings":5705,"edits":5705,"latest":"2018-02-09T07:23:31.000Z"},"geometry":{"type":"Point","coordinates":[29.8986551180688,-5.94544192098447]}},{"type":"Feature","properties":{"id":5223,"title":"Upanga magharibi 2","status":"PUBLISHED","created":"2018","lastUpdated":"2018","lastActive":"no","area":1.9683936895380227,"changesets":244,"mappers":21,"roads":0.182942871925768,"buildings":1988,"edits":2138,"latest":"2018-10-30T14:15:45.000Z"},"geometry":{"type":"Point","coordinates":[39.2743824403815,-6.80448984469261]}},{"type":"Feature","properties":{"id":4076,"title":"Shinyanga_Tabora_Geita","status":"PUBLISHED","created":"2018","lastUpdated":"2018","lastActive":"no","area":3994.8430365253507,"changesets":50,"mappers":14,"roads":0.000161002645333808,"buildings":2248,"edits":2251,"latest":"2018-08-23T03:54:33.000Z"},"geometry":{"type":"Point","coordinates":[31.8409955510823,-4.30414913053918]}},{"type":"Feature","properties":{"id":5317,"title":"Kijitonyama","status":"PUBLISHED","created":"2018","lastUpdated":"2018","lastActive":"no","area":3.944334462943499,"changesets":984,"mappers":24,"roads":1.36938792486868,"buildings":12348,"edits":13618,"latest":"2018-11-02T12:54:37.000Z"},"geometry":{"type":"Point","coordinates":[39.2362348265782,-6.77781749264387]}},{"type":"Feature","properties":{"id":4956,"title":"Kinyerezi, Dar es Salaam - Ramani Huria 2.0","status":"PUBLISHED","created":"2018","lastUpdated":"2018","lastActive":"no","area":21.432560772199803,"changesets":5,"mappers":2,"roads":1.16885300309378,"buildings":28,"edits":44,"latest":"2018-09-04T03:50:33.000Z"},"geometry":{"type":"Point","coordinates":[39.1504736353186,-6.84213294797882]}},{"type":"Feature","properties":{"id":4896,"title":"Tanzania Development Trust:  Manyara FGM 3","status":"PUBLISHED","created":"2018","lastUpdated":"2018","lastActive":"no","area":2283.4732623040454,"changesets":1771,"mappers":168,"roads":225.333231420998,"buildings":15423,"edits":15979,"latest":"2018-10-24T12:40:31.000Z"},"geometry":{"type":"Point","coordinates":[37.0771755450608,-5.56656722298389]}},{"type":"Feature","properties":{"id":4868,"title":"Kasuku Building Import Workflow Test (South))","status":"ARCHIVED","created":"2018","lastUpdated":"2018","lastActive":"no","area":1.6123125790816706,"changesets":18,"mappers":6,"roads":0.534707746129971,"buildings":276,"edits":281,"latest":"2018-10-09T23:04:15.000Z"},"geometry":{"type":"Point","coordinates":[29.741340447652,-4.90496095600047]}},{"type":"Feature","properties":{"id":4779,"title":"Priority Villages, Kigoma Region, Tanzania Mini Grids Project","status":"PUBLISHED","created":"2018","lastUpdated":"2018","lastActive":"no","area":2340.2938543456194,"changesets":1670,"mappers":48,"roads":0.846639744708577,"buildings":80160,"edits":80298,"latest":"2018-06-28T06:27:08.000Z"},"geometry":{"type":"Point","coordinates":[30.7271476477257,-3.50627583613387]}},{"type":"Feature","properties":{"id":4802,"title":"Priority Villages, Lindi Region, Tanzania Mini Grids Project","status":"PUBLISHED","created":"2018","lastUpdated":"2018","lastActive":"no","area":616.0229189680824,"changesets":447,"mappers":18,"roads":0.198453497004405,"buildings":12715,"edits":12741,"latest":"2018-07-03T09:25:50.000Z"},"geometry":{"type":"Point","coordinates":[38.5089337611704,-10.1840429590014]}},{"type":"Feature","properties":{"id":4749,"title":"Njombe Region, Tanzania Mini Grids Project 04","status":"PUBLISHED","created":"2018","lastUpdated":"2018","lastActive":"no","area":2091.750428289223,"changesets":1152,"mappers":60,"roads":0.294694169499839,"buildings":42342,"edits":42390,"latest":"2018-06-25T11:40:34.000Z"},"geometry":{"type":"Point","coordinates":[34.6803178040892,-9.20303839806522]}},{"type":"Feature","properties":{"id":4806,"title":"Tanzania Development Trust: Salesforce Manyara FGM 1","status":"ARCHIVED","created":"2018","lastUpdated":"2018","lastActive":"no","area":4622.432534591587,"changesets":0,"mappers":0,"roads":0,"buildings":0,"edits":0,"latest":null},"geometry":{"type":"Point","coordinates":[36.6099230731213,-5.44490485431505]}},{"type":"Feature","properties":{"id":4724,"title":"Njombe Region, Tanzania Mini Grids Project 03","status":"PUBLISHED","created":"2018","lastUpdated":"2018","lastActive":"no","area":2136.028082871833,"changesets":1147,"mappers":62,"roads":0.108975939233081,"buildings":37781,"edits":37805,"latest":"2018-07-20T14:13:03.000Z"},"geometry":{"type":"Point","coordinates":[34.6733502170824,-9.09889819240757]}},{"type":"Feature","properties":{"id":4695,"title":"Didia, Jomu, Singita in Shinyanga District, Tanzania Mini Grids Project","status":"PUBLISHED","created":"2018","lastUpdated":"2018","lastActive":"no","area":633.425618192545,"changesets":1071,"mappers":69,"roads":1.1515270702661,"buildings":35118,"edits":35234,"latest":"2018-06-14T10:23:19.000Z"},"geometry":{"type":"Point","coordinates":[33.18986858368,-3.852090824045]}},{"type":"Feature","properties":{"id":4722,"title":"Njombe Region, Tanzania Mini Grids Project 01","status":"PUBLISHED","created":"2018","lastUpdated":"2018","lastActive":"no","area":1960.7678476372357,"changesets":1187,"mappers":61,"roads":1.07364951171986,"buildings":57724,"edits":57843,"latest":"2018-06-14T13:57:46.000Z"},"geometry":{"type":"Point","coordinates":[34.6300177951371,-8.83922964032332]}},{"type":"Feature","properties":{"id":4699,"title":"Mivumoni Village, Pangani District, Tanzania Mini Grids Project","status":"PUBLISHED","created":"2018","lastUpdated":"2018","lastActive":"no","area":0.818188879689272,"changesets":78,"mappers":17,"roads":0.0276900086096642,"buildings":366,"edits":370,"latest":"2018-06-07T14:01:00.000Z"},"geometry":{"type":"Point","coordinates":[38.9036715263947,-5.30813941973504]}},{"type":"Feature","properties":{"id":4715,"title":"Unkuku, Tanzania Mini Grids Project","status":"PUBLISHED","created":"2018","lastUpdated":"2018","lastActive":"no","area":61.28019264301011,"changesets":97,"mappers":36,"roads":0.0672879206278469,"buildings":5732,"edits":5741,"latest":"2018-06-11T07:40:02.000Z"},"geometry":{"type":"Point","coordinates":[35.8233061615055,-4.89298874417756]}},{"type":"Feature","properties":{"id":4435,"title":"Ivugula Village, Tanzania Mini Grids Project 01","status":"PUBLISHED","created":"2018","lastUpdated":"2018","lastActive":"no","area":12.603608518468686,"changesets":270,"mappers":44,"roads":23.4950636574225,"buildings":1686,"edits":2161,"latest":"2018-06-13T18:16:09.000Z"},"geometry":{"type":"Point","coordinates":[33.0729138374781,-8.9949988573835]}},{"type":"Feature","properties":{"id":4353,"title":"Urambo, Tabora, Tanzania Mini Grids Project 06","status":"PUBLISHED","created":"2018","lastUpdated":"2018","lastActive":"no","area":1555.7313427834936,"changesets":2204,"mappers":67,"roads":0.0376777707116761,"buildings":58216,"edits":58229,"latest":"2018-06-29T06:36:08.000Z"},"geometry":{"type":"Point","coordinates":[31.8599232080963,-4.91518059883278]}},{"type":"Feature","properties":{"id":4705,"title":"Songea Rural, Ruvuma, Tanzania Mini Grids Project 04","status":"PUBLISHED","created":"2018","lastUpdated":"2018","lastActive":"no","area":2147.5450650948856,"changesets":969,"mappers":50,"roads":0.278493274043511,"buildings":10699,"edits":10720,"latest":"2018-06-11T13:01:29.000Z"},"geometry":{"type":"Point","coordinates":[35.4447477894203,-10.3729329651658]}},{"type":"Feature","properties":{"id":4652,"title":"Chemba and Bahi Districts, Tanzania Mini Grids Project 01","status":"PUBLISHED","created":"2018","lastUpdated":"2018","lastActive":"no","area":2950.555321557993,"changesets":1731,"mappers":66,"roads":29.3981576364086,"buildings":66133,"edits":66262,"latest":"2018-06-05T14:50:27.000Z"},"geometry":{"type":"Point","coordinates":[35.736869703494,-5.08436705235821]}},{"type":"Feature","properties":{"id":4236,"title":"Tanzania Development Trust: Mitwero, Lindi Community Mapping Project","status":"ARCHIVED","created":"2018","lastUpdated":"2018","lastActive":"no","area":80.77775171781835,"changesets":528,"mappers":67,"roads":468.376805254014,"buildings":2230,"edits":4918,"latest":"2018-06-22T20:06:01.000Z"},"geometry":{"type":"Point","coordinates":[39.7342788001324,-9.91500147746219]}},{"type":"Feature","properties":{"id":4090,"title":"Kigoma_9","status":"PUBLISHED","created":"2018","lastUpdated":"2018","lastActive":"no","area":1.722690665551124,"changesets":290,"mappers":6,"roads":0.249339693562493,"buildings":1929,"edits":1941,"latest":"2018-02-15T09:43:50.000Z"},"geometry":{"type":"Point","coordinates":[29.8251364406655,-6.00624785298935]}},{"type":"Feature","properties":{"id":4087,"title":"Kigoma_6","status":"PUBLISHED","created":"2018","lastUpdated":"2018","lastActive":"no","area":3.103362564009721,"changesets":201,"mappers":8,"roads":0.0059086431357116,"buildings":3802,"edits":3802,"latest":"2018-02-13T11:37:26.000Z"},"geometry":{"type":"Point","coordinates":[29.9589457965824,-6.48575519414831]}},{"type":"Feature","properties":{"id":4637,"title":"Mkakatih Village, Tanzania Mini Grids Project","status":"PUBLISHED","created":"2018","lastUpdated":"2018","lastActive":"no","area":33.36735469325082,"changesets":73,"mappers":32,"roads":0.0531955537922062,"buildings":1062,"edits":1067,"latest":"2018-06-03T11:19:19.000Z"},"geometry":{"type":"Point","coordinates":[35.361299461125,-5.90004952122001]}},{"type":"Feature","properties":{"id":4104,"title":"Kigoma_16","status":"PUBLISHED","created":"2018","lastUpdated":"2018","lastActive":"no","area":7.541560145038916,"changesets":305,"mappers":9,"roads":1.4295542594309,"buildings":2851,"edits":2870,"latest":"2018-02-15T13:37:15.000Z"},"geometry":{"type":"Point","coordinates":[29.8489484173253,-5.57143213951919]}},{"type":"Feature","properties":{"id":4393,"title":"Rungwe, Mbeya, Tanzania Mini Grids Project 02","status":"PUBLISHED","created":"2018","lastUpdated":"2018","lastActive":"no","area":1149.0351365244592,"changesets":2056,"mappers":60,"roads":12.5724590121885,"buildings":72408,"edits":72612,"latest":"2018-04-27T14:03:47.000Z"},"geometry":{"type":"Point","coordinates":[33.8206120731278,-9.26492522635025]}},{"type":"Feature","properties":{"id":3936,"title":"Ardhi University: Housing Development - Arusha, Mateves","status":"PUBLISHED","created":"2017","lastUpdated":"2018","lastActive":"no","area":105.10882142853721,"changesets":3557,"mappers":31,"roads":138.2134241363,"buildings":7500,"edits":8427,"latest":"2018-09-18T17:29:37.000Z"},"geometry":{"type":"Point","coordinates":[36.5984849304599,-3.44764738969127]}},{"type":"Feature","properties":{"id":4477,"title":"S. Monduli, Simanjiro, Tanzania Mini Grids - MapSwipe Project 04 - 04","status":"PUBLISHED","created":"2018","lastUpdated":"2018","lastActive":"no","area":139.74141127398454,"changesets":352,"mappers":54,"roads":0,"buildings":4700,"edits":4700,"latest":"2018-05-04T08:40:26.000Z"},"geometry":{"type":"Point","coordinates":[37.9774679014572,-5.07008836053818]}},{"type":"Feature","properties":{"id":4178,"title":"Mahenye-Njombe","status":"PUBLISHED","created":"2018","lastUpdated":"2018","lastActive":"no","area":419.20452177017404,"changesets":557,"mappers":14,"roads":2.81615930013736,"buildings":28307,"edits":28364,"latest":"2018-02-23T12:45:33.000Z"},"geometry":{"type":"Point","coordinates":[34.8017620296947,-9.5332813093719]}},{"type":"Feature","properties":{"id":4091,"title":"Kigoma_10","status":"PUBLISHED","created":"2018","lastUpdated":"2018","lastActive":"no","area":4.460415768336148,"changesets":220,"mappers":5,"roads":0.0191951062871919,"buildings":3014,"edits":3016,"latest":"2018-02-08T09:50:17.000Z"},"geometry":{"type":"Point","coordinates":[29.8529177399566,-5.98006035960294]}},{"type":"Feature","properties":{"id":4612,"title":"Tabora, Tabora, Tanzania Mini Grids Project 05","status":"PUBLISHED","created":"2018","lastUpdated":"2018","lastActive":"no","area":1989.4559724518444,"changesets":1027,"mappers":62,"roads":1.12987965804484,"buildings":17432,"edits":17662,"latest":"2018-06-01T13:36:34.000Z"},"geometry":{"type":"Point","coordinates":[33.4026607737608,-5.09063064812292]}},{"type":"Feature","properties":{"id":4089,"title":"Kigoma_8","status":"PUBLISHED","created":"2018","lastUpdated":"2018","lastActive":"no","area":3.170194931843662,"changesets":175,"mappers":7,"roads":0.00164720947993757,"buildings":5558,"edits":5558,"latest":"2018-02-15T13:52:57.000Z"},"geometry":{"type":"Point","coordinates":[29.7797396119648,-6.00710814066057]}},{"type":"Feature","properties":{"id":4070,"title":"kagera_1","status":"PUBLISHED","created":"2018","lastUpdated":"2018","lastActive":"no","area":36.69351653109927,"changesets":99,"mappers":15,"roads":19.0433561138005,"buildings":1013,"edits":1130,"latest":"2018-10-29T15:45:32.000Z"},"geometry":{"type":"Point","coordinates":[31.8764181723125,-1.66503615309336]}},{"type":"Feature","properties":{"id":4068,"title":"Kagera_Goziba","status":"PUBLISHED","created":"2018","lastUpdated":"2018","lastActive":"no","area":1.2825061201820658,"changesets":1,"mappers":1,"roads":0,"buildings":0,"edits":0,"latest":"2018-01-27T17:01:56.000Z"},"geometry":{"type":"Point","coordinates":[32.6139163551729,-1.47155678215259]}},{"type":"Feature","properties":{"id":4085,"title":"KIgoma_4","status":"PUBLISHED","created":"2018","lastUpdated":"2018","lastActive":"no","area":2.399888577348453,"changesets":108,"mappers":6,"roads":1.32334526648593,"buildings":3032,"edits":3050,"latest":"2018-02-01T08:56:12.000Z"},"geometry":{"type":"Point","coordinates":[30.0424214657337,-6.45975202845021]}},{"type":"Feature","properties":{"id":4080,"title":"Kagera_2","status":"PUBLISHED","created":"2018","lastUpdated":"2018","lastActive":"no","area":4.132236731942467,"changesets":0,"mappers":0,"roads":0,"buildings":0,"edits":0,"latest":null},"geometry":{"type":"Point","coordinates":[32.1201287375201,-1.47002070001865]}},{"type":"Feature","properties":{"id":4642,"title":"Villages in Pangani District, Tanzania Mini Grids Project","status":"PUBLISHED","created":"2018","lastUpdated":"2018","lastActive":"no","area":3.2853624864693787,"changesets":85,"mappers":27,"roads":0.0728887891265449,"buildings":3068,"edits":3101,"latest":"2018-06-08T10:05:47.000Z"},"geometry":{"type":"Point","coordinates":[38.9510503654064,-5.45416108609809]}},{"type":"Feature","properties":{"id":4479,"title":"S. Monduli, Simanjiro, Tanzania Mini Grids - MapSwipe Project 04 - 02","status":"PUBLISHED","created":"2018","lastUpdated":"2018","lastActive":"no","area":131.2262807333246,"changesets":136,"mappers":50,"roads":0.000165500103078919,"buildings":1412,"edits":1414,"latest":"2018-05-04T09:36:27.000Z"},"geometry":{"type":"Point","coordinates":[37.1526786235933,-4.96896345542438]}},{"type":"Feature","properties":{"id":4584,"title":"Tabora, Tabora, Tanzania Mini Grids Project 02","status":"PUBLISHED","created":"2018","lastUpdated":"2018","lastActive":"no","area":2042.6757607922066,"changesets":1784,"mappers":62,"roads":5.15594602627106,"buildings":37695,"edits":38500,"latest":"2018-06-20T13:55:11.000Z"},"geometry":{"type":"Point","coordinates":[33.388749292109,-4.83616487999496]}},{"type":"Feature","properties":{"id":4499,"title":"Lindi, Lindi, Tanzania Mini Grids Project 05","status":"PUBLISHED","created":"2018","lastUpdated":"2018","lastActive":"no","area":1350.3603655694978,"changesets":1100,"mappers":66,"roads":1.12477553899274,"buildings":28479,"edits":28638,"latest":"2018-06-29T06:31:34.000Z"},"geometry":{"type":"Point","coordinates":[39.5947553137122,-9.74965390209154]}},{"type":"Feature","properties":{"id":4069,"title":"Mwanza_sengerema","status":"PUBLISHED","created":"2018","lastUpdated":"2018","lastActive":"no","area":126.12964780900826,"changesets":1,"mappers":1,"roads":0,"buildings":0,"edits":0,"latest":"2018-01-27T16:55:51.000Z"},"geometry":{"type":"Point","coordinates":[32.0146901070511,-2.29756141820935]}},{"type":"Feature","properties":{"id":4073,"title":"Mara","status":"PUBLISHED","created":"2018","lastUpdated":"2018","lastActive":"no","area":3.087873440053216,"changesets":2,"mappers":1,"roads":0.00231401197004213,"buildings":0,"edits":3,"latest":"2018-11-04T20:32:08.000Z"},"geometry":{"type":"Point","coordinates":[33.7069399133208,-1.4020095593245]}},{"type":"Feature","properties":{"id":4556,"title":"Manyoni, Singida, Tanzania Mini Grids Project 06","status":"PUBLISHED","created":"2018","lastUpdated":"2018","lastActive":"no","area":3110.180831968628,"changesets":1901,"mappers":69,"roads":0.0988541090635963,"buildings":35125,"edits":35164,"latest":"2018-07-11T13:29:54.000Z"},"geometry":{"type":"Point","coordinates":[33.9208946952443,-6.69112747679568]}},{"type":"Feature","properties":{"id":4401,"title":"Kipili Ward, Rukwa, Tanzania Mini Grids Project 01","status":"PUBLISHED","created":"2018","lastUpdated":"2018","lastActive":"no","area":180.26824654575853,"changesets":455,"mappers":51,"roads":0.000599220796289046,"buildings":9512,"edits":9513,"latest":"2018-05-08T10:13:16.000Z"},"geometry":{"type":"Point","coordinates":[30.6487933655884,-7.46688534597107]}},{"type":"Feature","properties":{"id":4572,"title":"Kasulu, Kasulu, Tanzania Mini Grids Project 05","status":"PUBLISHED","created":"2018","lastUpdated":"2018","lastActive":"no","area":2206.993164418614,"changesets":659,"mappers":53,"roads":0.332538602551101,"buildings":7553,"edits":7645,"latest":"2018-06-21T06:47:28.000Z"},"geometry":{"type":"Point","coordinates":[30.6215386726987,-4.76597813768529]}},{"type":"Feature","properties":{"id":4570,"title":"Kasulu, Kasulu, Tanzania Mini Grids Project 03","status":"PUBLISHED","created":"2018","lastUpdated":"2018","lastActive":"no","area":1652.0254948432712,"changesets":774,"mappers":62,"roads":0.25450019539659,"buildings":10336,"edits":10388,"latest":"2018-07-18T11:48:21.000Z"},"geometry":{"type":"Point","coordinates":[30.5130429954929,-4.22710402465406]}},{"type":"Feature","properties":{"id":4533,"title":"Manyoni, Singida, Tanzania Mini Grids Project 03","status":"PUBLISHED","created":"2018","lastUpdated":"2018","lastActive":"no","area":2145.5742223790444,"changesets":1111,"mappers":60,"roads":11.822358790697,"buildings":20618,"edits":21074,"latest":"2018-05-18T13:10:25.000Z"},"geometry":{"type":"Point","coordinates":[34.9997702528283,-5.75710614386221]}},{"type":"Feature","properties":{"id":4509,"title":"Central Singida, Singida, Tanzania Mini Grids Project 01 East","status":"PUBLISHED","created":"2018","lastUpdated":"2018","lastActive":"no","area":1475.3604875927692,"changesets":937,"mappers":67,"roads":0.0165898988823745,"buildings":11972,"edits":11978,"latest":"2018-06-28T10:08:59.000Z"},"geometry":{"type":"Point","coordinates":[34.1286284936251,-5.08363727457584]}},{"type":"Feature","properties":{"id":4424,"title":"Tunduru, Ruvuma, Tanzania Mini Grids Project 02","status":"PUBLISHED","created":"2018","lastUpdated":"2018","lastActive":"no","area":1549.6766515243964,"changesets":855,"mappers":63,"roads":0.0711115935309787,"buildings":21117,"edits":21136,"latest":"2018-05-07T07:56:42.000Z"},"geometry":{"type":"Point","coordinates":[37.1622341886943,-11.3445956375813]}},{"type":"Feature","properties":{"id":4419,"title":"Mpwapwa, Dodoma, Tanzania Mini Grids Project 06","status":"PUBLISHED","created":"2018","lastUpdated":"2018","lastActive":"no","area":1290.5067497887903,"changesets":2176,"mappers":91,"roads":10.7518575631284,"buildings":54733,"edits":54794,"latest":"2018-06-30T12:14:33.000Z"},"geometry":{"type":"Point","coordinates":[36.516398356325,-6.30752944180002]}},{"type":"Feature","properties":{"id":4528,"title":"Central Singida, Singida, Tanzania Mini Grids Project 04 South","status":"PUBLISHED","created":"2018","lastUpdated":"2018","lastActive":"no","area":2679.1732629690173,"changesets":1170,"mappers":63,"roads":0.0259764287875841,"buildings":20358,"edits":20362,"latest":"2018-05-17T13:46:29.000Z"},"geometry":{"type":"Point","coordinates":[34.7279889209458,-5.4378630362986]}},{"type":"Feature","properties":{"id":4386,"title":"Igalula Ward, Kigoma, Tanzania Mini Grids Project 01","status":"PUBLISHED","created":"2018","lastUpdated":"2018","lastActive":"no","area":1169.7270185651328,"changesets":912,"mappers":37,"roads":0.00817977234302703,"buildings":9782,"edits":9783,"latest":"2018-04-17T14:00:26.000Z"},"geometry":{"type":"Point","coordinates":[30.1160375593605,-6.04163687332309]}},{"type":"Feature","properties":{"id":4378,"title":"Tunduru, Ruvuma, Tanzania Mini Grids Project 03","status":"PUBLISHED","created":"2018","lastUpdated":"2018","lastActive":"no","area":1369.2568876847938,"changesets":1018,"mappers":60,"roads":0.263537837490913,"buildings":23394,"edits":23430,"latest":"2018-05-03T13:14:28.000Z"},"geometry":{"type":"Point","coordinates":[37.4088345476761,-11.1598554676675]}},{"type":"Feature","properties":{"id":4355,"title":"Urambo, Tabora, Tanzania Mini Grids Project 08","status":"PUBLISHED","created":"2018","lastUpdated":"2018","lastActive":"no","area":1512.9535222617567,"changesets":1803,"mappers":62,"roads":0.0539411172980745,"buildings":55003,"edits":55009,"latest":"2018-06-29T06:38:59.000Z"},"geometry":{"type":"Point","coordinates":[32.0314904614418,-4.67837737836096]}},{"type":"Feature","properties":{"id":4369,"title":"Tanzania Development Trust: Kagera Road Mapping","status":"PUBLISHED","created":"2018","lastUpdated":"2018","lastActive":"no","area":15505.318016681384,"changesets":75,"mappers":7,"roads":775.676299576141,"buildings":409,"edits":1084,"latest":"2018-10-04T02:54:16.000Z"},"geometry":{"type":"Point","coordinates":[31.2684925052969,-1.52351392671619]}},{"type":"Feature","properties":{"id":4290,"title":"Mbozi, Mbeya, Tanzania Mini Grids Project 04","status":"PUBLISHED","created":"2018","lastUpdated":"2018","lastActive":"no","area":1211.7161084477548,"changesets":1961,"mappers":76,"roads":1447.81448250183,"buildings":48428,"edits":51301,"latest":"2018-07-03T09:24:27.000Z"},"geometry":{"type":"Point","coordinates":[32.6205051070244,-8.88427358395356]}},{"type":"Feature","properties":{"id":4034,"title":"RiftValley Energy houses count","status":"PUBLISHED","created":"2018","lastUpdated":"2018","lastActive":"no","area":3182.0339068213334,"changesets":1196,"mappers":18,"roads":2.25560241095201,"buildings":73824,"edits":74303,"latest":"2018-02-13T09:48:18.000Z"},"geometry":{"type":"Point","coordinates":[35.6106991071965,-8.43031266072661]}},{"type":"Feature","properties":{"id":4350,"title":"Mbozi, Mbeya, Tanzania Mini Grids Project 07","status":"PUBLISHED","created":"2018","lastUpdated":"2018","lastActive":"no","area":908.5380955685306,"changesets":1211,"mappers":61,"roads":663.566242525814,"buildings":34908,"edits":35996,"latest":"2018-06-29T06:38:08.000Z"},"geometry":{"type":"Point","coordinates":[32.4493880644302,-8.42765633103931]}},{"type":"Feature","properties":{"id":4242,"title":"Kalobe-Data Zetu","status":"PUBLISHED","created":"2018","lastUpdated":"2018","lastActive":"no","area":5.581452341462152,"changesets":531,"mappers":5,"roads":0.0106237188235286,"buildings":6096,"edits":6109,"latest":"2018-03-07T09:02:49.000Z"},"geometry":{"type":"Point","coordinates":[33.4118519974232,-8.91506853593005]}},{"type":"Feature","properties":{"id":4323,"title":"Tanzania Development Trust: Simiyu South","status":"PUBLISHED","created":"2018","lastUpdated":"2018","lastActive":"yes","area":3977.4740524717954,"changesets":7370,"mappers":554,"roads":5133.95490947265,"buildings":86887,"edits":103584,"latest":"2018-11-08T02:53:51.000Z"},"geometry":{"type":"Point","coordinates":[34.3684346241635,-3.14466084541383]}},{"type":"Feature","properties":{"id":5395,"title":"Pwani 2_METEOR","status":"PUBLISHED","created":"2018","lastUpdated":"2018","lastActive":"no","area":0.3697493857621717,"changesets":0,"mappers":0,"roads":0,"buildings":0,"edits":0,"latest":null},"geometry":{"type":"Point","coordinates":[39.0994490443233,-6.90247043542125]}},{"type":"Feature","properties":{"id":5204,"title":"Makumbusho","status":"PUBLISHED","created":"2018","lastUpdated":"2018","lastActive":"no","area":1.7495807696096894,"changesets":1019,"mappers":20,"roads":5.8505806882872,"buildings":7506,"edits":9235,"latest":"2018-11-07T13:50:16.000Z"},"geometry":{"type":"Point","coordinates":[39.2508110711774,-6.78966677791311]}},{"type":"Feature","properties":{"id":4286,"title":"Mbozi, Mbeya, Tanzania Mini Grids Project 01","status":"PUBLISHED","created":"2018","lastUpdated":"2018","lastActive":"no","area":1427.754247465411,"changesets":3571,"mappers":68,"roads":3017.7661095466,"buildings":84064,"edits":91962,"latest":"2018-06-14T11:11:25.000Z"},"geometry":{"type":"Point","coordinates":[32.9022184031242,-9.22410127231269]}},{"type":"Feature","properties":{"id":4487,"title":"Lindi, Lindi, Tanzania Mini Grids Project 01","status":"PUBLISHED","created":"2018","lastUpdated":"2018","lastActive":"no","area":2262.000623549842,"changesets":1674,"mappers":68,"roads":0.902342152134417,"buildings":56663,"edits":56749,"latest":"2018-05-14T14:03:37.000Z"},"geometry":{"type":"Point","coordinates":[38.9173096989872,-10.0781727355739]}},{"type":"Feature","properties":{"id":4365,"title":"Urambo, Tabora, Tanzania Mini Grids Project 03","status":"PUBLISHED","created":"2018","lastUpdated":"2018","lastActive":"no","area":1398.7624508238905,"changesets":1473,"mappers":69,"roads":0.043434080974496,"buildings":34954,"edits":34964,"latest":"2018-07-04T09:28:23.000Z"},"geometry":{"type":"Point","coordinates":[31.8238581030413,-5.21876565720349]}},{"type":"Feature","properties":{"id":4518,"title":"Central Singida, Singida, Tanzania Mini Grids Project 02","status":"PUBLISHED","created":"2018","lastUpdated":"2018","lastActive":"no","area":1414.1192851427202,"changesets":882,"mappers":58,"roads":0.0239845493890909,"buildings":17063,"edits":17069,"latest":"2018-05-17T08:50:47.000Z"},"geometry":{"type":"Point","coordinates":[34.4158854962968,-5.10944094991503]}},{"type":"Feature","properties":{"id":4376,"title":"Urambo, Tabora, Tanzania Mini Grids Project 01-02","status":"PUBLISHED","created":"2018","lastUpdated":"2018","lastActive":"no","area":2032.586550505636,"changesets":2264,"mappers":60,"roads":0.977625727876198,"buildings":26878,"edits":26920,"latest":"2018-06-19T08:37:22.000Z"},"geometry":{"type":"Point","coordinates":[31.7287992798091,-5.3745816051939]}},{"type":"Feature","properties":{"id":4585,"title":"Tabora, Tabora, Tanzania Mini Grids Project 03","status":"PUBLISHED","created":"2018","lastUpdated":"2018","lastActive":"no","area":1693.3910497782038,"changesets":1678,"mappers":65,"roads":5.09675418876548,"buildings":25872,"edits":26598,"latest":"2018-05-30T13:54:08.000Z"},"geometry":{"type":"Point","coordinates":[32.6289834190743,-5.08439195561257]}},{"type":"Feature","properties":{"id":4489,"title":"Lindi, Lindi, Tanzania Mini Grids Project 03","status":"PUBLISHED","created":"2018","lastUpdated":"2018","lastActive":"no","area":1972.6554027241687,"changesets":1117,"mappers":68,"roads":0.712816430807669,"buildings":37574,"edits":37626,"latest":"2018-07-04T09:33:22.000Z"},"geometry":{"type":"Point","coordinates":[39.2489990334018,-10.1470862126786]}},{"type":"Feature","properties":{"id":4411,"title":"Tunduru, Ruvuma, Tanzania Mini Grids Project 05","status":"PUBLISHED","created":"2018","lastUpdated":"2018","lastActive":"no","area":1479.9129003136538,"changesets":1947,"mappers":62,"roads":3.59696148842831,"buildings":30085,"edits":30123,"latest":"2018-05-17T04:42:41.000Z"},"geometry":{"type":"Point","coordinates":[37.4466069429557,-10.8885669665714]}},{"type":"Feature","properties":{"id":4620,"title":"Misungwi, Mwanza, Tanzania Mini Grids Project 01","status":"PUBLISHED","created":"2018","lastUpdated":"2018","lastActive":"no","area":1505.6277470567059,"changesets":2108,"mappers":68,"roads":13.4694336037439,"buildings":52916,"edits":53379,"latest":"2018-07-27T10:35:50.000Z"},"geometry":{"type":"Point","coordinates":[32.9858926670162,-3.06285488354204]}},{"type":"Feature","properties":{"id":4654,"title":"Chemba and Bahi Districts, Tanzania Mini Grids Project 03","status":"PUBLISHED","created":"2018","lastUpdated":"2018","lastActive":"no","area":1954.525377556312,"changesets":1245,"mappers":41,"roads":0.106920348528221,"buildings":20636,"edits":20657,"latest":"2018-06-05T14:25:23.000Z"},"geometry":{"type":"Point","coordinates":[35.5847311116868,-5.42682995375007]}},{"type":"Feature","properties":{"id":4623,"title":"Rufiji, Pwani, Tanzania Mini Grids Project 03","status":"PUBLISHED","created":"2018","lastUpdated":"2018","lastActive":"no","area":1539.3249459809983,"changesets":1141,"mappers":46,"roads":0.239674830143507,"buildings":25465,"edits":25525,"latest":"2018-06-13T07:45:23.000Z"},"geometry":{"type":"Point","coordinates":[39.2743309681675,-7.88542189986384]}},{"type":"Feature","properties":{"id":4646,"title":"Chemba District Villages, Tanzania Mini Grids Project","status":"PUBLISHED","created":"2018","lastUpdated":"2018","lastActive":"no","area":4.696678039184461,"changesets":75,"mappers":22,"roads":0.00801516130593583,"buildings":2731,"edits":2732,"latest":"2018-06-03T12:03:34.000Z"},"geometry":{"type":"Point","coordinates":[35.8524726241387,-5.16212165410825]}},{"type":"Feature","properties":{"id":4648,"title":"Lituhi, Luhagara, Ruanda Villages, Tanzania Mini Grids Project","status":"PUBLISHED","created":"2018","lastUpdated":"2018","lastActive":"no","area":8.186367673131722,"changesets":107,"mappers":30,"roads":0.135942160373434,"buildings":3904,"edits":3924,"latest":"2018-06-02T13:59:59.000Z"},"geometry":{"type":"Point","coordinates":[34.8120555554809,-10.543189622308]}},{"type":"Feature","properties":{"id":4703,"title":"Songea Rural, Ruvuma, Tanzania Mini Grids Project 01","status":"PUBLISHED","created":"2018","lastUpdated":"2018","lastActive":"no","area":1371.4453556338517,"changesets":58,"mappers":25,"roads":0,"buildings":427,"edits":427,"latest":"2018-06-11T08:40:02.000Z"},"geometry":{"type":"Point","coordinates":[35.7177908333874,-9.44419853155089]}},{"type":"Feature","properties":{"id":4656,"title":"Chemba and Bahi Districts, Tanzania Mini Grids Project 05","status":"PUBLISHED","created":"2018","lastUpdated":"2018","lastActive":"no","area":1943.7393401406555,"changesets":2139,"mappers":66,"roads":1.37724754241375,"buildings":26302,"edits":26408,"latest":"2018-06-14T08:37:58.000Z"},"geometry":{"type":"Point","coordinates":[35.693942385692,-5.27392956674015]}},{"type":"Feature","properties":{"id":4720,"title":"Songea Rural, Ruvuma, Tanzania Mini Grids Project 06","status":"PUBLISHED","created":"2018","lastUpdated":"2018","lastActive":"no","area":2093.4548563322423,"changesets":1609,"mappers":64,"roads":0.38231113496823,"buildings":15223,"edits":15257,"latest":"2018-08-16T09:02:58.000Z"},"geometry":{"type":"Point","coordinates":[35.5405077869131,-11.013967365302]}},{"type":"Feature","properties":{"id":4531,"title":"Manyoni, Singida, Tanzania Mini Grids Project 01","status":"PUBLISHED","created":"2018","lastUpdated":"2018","lastActive":"no","area":1326.5528682624965,"changesets":589,"mappers":58,"roads":0.134107026616461,"buildings":7569,"edits":7586,"latest":"2018-05-18T10:04:10.000Z"},"geometry":{"type":"Point","coordinates":[34.6075539482003,-5.56288622408193]}},{"type":"Feature","properties":{"id":4752,"title":"Njombe Region, Tanzania Mini Grids Project 06","status":"PUBLISHED","created":"2018","lastUpdated":"2018","lastActive":"no","area":1905.0649927180077,"changesets":959,"mappers":31,"roads":0.380572673185507,"buildings":29189,"edits":29249,"latest":"2018-07-02T08:52:44.000Z"},"geometry":{"type":"Point","coordinates":[34.7557342888488,-9.41123960482513]}},{"type":"Feature","properties":{"id":4035,"title":"TZ IFC Mini-grids house count test-1","status":"PUBLISHED","created":"2018","lastUpdated":"2018","lastActive":"no","area":481.70619678590833,"changesets":3,"mappers":3,"roads":0,"buildings":180,"edits":180,"latest":"2018-02-09T12:27:18.000Z"},"geometry":{"type":"Point","coordinates":[33.965651545629,-6.53613031653059]}},{"type":"Feature","properties":{"id":5201,"title":"Mbagala Kuu","status":"PUBLISHED","created":"2018","lastUpdated":"2018","lastActive":"no","area":6.586352566704119,"changesets":696,"mappers":18,"roads":2.03386537084955,"buildings":7935,"edits":8531,"latest":"2018-10-18T10:59:16.000Z"},"geometry":{"type":"Point","coordinates":[39.2823935446052,-6.90745859327607]}},{"type":"Feature","properties":{"id":5147,"title":"Buguruni","status":"PUBLISHED","created":"2018","lastUpdated":"2018","lastActive":"no","area":3.4752018850888398,"changesets":1320,"mappers":39,"roads":4.89305254742564,"buildings":15862,"edits":19963,"latest":"2018-09-11T11:11:16.000Z"},"geometry":{"type":"Point","coordinates":[39.2449507288679,-6.83166163112609]}},{"type":"Feature","properties":{"id":5151,"title":"Sandali","status":"PUBLISHED","created":"2018","lastUpdated":"2018","lastActive":"no","area":2.754693570123113,"changesets":1143,"mappers":35,"roads":0.699111235055833,"buildings":7843,"edits":8260,"latest":"2018-09-18T13:58:19.000Z"},"geometry":{"type":"Point","coordinates":[39.2468576140869,-6.85541663438858]}},{"type":"Feature","properties":{"id":3395,"title":"Missing Maps: Dar es Salaam - Ramani Huria 2.0 - 23","status":"PUBLISHED","created":"2017","lastUpdated":"2018","lastActive":"no","area":200.39044222285065,"changesets":11931,"mappers":207,"roads":6.40062292346281,"buildings":130739,"edits":132569,"latest":"2017-12-05T17:05:23.000Z"},"geometry":{"type":"Point","coordinates":[39.1952993835025,-6.91753429051324]}},{"type":"Feature","properties":{"id":4098,"title":"Kigoma_12","status":"PUBLISHED","created":"2018","lastUpdated":"2018","lastActive":"no","area":3.729917625288736,"changesets":479,"mappers":6,"roads":0.434900266530263,"buildings":2941,"edits":2951,"latest":"2018-02-12T06:53:36.000Z"},"geometry":{"type":"Point","coordinates":[29.9407499224054,-5.92574349921846]}},{"type":"Feature","properties":{"id":4100,"title":"Kigoma_14","status":"PUBLISHED","created":"2018","lastUpdated":"2018","lastActive":"no","area":0.8979043606940176,"changesets":179,"mappers":9,"roads":0,"buildings":906,"edits":906,"latest":"2018-02-16T06:08:51.000Z"},"geometry":{"type":"Point","coordinates":[29.6417696354094,-4.62513776686475]}},{"type":"Feature","properties":{"id":4071,"title":"kagera_2","status":"PUBLISHED","created":"2018","lastUpdated":"2018","lastActive":"no","area":3.850874321865156,"changesets":0,"mappers":0,"roads":0,"buildings":0,"edits":0,"latest":null},"geometry":{"type":"Point","coordinates":[32.1200972473445,-1.47063756855484]}},{"type":"Feature","properties":{"id":4039,"title":"Muheza malaria","status":"PUBLISHED","created":"2018","lastUpdated":"2018","lastActive":"no","area":580.7567384439337,"changesets":423,"mappers":18,"roads":9.04284919882175,"buildings":24405,"edits":24586,"latest":"2018-06-03T11:25:54.000Z"},"geometry":{"type":"Point","coordinates":[38.7417335509028,-5.18899896137586]}},{"type":"Feature","properties":{"id":4083,"title":"Kigoma_2","status":"PUBLISHED","created":"2018","lastUpdated":"2018","lastActive":"no","area":1.965158778543636,"changesets":127,"mappers":2,"roads":0,"buildings":458,"edits":458,"latest":"2018-01-30T14:04:27.000Z"},"geometry":{"type":"Point","coordinates":[30.4906126271375,-6.81467605913481]}},{"type":"Feature","properties":{"id":5326,"title":"Gerezani 2","status":"PUBLISHED","created":"2018","lastUpdated":"2018","lastActive":"no","area":0.1378230000413372,"changesets":53,"mappers":16,"roads":0.00932165201596649,"buildings":205,"edits":254,"latest":"2018-10-05T10:46:52.000Z"},"geometry":{"type":"Point","coordinates":[39.2777012004308,-6.82897780332198]}},{"type":"Feature","properties":{"id":5338,"title":"Tabata_Msimbazi","status":"PUBLISHED","created":"2018","lastUpdated":"2018","lastActive":"no","area":2.7361327645312596,"changesets":598,"mappers":22,"roads":1.52976158880248,"buildings":5381,"edits":5750,"latest":"2018-10-29T18:04:45.000Z"},"geometry":{"type":"Point","coordinates":[39.2210232072559,-6.83783297253043]}},{"type":"Feature","properties":{"id":5191,"title":"Arusha Urban","status":"PUBLISHED","created":"2018","lastUpdated":"2018","lastActive":"no","area":21.060253845499485,"changesets":413,"mappers":39,"roads":6.48559746623165,"buildings":9274,"edits":9490,"latest":"2018-10-31T10:42:54.000Z"},"geometry":{"type":"Point","coordinates":[36.6801067826224,-3.35473835249449]}},{"type":"Feature","properties":{"id":4075,"title":"Dodoma","status":"PUBLISHED","created":"2018","lastUpdated":"2018","lastActive":"no","area":1376.1461971097149,"changesets":0,"mappers":0,"roads":0,"buildings":0,"edits":0,"latest":null},"geometry":{"type":"Point","coordinates":[35.3514681701632,-6.85449726635633]}},{"type":"Feature","properties":{"id":2177,"title":"Earthquake in Uganda and Tanzania, 10/09/2016 - SE of Epicenter Buildings Mapping","status":"ARCHIVED","created":"2016","lastUpdated":"2016","lastActive":"no","area":40.23315767364361,"changesets":615,"mappers":44,"roads":80.1324630799427,"buildings":4510,"edits":6507,"latest":"2016-09-29T09:44:41.000Z"},"geometry":{"type":"Point","coordinates":[31.6705138437158,-1.26898587395043]}},{"type":"Feature","properties":{"id":3698,"title":"Missing Maps: Kyela - Data Zetu","status":"PUBLISHED","created":"2017","lastUpdated":"2018","lastActive":"no","area":251.55720854707542,"changesets":802,"mappers":12,"roads":5.58626698624379,"buildings":29269,"edits":29469,"latest":"2018-07-19T11:51:17.000Z"},"geometry":{"type":"Point","coordinates":[33.8935261689772,-9.52003925109173]}},{"type":"Feature","properties":{"id":5389,"title":"Karakata_METEOR","status":"PUBLISHED","created":"2018","lastUpdated":"2018","lastActive":"no","area":0.06278618638144412,"changesets":169,"mappers":16,"roads":0.00354592966511319,"buildings":653,"edits":657,"latest":"2018-10-29T08:18:50.000Z"},"geometry":{"type":"Point","coordinates":[39.2067495928809,-6.8487382427679]}},{"type":"Feature","properties":{"id":5387,"title":"Kagera Mikoroshoni_METEOR","status":"PUBLISHED","created":"2018","lastUpdated":"2018","lastActive":"no","area":0.08697368560971801,"changesets":267,"mappers":16,"roads":0.854564025781823,"buildings":1018,"edits":1290,"latest":"2018-10-26T11:50:08.000Z"},"geometry":{"type":"Point","coordinates":[39.2429037515631,-6.79943400787608]}},{"type":"Feature","properties":{"id":3670,"title":"Zanzibar Roads - Unguja Island - 03","status":"PUBLISHED","created":"2017","lastUpdated":"2018","lastActive":"no","area":891.0473088683418,"changesets":412,"mappers":18,"roads":2063.39671273259,"buildings":162,"edits":11431,"latest":"2018-09-29T05:14:47.000Z"},"geometry":{"type":"Point","coordinates":[39.4232119996911,-6.23876844212124]}},{"type":"Feature","properties":{"id":4118,"title":"Tanzania Development Trust: Sawida District","status":"PUBLISHED","created":"2018","lastUpdated":"2018","lastActive":"no","area":924.6478975466252,"changesets":13653,"mappers":942,"roads":9869.79006101959,"buildings":151154,"edits":222434,"latest":"2018-11-04T17:19:16.000Z"},"geometry":{"type":"Point","coordinates":[33.6565874086871,-2.84887404346591]}},{"type":"Feature","properties":{"id":4036,"title":"TZ IFC Mini-grids house count test-2","status":"PUBLISHED","created":"2018","lastUpdated":"2018","lastActive":"no","area":481.70619678590833,"changesets":2181,"mappers":13,"roads":36.3868917119351,"buildings":181981,"edits":182647,"latest":"2018-02-23T15:15:42.000Z"},"geometry":{"type":"Point","coordinates":[33.965651545629,-6.53613031653059]}},{"type":"Feature","properties":{"id":5194,"title":"Hananasifu","status":"PUBLISHED","created":"2018","lastUpdated":"2018","lastActive":"no","area":1.8382439011755702,"changesets":775,"mappers":19,"roads":3.34109193738527,"buildings":6357,"edits":7943,"latest":"2018-10-03T07:37:03.000Z"},"geometry":{"type":"Point","coordinates":[39.2696283358805,-6.79609178054355]}},{"type":"Feature","properties":{"id":4978,"title":"Tanzania Development Trust: Magata Karutonga  Community Mapping Project","status":"ARCHIVED","created":"2018","lastUpdated":"2018","lastActive":"no","area":34.0634342157299,"changesets":760,"mappers":56,"roads":433.264175834421,"buildings":3163,"edits":6211,"latest":"2018-08-19T16:59:22.000Z"},"geometry":{"type":"Point","coordinates":[31.6336096442559,-1.87369450984158]}},{"type":"Feature","properties":{"id":5427,"title":"Tanzania missing buildings Mwanga District","status":"PUBLISHED","created":"2018","lastUpdated":"2018","lastActive":"yes","area":531.5288207222752,"changesets":2713,"mappers":300,"roads":230.050457654181,"buildings":21979,"edits":23076,"latest":"2018-11-08T04:22:04.000Z"},"geometry":{"type":"Point","coordinates":[37.6385252591535,-3.69810262753919]}},{"type":"Feature","properties":{"id":4406,"title":"Tanzania Development Trust: Kyaibumba Community Mapping Project","status":"ARCHIVED","created":"2018","lastUpdated":"2018","lastActive":"no","area":14.678296379059542,"changesets":158,"mappers":30,"roads":133.357573789262,"buildings":795,"edits":1536,"latest":"2018-04-09T12:26:56.000Z"},"geometry":{"type":"Point","coordinates":[31.4548536327291,-1.9073101465972]}},{"type":"Feature","properties":{"id":5030,"title":"Mzimuni","status":"PUBLISHED","created":"2018","lastUpdated":"2018","lastActive":"no","area":1.2272442307232991,"changesets":716,"mappers":28,"roads":1.03965932616205,"buildings":6152,"edits":7023,"latest":"2018-08-31T11:15:01.000Z"},"geometry":{"type":"Point","coordinates":[39.2573050529511,-6.81085336649721]}},{"type":"Feature","properties":{"id":4316,"title":"Tanzania Development Trust: Ngara Community Mapping Project","status":"ARCHIVED","created":"2018","lastUpdated":"2018","lastActive":"no","area":5.680090353476652,"changesets":293,"mappers":44,"roads":80.4486420340574,"buildings":3478,"edits":4114,"latest":"2018-03-30T14:34:54.000Z"},"geometry":{"type":"Point","coordinates":[30.6563660461257,-2.51312893241178]}},{"type":"Feature","properties":{"id":4281,"title":"Tanzania Development Trust: Muleba Community Mapping Project","status":"ARCHIVED","created":"2018","lastUpdated":"2018","lastActive":"no","area":7.595025994574089,"changesets":807,"mappers":46,"roads":152.380940730158,"buildings":3685,"edits":5608,"latest":"2018-03-14T04:07:41.000Z"},"geometry":{"type":"Point","coordinates":[31.6560461932452,-1.84575729647524]}},{"type":"Feature","properties":{"id":4293,"title":"Tanzania Development Trust: Kibirizi Community Mapping Project","status":"ARCHIVED","created":"2018","lastUpdated":"2018","lastActive":"no","area":75.76463029779623,"changesets":932,"mappers":112,"roads":628.528332051034,"buildings":2461,"edits":8182,"latest":"2018-03-25T15:01:12.000Z"},"geometry":{"type":"Point","coordinates":[31.4031606875565,-1.63216015619948]}},{"type":"Feature","properties":{"id":5028,"title":"Keko","status":"PUBLISHED","created":"2018","lastUpdated":"2018","lastActive":"no","area":1.4649293626540205,"changesets":1033,"mappers":36,"roads":3.96567970367937,"buildings":8564,"edits":10636,"latest":"2018-08-29T12:46:37.000Z"},"geometry":{"type":"Point","coordinates":[39.275538576061,-6.83599209301762]}},{"type":"Feature","properties":{"id":4329,"title":"Tanzania Development Trust: Chabuhora Karagwe Community Mapping Project","status":"ARCHIVED","created":"2018","lastUpdated":"2018","lastActive":"no","area":29.098942849205926,"changesets":337,"mappers":36,"roads":136.59546293545,"buildings":2260,"edits":3376,"latest":"2018-03-20T08:56:00.000Z"},"geometry":{"type":"Point","coordinates":[30.9793967385239,-1.78282439868476]}},{"type":"Feature","properties":{"id":5027,"title":"Ilala","status":"PUBLISHED","created":"2018","lastUpdated":"2018","lastActive":"no","area":2.1401569895589914,"changesets":990,"mappers":36,"roads":0.685158972388243,"buildings":8391,"edits":9512,"latest":"2018-09-05T11:06:57.000Z"},"geometry":{"type":"Point","coordinates":[39.2595696928926,-6.82787629400169]}},{"type":"Feature","properties":{"id":5021,"title":"Upanga_Mashariki","status":"PUBLISHED","created":"2018","lastUpdated":"2018","lastActive":"no","area":1.4528463303068069,"changesets":556,"mappers":36,"roads":0.210929800621173,"buildings":3591,"edits":3907,"latest":"2018-08-23T07:15:45.000Z"},"geometry":{"type":"Point","coordinates":[39.2817166819394,-6.80692717291293]}},{"type":"Feature","properties":{"id":5132,"title":"Mbeya","status":"PUBLISHED","created":"2018","lastUpdated":"2018","lastActive":"no","area":32.205542095178586,"changesets":1096,"mappers":149,"roads":10.112548747506,"buildings":22237,"edits":23434,"latest":"2018-09-21T09:26:09.000Z"},"geometry":{"type":"Point","coordinates":[33.4905580602805,-8.88468840419366]}},{"type":"Feature","properties":{"id":3666,"title":"Zanzibar Roads - Unguja Island - 02","status":"PUBLISHED","created":"2017","lastUpdated":"2017","lastActive":"no","area":467.0999763333136,"changesets":182,"mappers":13,"roads":1127.1061948184,"buildings":5,"edits":6570,"latest":"2017-10-04T08:29:26.000Z"},"geometry":{"type":"Point","coordinates":[39.2879567596863,-5.91889676940709]}},{"type":"Feature","properties":{"id":3313,"title":"Tanzania Development Trust: Muzye, Muhunga and Bugaga wards community mapping project ","status":"PUBLISHED","created":"2017","lastUpdated":"2018","lastActive":"no","area":467.01646755665894,"changesets":1340,"mappers":89,"roads":2020.46900906235,"buildings":22145,"edits":37322,"latest":"2018-06-25T20:56:57.000Z"},"geometry":{"type":"Point","coordinates":[30.0142412007814,-4.64239965954966]}},{"type":"Feature","properties":{"id":4082,"title":"Kigoma_1","status":"PUBLISHED","created":"2018","lastUpdated":"2018","lastActive":"no","area":3.220895758602432,"changesets":128,"mappers":5,"roads":0,"buildings":3113,"edits":3113,"latest":"2018-02-19T11:05:31.000Z"},"geometry":{"type":"Point","coordinates":[30.4406843233075,-6.82013200035033]}},{"type":"Feature","properties":{"id":4357,"title":"Tanzania Development Trust: Rungwe Kasulu Community Mapping Project","status":"ARCHIVED","created":"2018","lastUpdated":"2018","lastActive":"no","area":1013.1767777919853,"changesets":5552,"mappers":409,"roads":4999.48387166667,"buildings":20822,"edits":49162,"latest":"2018-06-17T14:10:03.000Z"},"geometry":{"type":"Point","coordinates":[30.2493018751241,-4.77015701562809]}},{"type":"Feature","properties":{"id":2242,"title":"Missing Maps: Dar es Salaam - Ramani Huria 8","status":"PUBLISHED","created":"2016","lastUpdated":"2017","lastActive":"no","area":18.297857125006182,"changesets":402,"mappers":13,"roads":17.3508405937143,"buildings":9226,"edits":9722,"latest":"2016-12-08T19:06:28.000Z"},"geometry":{"type":"Point","coordinates":[39.195813069098,-6.75985279702227]}},{"type":"Feature","properties":{"id":4072,"title":"kagera_3","status":"PUBLISHED","created":"2018","lastUpdated":"2018","lastActive":"no","area":5.425110699350517,"changesets":66,"mappers":4,"roads":0,"buildings":1436,"edits":1436,"latest":"2018-01-30T06:14:28.000Z"},"geometry":{"type":"Point","coordinates":[31.7868173826187,-1.9820906918101]}},{"type":"Feature","properties":{"id":3329,"title":"Ramani Huria 2.0 Session 01","status":"PUBLISHED","created":"2017","lastUpdated":"2017","lastActive":"no","area":31.68859428995046,"changesets":257,"mappers":67,"roads":32.0605720986966,"buildings":1717,"edits":2201,"latest":"2017-08-10T21:06:16.000Z"},"geometry":{"type":"Point","coordinates":[36.0471962350792,-7.67799543151297]}},{"type":"Feature","properties":{"id":4074,"title":"Mwanza","status":"PUBLISHED","created":"2018","lastUpdated":"2018","lastActive":"no","area":121.88924319716057,"changesets":6,"mappers":3,"roads":0.470326699343026,"buildings":24,"edits":42,"latest":"2018-03-27T15:44:50.000Z"},"geometry":{"type":"Point","coordinates":[33.0101693875627,-2.17497390734264]}},{"type":"Feature","properties":{"id":4079,"title":"Kagera_Goziba","status":"PUBLISHED","created":"2018","lastUpdated":"2018","lastActive":"no","area":1.1395975392255964,"changesets":0,"mappers":0,"roads":0,"buildings":0,"edits":0,"latest":null},"geometry":{"type":"Point","coordinates":[32.6139907107105,-1.47123684237771]}},{"type":"Feature","properties":{"id":4086,"title":"Kigoma_5","status":"PUBLISHED","created":"2018","lastUpdated":"2018","lastActive":"no","area":3.7491092848574272,"changesets":156,"mappers":6,"roads":0.459783989828362,"buildings":1942,"edits":1948,"latest":"2018-02-07T11:29:30.000Z"},"geometry":{"type":"Point","coordinates":[30.0140478228083,-6.47067176048628]}},{"type":"Feature","properties":{"id":3334,"title":"Missing Maps: Dar es Salaam - Ramani Huria 2.0 - 04","status":"ARCHIVED","created":"2017","lastUpdated":"2017","lastActive":"no","area":23.992288124749287,"changesets":1440,"mappers":66,"roads":2.67422736285062,"buildings":11427,"edits":11769,"latest":"2017-08-11T19:30:56.000Z"},"geometry":{"type":"Point","coordinates":[39.1797498188247,-6.72221487133731]}},{"type":"Feature","properties":{"id":4084,"title":"Kigoma_3","status":"PUBLISHED","created":"2018","lastUpdated":"2018","lastActive":"no","area":5.097450161720606,"changesets":288,"mappers":6,"roads":2.31764270978854,"buildings":6302,"edits":6359,"latest":"2018-02-08T07:46:42.000Z"},"geometry":{"type":"Point","coordinates":[30.4069129893841,-6.74299494501321]}},{"type":"Feature","properties":{"id":4088,"title":"Kigoma_7","status":"PUBLISHED","created":"2018","lastUpdated":"2018","lastActive":"no","area":2.1750746662810996,"changesets":64,"mappers":6,"roads":0,"buildings":770,"edits":770,"latest":"2018-02-14T06:35:46.000Z"},"geometry":{"type":"Point","coordinates":[29.747674177169,-6.02882798381811]}},{"type":"Feature","properties":{"id":3319,"title":"Tanzania Development Trust and Institute for Rural Development Planning: Mvomero district student mapping project ","status":"PUBLISHED","created":"2017","lastUpdated":"2018","lastActive":"no","area":1439.4586268120136,"changesets":1012,"mappers":17,"roads":283.826662966217,"buildings":908,"edits":2232,"latest":"2018-09-27T19:29:14.000Z"},"geometry":{"type":"Point","coordinates":[37.5490091358043,-6.45241297893469]}},{"type":"Feature","properties":{"id":4102,"title":"Kigoma_15","status":"PUBLISHED","created":"2018","lastUpdated":"2018","lastActive":"no","area":1.4561334248441051,"changesets":36,"mappers":5,"roads":0.613262345810854,"buildings":921,"edits":929,"latest":"2018-02-06T11:58:55.000Z"},"geometry":{"type":"Point","coordinates":[29.7539727931363,-5.41871598951743]}},{"type":"Feature","properties":{"id":4099,"title":"Kigoma_13","status":"PUBLISHED","created":"2018","lastUpdated":"2018","lastActive":"no","area":2.897626588524291,"changesets":98,"mappers":5,"roads":0.000234970678110244,"buildings":1712,"edits":1719,"latest":"2018-02-12T06:40:16.000Z"},"geometry":{"type":"Point","coordinates":[29.6580900736946,-4.48594525532537]}},{"type":"Feature","properties":{"id":3394,"title":"Missing Maps: Dar es Salaam - Ramani Huria 2.0 - 22","status":"PUBLISHED","created":"2017","lastUpdated":"2018","lastActive":"no","area":193.3069912960159,"changesets":1930,"mappers":58,"roads":1.39294643325465,"buildings":23844,"edits":24048,"latest":"2017-08-13T19:03:52.000Z"},"geometry":{"type":"Point","coordinates":[39.103841519769,-7.01540141233042]}},{"type":"Feature","properties":{"id":3332,"title":"Missing Maps: Dar es Salaam - Ramani Huria 2.0 - 02","status":"ARCHIVED","created":"2017","lastUpdated":"2017","lastActive":"no","area":22.918002471745922,"changesets":2022,"mappers":67,"roads":2.30023874900871,"buildings":16203,"edits":16555,"latest":"2017-08-14T13:58:26.000Z"},"geometry":{"type":"Point","coordinates":[39.1749360182797,-6.6577888275312]}},{"type":"Feature","properties":{"id":3354,"title":"Missing Maps: Dar es Salaam - Ramani Huria 2.0 - 09","status":"ARCHIVED","created":"2017","lastUpdated":"2017","lastActive":"no","area":112.46724352437755,"changesets":2325,"mappers":211,"roads":25.5634024460367,"buildings":30372,"edits":32687,"latest":"2017-08-17T09:00:46.000Z"},"geometry":{"type":"Point","coordinates":[39.1752970474759,-6.6763751558294]}},{"type":"Feature","properties":{"id":3371,"title":"Missing Maps: Dar es Salaam - Ramani Huria 2.0 - 16","status":"ARCHIVED","created":"2017","lastUpdated":"2017","lastActive":"no","area":92.06647987703117,"changesets":643,"mappers":55,"roads":534.03438564358,"buildings":332,"edits":9986,"latest":"2017-08-17T13:11:30.000Z"},"geometry":{"type":"Point","coordinates":[39.107002934666,-6.82229799377065]}},{"type":"Feature","properties":{"id":3375,"title":"Missing Maps: Dar es Salaam - Ramani Huria 2.0 - 18","status":"ARCHIVED","created":"2017","lastUpdated":"2017","lastActive":"no","area":59.53047699316665,"changesets":1623,"mappers":52,"roads":478.223132686343,"buildings":690,"edits":12675,"latest":"2017-08-16T08:11:07.000Z"},"geometry":{"type":"Point","coordinates":[39.0524394635221,-6.77490751585555]}},{"type":"Feature","properties":{"id":3368,"title":"Missing Maps: Dar es Salaam - Ramani Huria 2.0 - 13","status":"ARCHIVED","created":"2017","lastUpdated":"2017","lastActive":"no","area":48.99161431195106,"changesets":4070,"mappers":170,"roads":18.9213194873194,"buildings":32771,"edits":34946,"latest":"2018-03-05T14:07:36.000Z"},"geometry":{"type":"Point","coordinates":[39.1382076039561,-6.75845322372412]}},{"type":"Feature","properties":{"id":3372,"title":"Missing Maps: Dar es Salaam - Ramani Huria 2.0 - 17","status":"ARCHIVED","created":"2017","lastUpdated":"2017","lastActive":"no","area":69.65587897048133,"changesets":620,"mappers":59,"roads":326.07234769034,"buildings":735,"edits":5445,"latest":"2017-08-22T12:02:56.000Z"},"geometry":{"type":"Point","coordinates":[39.1283057323213,-6.89210398958084]}},{"type":"Feature","properties":{"id":1233,"title":"MSD & JSI/USAID Tanzania Road Import - Kigoma and Tabora regions","status":"PUBLISHED","created":"2015","lastUpdated":"2017","lastActive":"no","area":55716.44775664574,"changesets":89,"mappers":5,"roads":7164.0075520837,"buildings":137,"edits":14011,"latest":"2015-10-15T16:49:58.000Z"},"geometry":{"type":"Point","coordinates":[31.938951757194,-4.84880832874386]}},{"type":"Feature","properties":{"id":3366,"title":"Missing Maps: Dar es Salaam - Ramani Huria 2.0 - 11","status":"ARCHIVED","created":"2017","lastUpdated":"2017","lastActive":"no","area":46.40941299737609,"changesets":744,"mappers":52,"roads":1.45858369529433,"buildings":4756,"edits":5152,"latest":"2017-08-01T12:47:45.000Z"},"geometry":{"type":"Point","coordinates":[39.0957516639887,-6.69596825590191]}},{"type":"Feature","properties":{"id":3387,"title":"Missing Maps: Dar es Salaam - Ramani Huria 2.0 - 20","status":"PUBLISHED","created":"2017","lastUpdated":"2018","lastActive":"no","area":92.06647987703117,"changesets":1407,"mappers":57,"roads":12.7576761938866,"buildings":34483,"edits":36868,"latest":"2017-08-15T08:33:29.000Z"},"geometry":{"type":"Point","coordinates":[39.107002934666,-6.82229799377065]}},{"type":"Feature","properties":{"id":4166,"title":"Tanzania Development Trust: Shinyanga East community mapping project","status":"PUBLISHED","created":"2018","lastUpdated":"2018","lastActive":"yes","area":1007.0589397559861,"changesets":4017,"mappers":501,"roads":2560.61042010305,"buildings":33856,"edits":46095,"latest":"2018-11-07T23:07:15.000Z"},"geometry":{"type":"Point","coordinates":[33.6837535541805,-3.51751040221294]}},{"type":"Feature","properties":{"id":4211,"title":"Tanzania Development Trust: Kayanga Karagwe Community Mapping Project","status":"ARCHIVED","created":"2018","lastUpdated":"2018","lastActive":"no","area":9.817134429272661,"changesets":2030,"mappers":111,"roads":257.875156407586,"buildings":6739,"edits":9339,"latest":"2018-06-25T20:44:51.000Z"},"geometry":{"type":"Point","coordinates":[31.1517912801376,-1.53378723172487]}},{"type":"Feature","properties":{"id":3425,"title":"Missing Maps: Dar es Salaam - Ramani Huria 2.0 - 28","status":"PUBLISHED","created":"2017","lastUpdated":"2018","lastActive":"no","area":238.90307672725964,"changesets":3337,"mappers":175,"roads":1979.67874635539,"buildings":2573,"edits":35065,"latest":"2017-11-03T04:15:17.000Z"},"geometry":{"type":"Point","coordinates":[39.2720471954653,-6.94362511164942]}},{"type":"Feature","properties":{"id":3452,"title":"Missing Maps: Dar es Salaam - Ramani Huria 2.0 - 31","status":"PUBLISHED","created":"2017","lastUpdated":"2018","lastActive":"no","area":122.32342510735991,"changesets":2509,"mappers":42,"roads":423.609994409643,"buildings":6830,"edits":24947,"latest":"2017-11-07T07:20:37.000Z"},"geometry":{"type":"Point","coordinates":[39.1193941639637,-6.62298853184651]}},{"type":"Feature","properties":{"id":4234,"title":"Tanzania Development Trust: Sigunga Kigoma Community Mapping Project","status":"ARCHIVED","created":"2018","lastUpdated":"2018","lastActive":"no","area":818.7157786819456,"changesets":1881,"mappers":148,"roads":845.753785159551,"buildings":5279,"edits":10353,"latest":"2018-04-11T09:53:47.000Z"},"geometry":{"type":"Point","coordinates":[30.0041057178603,-5.67930749441936]}},{"type":"Feature","properties":{"id":3455,"title":"Missing Maps: Dar es Salaam - Ramani Huria 2.0 - 33","status":"PUBLISHED","created":"2017","lastUpdated":"2018","lastActive":"no","area":156.72153831900792,"changesets":2954,"mappers":102,"roads":579.977370621098,"buildings":21094,"edits":39085,"latest":"2017-10-29T15:21:56.000Z"},"geometry":{"type":"Point","coordinates":[39.1237350888545,-6.75759979671739]}},{"type":"Feature","properties":{"id":3459,"title":"Tanzania Development Trust: Nshamba Community Mapping Project","status":"ARCHIVED","created":"2017","lastUpdated":"2017","lastActive":"no","area":46.014908284249266,"changesets":1320,"mappers":99,"roads":645.897463633866,"buildings":7191,"edits":20283,"latest":"2017-09-08T21:24:18.000Z"},"geometry":{"type":"Point","coordinates":[31.5612210026871,-1.7322936400178]}},{"type":"Feature","properties":{"id":3523,"title":"Missing Maps: Dar es Salaam - Ramani Huria 2.0 - 40","status":"PUBLISHED","created":"2017","lastUpdated":"2018","lastActive":"no","area":44.58915788409798,"changesets":5364,"mappers":98,"roads":142.280090782385,"buildings":76616,"edits":90202,"latest":"2018-01-03T08:26:39.000Z"},"geometry":{"type":"Point","coordinates":[39.2182047504699,-6.76934977067932]}},{"type":"Feature","properties":{"id":5392,"title":"Miembeni_METEOR","status":"PUBLISHED","created":"2018","lastUpdated":"2018","lastActive":"no","area":0.6398735476823335,"changesets":38,"mappers":6,"roads":0.812261387339561,"buildings":332,"edits":416,"latest":"2018-10-26T09:57:26.000Z"},"geometry":{"type":"Point","coordinates":[39.2311523544842,-6.84980246580113]}},{"type":"Feature","properties":{"id":4422,"title":"S. Monduli, Simanjiro, Tanzania Mini Grids - MapSwipe Project 01","status":"PUBLISHED","created":"2018","lastUpdated":"2018","lastActive":"no","area":918.2087603729018,"changesets":4703,"mappers":86,"roads":7.83174281046291,"buildings":50610,"edits":50723,"latest":"2018-05-11T06:32:20.000Z"},"geometry":{"type":"Point","coordinates":[36.6076107426083,-3.61838637677281]}},{"type":"Feature","properties":{"id":4258,"title":"Lindi_minigrids","status":"ARCHIVED","created":"2018","lastUpdated":"2018","lastActive":"no","area":399.008958691099,"changesets":0,"mappers":0,"roads":0,"buildings":0,"edits":0,"latest":null},"geometry":{"type":"Point","coordinates":[39.206344562057,-10.7886215078052]}},{"type":"Feature","properties":{"id":5422,"title":"Tanzania Mbinga Test","status":"ARCHIVED","created":"2018","lastUpdated":"2018","lastActive":"no","area":0.09678392301278596,"changesets":0,"mappers":0,"roads":0,"buildings":0,"edits":0,"latest":null},"geometry":{"type":"Point","coordinates":[35.0530360761986,-10.9293321539577]}},{"type":"Feature","properties":{"id":5318,"title":"Tandale","status":"PUBLISHED","created":"2018","lastUpdated":"2018","lastActive":"no","area":1.1670695349839497,"changesets":675,"mappers":19,"roads":1.999609349464,"buildings":5503,"edits":7596,"latest":"2018-10-22T11:33:48.000Z"},"geometry":{"type":"Point","coordinates":[39.2424390073453,-6.79411458257302]}},{"type":"Feature","properties":{"id":5325,"title":"Mwananyamala","status":"PUBLISHED","created":"2018","lastUpdated":"2018","lastActive":"no","area":2.49542175237576,"changesets":336,"mappers":20,"roads":0.154280978731387,"buildings":1714,"edits":2074,"latest":"2018-10-09T13:18:30.000Z"},"geometry":{"type":"Point","coordinates":[39.2586298839167,-6.78686342634381]}},{"type":"Feature","properties":{"id":5011,"title":"Jangwani","status":"PUBLISHED","created":"2018","lastUpdated":"2018","lastActive":"no","area":0.6459967593125133,"changesets":490,"mappers":40,"roads":0.568461679535797,"buildings":3198,"edits":3929,"latest":"2018-09-21T12:34:17.000Z"},"geometry":{"type":"Point","coordinates":[39.2733984600485,-6.81599868171233]}},{"type":"Feature","properties":{"id":5396,"title":"Sinza_METEOR","status":"PUBLISHED","created":"2018","lastUpdated":"2018","lastActive":"no","area":0.11495287086645402,"changesets":65,"mappers":15,"roads":0.115200681951529,"buildings":130,"edits":194,"latest":"2018-11-01T13:14:45.000Z"},"geometry":{"type":"Point","coordinates":[39.2245824861265,-6.7834148800241]}},{"type":"Feature","properties":{"id":3488,"title":"Missing Maps: Dar es Salaam - Ramani Huria 2.0 - 36","status":"PUBLISHED","created":"2017","lastUpdated":"2018","lastActive":"no","area":375.46340276958506,"changesets":3567,"mappers":92,"roads":484.778915813184,"buildings":27629,"edits":38950,"latest":"2017-09-08T11:51:25.000Z"},"geometry":{"type":"Point","coordinates":[39.3726002893632,-6.92392303696635]}},{"type":"Feature","properties":{"id":3505,"title":"Missing Maps: Dar es Salaam - Ramani Huria 2.0 - 39","status":"PUBLISHED","created":"2017","lastUpdated":"2018","lastActive":"no","area":96.83711970341507,"changesets":3897,"mappers":79,"roads":269.298159883004,"buildings":48923,"edits":63495,"latest":"2017-09-18T11:50:06.000Z"},"geometry":{"type":"Point","coordinates":[39.2911329352229,-6.85999146469818]}},{"type":"Feature","properties":{"id":5131,"title":"Mwanga","status":"PUBLISHED","created":"2018","lastUpdated":"2018","lastActive":"no","area":3782.6420454970325,"changesets":569,"mappers":80,"roads":7.81830506173643,"buildings":21219,"edits":21349,"latest":"2018-09-05T19:32:28.000Z"},"geometry":{"type":"Point","coordinates":[37.5770749373082,-3.7639028140101]}},{"type":"Feature","properties":{"id":5148,"title":"Magomeni","status":"PUBLISHED","created":"2018","lastUpdated":"2018","lastActive":"no","area":1.0950286991089058,"changesets":537,"mappers":24,"roads":1.68967398993952,"buildings":4473,"edits":5416,"latest":"2018-11-02T07:59:40.000Z"},"geometry":{"type":"Point","coordinates":[39.2615816536214,-6.80400422217293]}},{"type":"Feature","properties":{"id":4349,"title":"Mbozi, Mbeya, Tanzania Mini Grids Project 06","status":"PUBLISHED","created":"2018","lastUpdated":"2018","lastActive":"no","area":1339.4689946738515,"changesets":1043,"mappers":62,"roads":742.110448134303,"buildings":21213,"edits":22569,"latest":"2018-07-20T11:18:36.000Z"},"geometry":{"type":"Point","coordinates":[32.5514871956246,-8.64808769274579]}},{"type":"Feature","properties":{"id":4352,"title":"Urambo, Tabora, Tanzania Mini Grids Project 05","status":"PUBLISHED","created":"2018","lastUpdated":"2018","lastActive":"no","area":1522.3866868404682,"changesets":1812,"mappers":63,"roads":47.1194316793102,"buildings":61111,"edits":61203,"latest":"2018-07-02T05:53:02.000Z"},"geometry":{"type":"Point","coordinates":[31.8042353832352,-5.02258852707333]}},{"type":"Feature","properties":{"id":1066,"title":"Missing Maps: Kigoma region towns, Burundi / Tanzania","status":"ARCHIVED","created":"2015","lastUpdated":"2015","lastActive":"no","area":213.63718639264667,"changesets":2,"mappers":1,"roads":1.68154796651448,"buildings":231,"edits":245,"latest":"2015-09-27T23:38:29.000Z"},"geometry":{"type":"Point","coordinates":[29.6664188192449,-4.72722002716652]}},{"type":"Feature","properties":{"id":4354,"title":"Urambo, Tabora, Tanzania Mini Grids Project 07","status":"PUBLISHED","created":"2018","lastUpdated":"2018","lastActive":"no","area":1417.644733786158,"changesets":1438,"mappers":66,"roads":0.235986987394966,"buildings":40728,"edits":40743,"latest":"2018-07-02T08:15:16.000Z"},"geometry":{"type":"Point","coordinates":[31.9202678045656,-4.79835296039164]}},{"type":"Feature","properties":{"id":2556,"title":"PEPFAR Tanzania: Mbeya CC","status":"PUBLISHED","created":"2017","lastUpdated":"2018","lastActive":"no","area":256.08947868821076,"changesets":3674,"mappers":263,"roads":1309.65000981764,"buildings":21914,"edits":54339,"latest":"2018-05-15T06:12:15.000Z"},"geometry":{"type":"Point","coordinates":[33.4732048006568,-8.89830150489546]}},{"type":"Feature","properties":{"id":4366,"title":"Urambo, Tabora, Tanzania Mini Grids Project 04","status":"PUBLISHED","created":"2018","lastUpdated":"2018","lastActive":"no","area":1540.7875686482291,"changesets":1920,"mappers":73,"roads":6.26198278193171,"buildings":42229,"edits":42283,"latest":"2018-04-23T12:45:52.000Z"},"geometry":{"type":"Point","coordinates":[31.8054731800531,-5.12467103545177]}},{"type":"Feature","properties":{"id":4377,"title":"Urambo, Tabora, Tanzania Mini Grids Project 09-10","status":"PUBLISHED","created":"2018","lastUpdated":"2018","lastActive":"no","area":1677.5206088742302,"changesets":1703,"mappers":67,"roads":0.363745706229784,"buildings":26610,"edits":26624,"latest":"2018-05-21T13:49:44.000Z"},"geometry":{"type":"Point","coordinates":[32.1987393372539,-4.49824794936506]}},{"type":"Feature","properties":{"id":4991,"title":"Data Zetu Hotsports_Mbeya","status":"PUBLISHED","created":"2018","lastUpdated":"2018","lastActive":"no","area":16.90944585735463,"changesets":1032,"mappers":30,"roads":0.570750636793558,"buildings":19667,"edits":19935,"latest":"2018-08-14T07:22:14.000Z"},"geometry":{"type":"Point","coordinates":[33.4961424334101,-8.92572377814541]}},{"type":"Feature","properties":{"id":4387,"title":"Heru Shingo Ward, Kigoma, Tanzania Mini Grids Project 01","status":"PUBLISHED","created":"2018","lastUpdated":"2018","lastActive":"no","area":789.0955168862893,"changesets":1455,"mappers":37,"roads":4.58334806253399,"buildings":33003,"edits":33301,"latest":"2018-06-01T13:26:31.000Z"},"geometry":{"type":"Point","coordinates":[30.2968792423321,-4.12596556962405]}},{"type":"Feature","properties":{"id":4392,"title":"Rungwe, Mbeya, Tanzania Mini Grids Project 01","status":"PUBLISHED","created":"2018","lastUpdated":"2018","lastActive":"no","area":1330.3320402972577,"changesets":2885,"mappers":74,"roads":21.3821929149524,"buildings":119621,"edits":120470,"latest":"2018-05-30T06:51:18.000Z"},"geometry":{"type":"Point","coordinates":[33.5980998902635,-9.19753847018188]}},{"type":"Feature","properties":{"id":4976,"title":"Ramani Huria and GreenWaste Colaboration","status":"PUBLISHED","created":"2018","lastUpdated":"2018","lastActive":"no","area":0.8606536928715187,"changesets":452,"mappers":12,"roads":0.303793935716114,"buildings":1699,"edits":2153,"latest":"2018-08-09T09:46:52.000Z"},"geometry":{"type":"Point","coordinates":[39.2825405412206,-6.82300659119486]}},{"type":"Feature","properties":{"id":4402,"title":"Karema Ward, Katavi, Tanzania Mini Grids Project 01","status":"PUBLISHED","created":"2018","lastUpdated":"2018","lastActive":"no","area":49.87575499116186,"changesets":83,"mappers":11,"roads":0,"buildings":1985,"edits":1985,"latest":"2018-04-12T09:55:03.000Z"},"geometry":{"type":"Point","coordinates":[30.4412659655361,-6.79922870485028]}},{"type":"Feature","properties":{"id":4400,"title":"Katumba Songwe, Mbeya, Tanzania Mini Grids Project 01","status":"PUBLISHED","created":"2018","lastUpdated":"2018","lastActive":"no","area":38.180931167498045,"changesets":477,"mappers":58,"roads":1.86573763751187,"buildings":9477,"edits":9737,"latest":"2018-04-12T09:09:50.000Z"},"geometry":{"type":"Point","coordinates":[33.8507065038712,-9.64367875509911]}},{"type":"Feature","properties":{"id":4404,"title":"Tanzania Development Trust: Kiyebe Community Mapping Project","status":"ARCHIVED","created":"2018","lastUpdated":"2018","lastActive":"no","area":14.54425632534702,"changesets":165,"mappers":25,"roads":179.882131248454,"buildings":904,"edits":2112,"latest":"2018-04-12T18:26:16.000Z"},"geometry":{"type":"Point","coordinates":[31.5213611368364,-2.01443774986169]}},{"type":"Feature","properties":{"id":5398,"title":"Ungindoni_METEOR","status":"PUBLISHED","created":"2018","lastUpdated":"2018","lastActive":"no","area":0.8096558160905647,"changesets":0,"mappers":0,"roads":0,"buildings":0,"edits":0,"latest":null},"geometry":{"type":"Point","coordinates":[39.3545451261367,-6.8745441047526]}},{"type":"Feature","properties":{"id":4235,"title":"Tanzania Development Trust: Biharamulo Community Mapping Project","status":"ARCHIVED","created":"2018","lastUpdated":"2018","lastActive":"no","area":6.039818387380115,"changesets":765,"mappers":51,"roads":284.739876449328,"buildings":4189,"edits":5785,"latest":"2018-06-24T19:09:43.000Z"},"geometry":{"type":"Point","coordinates":[31.311664443878,-2.63422509905993]}},{"type":"Feature","properties":{"id":5291,"title":"Bububu Zanzibar Mapping","status":"PUBLISHED","created":"2018","lastUpdated":"2018","lastActive":"no","area":9.349523279823226,"changesets":185,"mappers":72,"roads":24.7842441338549,"buildings":2762,"edits":3176,"latest":"2018-11-05T21:11:38.000Z"},"geometry":{"type":"Point","coordinates":[39.2207064718988,-6.09133977311896]}},{"type":"Feature","properties":{"id":4210,"title":"Tanzania Development Trust: Rubya Muleba Community Mapping Project","status":"ARCHIVED","created":"2018","lastUpdated":"2018","lastActive":"no","area":3.8004410986879655,"changesets":883,"mappers":30,"roads":76.7339517069804,"buildings":1681,"edits":2914,"latest":"2018-03-04T15:40:41.000Z"},"geometry":{"type":"Point","coordinates":[31.6199206128424,-1.75212343213756]}},{"type":"Feature","properties":{"id":2139,"title":"Earthquake in Uganda and Tanzania, 10/09/2016","status":"ARCHIVED","created":"2016","lastUpdated":"2016","lastActive":"no","area":3483.453141526834,"changesets":79,"mappers":14,"roads":355.759035018036,"buildings":1251,"edits":2901,"latest":"2016-09-11T17:38:24.000Z"},"geometry":{"type":"Point","coordinates":[31.5941108672666,-1.06899770270717]}},{"type":"Feature","properties":{"id":2143,"title":"Earthquake in Uganda and Tanzania, 10/09/2016 - Epicenter Buildings Mapping","status":"ARCHIVED","created":"2016","lastUpdated":"2016","lastActive":"no","area":206.58898646813577,"changesets":2152,"mappers":115,"roads":180.842068422114,"buildings":20024,"edits":23343,"latest":"2017-06-19T12:21:25.000Z"},"geometry":{"type":"Point","coordinates":[31.5531060476886,-1.03087731821331]}},{"type":"Feature","properties":{"id":5192,"title":"Mabibo","status":"PUBLISHED","created":"2018","lastUpdated":"2018","lastActive":"no","area":4.059450716198464,"changesets":2230,"mappers":25,"roads":6.02412742139535,"buildings":19921,"edits":24255,"latest":"2018-10-03T07:34:20.000Z"},"geometry":{"type":"Point","coordinates":[39.2256157177568,-6.80974155735172]}},{"type":"Feature","properties":{"id":5156,"title":"Sombetini","status":"PUBLISHED","created":"2018","lastUpdated":"2018","lastActive":"no","area":2.158067893428719,"changesets":293,"mappers":79,"roads":0.414735952058103,"buildings":8073,"edits":8138,"latest":"2018-09-07T20:15:20.000Z"},"geometry":{"type":"Point","coordinates":[36.6679931001053,-3.38106582367836]}},{"type":"Feature","properties":{"id":2157,"title":"MSD & JSI/USAID Tanzania Road Import - Iringa region","status":"PUBLISHED","created":"2016","lastUpdated":"2016","lastActive":"no","area":30284.59973311939,"changesets":85,"mappers":13,"roads":2909.39047680426,"buildings":712,"edits":3579,"latest":"2016-10-19T21:15:43.000Z"},"geometry":{"type":"Point","coordinates":[35.1789503436915,-8.51724619788918]}},{"type":"Feature","properties":{"id":3411,"title":"Missing Maps: Dar es Salaam - Ramani Huria 2.0 - 25","status":"PUBLISHED","created":"2017","lastUpdated":"2018","lastActive":"no","area":260.81879568766976,"changesets":1755,"mappers":99,"roads":3.25862217409201,"buildings":58641,"edits":59730,"latest":"2017-08-21T09:01:52.000Z"},"geometry":{"type":"Point","coordinates":[39.3808440193565,-6.94279344737865]}},{"type":"Feature","properties":{"id":3427,"title":"Missing Maps: Dar es Salaam - Ramani Huria 2.0 - 30","status":"PUBLISHED","created":"2017","lastUpdated":"2018","lastActive":"no","area":324.58461584384474,"changesets":736,"mappers":55,"roads":997.252274559556,"buildings":82,"edits":5864,"latest":"2017-08-24T07:24:28.000Z"},"geometry":{"type":"Point","coordinates":[39.4586452875521,-7.09171770901867]}},{"type":"Feature","properties":{"id":2138,"title":"MSD & JSI/USAID Tanzania Road Import - Mwanza region","status":"PUBLISHED","created":"2016","lastUpdated":"2017","lastActive":"no","area":18452.858077930265,"changesets":149,"mappers":15,"roads":3770.57157796073,"buildings":105,"edits":5447,"latest":"2016-11-14T12:29:58.000Z"},"geometry":{"type":"Point","coordinates":[32.8094293934558,-2.76285550770699]}},{"type":"Feature","properties":{"id":2124,"title":"Untitled project","status":"ARCHIVED","created":"2016","lastUpdated":"2016","lastActive":"no","area":15.59172030179052,"changesets":0,"mappers":0,"roads":0,"buildings":0,"edits":0,"latest":null},"geometry":{"type":"Point","coordinates":[39.2272702302774,-6.72482139604585]}},{"type":"Feature","properties":{"id":2162,"title":"Earthquake in Uganda and Tanzania, 10/09/2016 - SE of Epicenter Buildings Mapping","status":"ARCHIVED","created":"2016","lastUpdated":"2016","lastActive":"no","area":44.69211015182962,"changesets":827,"mappers":36,"roads":48.6700209908821,"buildings":8145,"edits":8981,"latest":"2016-09-21T11:21:26.000Z"},"geometry":{"type":"Point","coordinates":[31.6571644592505,-1.21165352764446]}},{"type":"Feature","properties":{"id":4307,"title":"Tanzania Development Trust: Burungura Community Mapping Project","status":"ARCHIVED","created":"2018","lastUpdated":"2018","lastActive":"no","area":12.132811235880215,"changesets":422,"mappers":60,"roads":224.496584040424,"buildings":934,"edits":2752,"latest":"2018-03-15T22:38:18.000Z"},"geometry":{"type":"Point","coordinates":[31.4863826867625,-1.89364869788793]}},{"type":"Feature","properties":{"id":2049,"title":"MSD & JSI/USAID Tanzania Road Import - Shinyaga region","status":"PUBLISHED","created":"2016","lastUpdated":"2016","lastActive":"no","area":35039.611042625445,"changesets":268,"mappers":7,"roads":4897.99621570253,"buildings":77,"edits":6791,"latest":"2016-08-17T10:20:21.000Z"},"geometry":{"type":"Point","coordinates":[33.2883880100143,-3.4515869184952]}},{"type":"Feature","properties":{"id":3160,"title":"Tanzania Development Trust: Msisi ward community mapping project ","status":"PUBLISHED","created":"2017","lastUpdated":"2018","lastActive":"no","area":81.67279767012198,"changesets":544,"mappers":65,"roads":638.102080419316,"buildings":3499,"edits":6977,"latest":"2018-11-06T09:13:09.000Z"},"geometry":{"type":"Point","coordinates":[34.6639591437227,-4.61768230807472]}},{"type":"Feature","properties":{"id":3376,"title":"Missing Maps: Dar es Salaam - Ramani Huria 2.0 - 19","status":"ARCHIVED","created":"2017","lastUpdated":"2017","lastActive":"no","area":63.29172462574548,"changesets":792,"mappers":51,"roads":558.280894827985,"buildings":335,"edits":12639,"latest":"2017-08-13T07:18:12.000Z"},"geometry":{"type":"Point","coordinates":[39.11766640955,-6.60449427493299]}},{"type":"Feature","properties":{"id":3993,"title":"Tanzania Development Trust:  Mwanza East","status":"PUBLISHED","created":"2018","lastUpdated":"2018","lastActive":"yes","area":6942.748601206665,"changesets":9484,"mappers":426,"roads":10594.6959609941,"buildings":169323,"edits":230947,"latest":"2018-11-07T15:16:12.000Z"},"geometry":{"type":"Point","coordinates":[33.1460082996701,-2.93920908459836]}},{"type":"Feature","properties":{"id":3365,"title":"Missing Maps: Dar es Salaam - Ramani Huria 2.0 - 10","status":"ARCHIVED","created":"2017","lastUpdated":"2017","lastActive":"no","area":30.498373922694878,"changesets":625,"mappers":56,"roads":1.01225822228817,"buildings":4539,"edits":5271,"latest":"2017-08-01T12:00:11.000Z"},"geometry":{"type":"Point","coordinates":[39.0959011536627,-6.66014405241675]}},{"type":"Feature","properties":{"id":3367,"title":"Missing Maps: Dar es Salaam - Ramani Huria 2.0 - 12","status":"ARCHIVED","created":"2017","lastUpdated":"2017","lastActive":"no","area":46.989431752117035,"changesets":1171,"mappers":70,"roads":4.56309136875794,"buildings":12968,"edits":14464,"latest":"2017-08-14T07:51:05.000Z"},"geometry":{"type":"Point","coordinates":[39.1233638270739,-6.72154964029819]}},{"type":"Feature","properties":{"id":3350,"title":"Missing Maps: Dar es Salaam - Ramani Huria 2.0 - 05","status":"ARCHIVED","created":"2017","lastUpdated":"2017","lastActive":"no","area":29.85364877294142,"changesets":996,"mappers":78,"roads":450.294722708768,"buildings":144,"edits":8756,"latest":"2017-08-18T08:31:52.000Z"},"geometry":{"type":"Point","coordinates":[39.0961258195299,-6.65933997212234]}},{"type":"Feature","properties":{"id":3370,"title":"Missing Maps: Dar es Salaam - Ramani Huria 2.0 - 15","status":"ARCHIVED","created":"2017","lastUpdated":"2017","lastActive":"no","area":63.29172462574548,"changesets":1134,"mappers":57,"roads":8.02147770662194,"buildings":19173,"edits":19696,"latest":"2017-08-10T07:17:24.000Z"},"geometry":{"type":"Point","coordinates":[39.11766640955,-6.60449427493299]}},{"type":"Feature","properties":{"id":4284,"title":"Tanzania Development Trust: Nyakigando Ikimba Community Mapping Project","status":"ARCHIVED","created":"2018","lastUpdated":"2018","lastActive":"no","area":9.041298427344486,"changesets":320,"mappers":21,"roads":159.247797886851,"buildings":1179,"edits":3057,"latest":"2018-03-12T21:12:54.000Z"},"geometry":{"type":"Point","coordinates":[31.5705837031557,-1.51810455931155]}},{"type":"Feature","properties":{"id":3369,"title":"Missing Maps: Dar es Salaam - Ramani Huria 2.0 - 14","status":"ARCHIVED","created":"2017","lastUpdated":"2017","lastActive":"no","area":59.53047699316665,"changesets":2493,"mappers":75,"roads":7.81894605201079,"buildings":17056,"edits":17781,"latest":"2017-08-21T12:22:37.000Z"},"geometry":{"type":"Point","coordinates":[39.0524394635221,-6.77490751585555]}},{"type":"Feature","properties":{"id":4325,"title":"Tanzania Development Trust: Kakuraijo Karagwe Community Mapping Project","status":"ARCHIVED","created":"2018","lastUpdated":"2018","lastActive":"no","area":26.03432942227103,"changesets":294,"mappers":21,"roads":200.728606871569,"buildings":2268,"edits":3280,"latest":"2018-03-19T17:29:04.000Z"},"geometry":{"type":"Point","coordinates":[30.9998529759753,-1.76362344469638]}},{"type":"Feature","properties":{"id":4335,"title":"Tanzania Development Trust: Urambo Community Mapping Project","status":"ARCHIVED","created":"2018","lastUpdated":"2018","lastActive":"no","area":22.72434812488303,"changesets":539,"mappers":76,"roads":209.42903890829,"buildings":7236,"edits":9333,"latest":"2018-03-25T09:46:55.000Z"},"geometry":{"type":"Point","coordinates":[32.0763834649408,-5.08236418614099]}},{"type":"Feature","properties":{"id":2361,"title":"Tanzania Development Trust: Tabora district mapping project","status":"PUBLISHED","created":"2016","lastUpdated":"2018","lastActive":"no","area":11331.719987775972,"changesets":11664,"mappers":420,"roads":28508.3138575684,"buildings":316326,"edits":517728,"latest":"2018-09-05T04:26:28.000Z"},"geometry":{"type":"Point","coordinates":[32.9311624412335,-5.02219301254299]}},{"type":"Feature","properties":{"id":4897,"title":"Tanzania Development Trust:  Manyara FGM 4","status":"PUBLISHED","created":"2018","lastUpdated":"2018","lastActive":"no","area":1739.962002417171,"changesets":633,"mappers":143,"roads":213.429020340366,"buildings":3352,"edits":3764,"latest":"2018-11-04T13:31:46.000Z"},"geometry":{"type":"Point","coordinates":[37.0970672438041,-5.2770004737346]}},{"type":"Feature","properties":{"id":5370,"title":"Pwani_METEOR","status":"PUBLISHED","created":"2018","lastUpdated":"2018","lastActive":"no","area":1.857301592423365,"changesets":150,"mappers":19,"roads":26.9283625898123,"buildings":740,"edits":1247,"latest":"2018-10-31T08:49:13.000Z"},"geometry":{"type":"Point","coordinates":[39.3251033855678,-6.98577812479199]}},{"type":"Feature","properties":{"id":4256,"title":"Manyara","status":"ARCHIVED","created":"2018","lastUpdated":"2018","lastActive":"no","area":63.093260840318564,"changesets":0,"mappers":0,"roads":0,"buildings":0,"edits":0,"latest":null},"geometry":{"type":"Point","coordinates":[35.3368133697752,-4.30430004427207]}},{"type":"Feature","properties":{"id":5029,"title":"Kigogo","status":"PUBLISHED","created":"2018","lastUpdated":"2018","lastActive":"no","area":1.919044857626449,"changesets":1335,"mappers":37,"roads":2.99758976000865,"buildings":13712,"edits":15491,"latest":"2018-08-31T08:16:38.000Z"},"geometry":{"type":"Point","coordinates":[39.245687327176,-6.81863004202305]}},{"type":"Feature","properties":{"id":4801,"title":"Priority Villages, Ruvuma Region, Tanzania Mini Grids Project","status":"PUBLISHED","created":"2018","lastUpdated":"2018","lastActive":"no","area":491.345226887175,"changesets":662,"mappers":36,"roads":3.61080322618974,"buildings":27808,"edits":27829,"latest":"2018-08-23T09:25:41.000Z"},"geometry":{"type":"Point","coordinates":[35.4477861752995,-10.8248962516213]}},{"type":"Feature","properties":{"id":4852,"title":"Tanzania Development Trust: Morogoro Community Mapping Project","status":"PUBLISHED","created":"2018","lastUpdated":"2018","lastActive":"no","area":11.997049798456361,"changesets":719,"mappers":115,"roads":112.026515224032,"buildings":14473,"edits":15851,"latest":"2018-11-03T23:24:59.000Z"},"geometry":{"type":"Point","coordinates":[37.6844733023174,-6.81089355032121]}},{"type":"Feature","properties":{"id":5390,"title":"Kisutu_METEOR","status":"PUBLISHED","created":"2018","lastUpdated":"2018","lastActive":"no","area":0.30002608748587883,"changesets":75,"mappers":13,"roads":0.336096943618833,"buildings":286,"edits":453,"latest":"2018-10-25T14:59:01.000Z"},"geometry":{"type":"Point","coordinates":[39.287876425417,-6.81640921080609]}},{"type":"Feature","properties":{"id":5386,"title":"Gerezani_METEOR","status":"PUBLISHED","created":"2018","lastUpdated":"2018","lastActive":"no","area":0.31545538866072964,"changesets":208,"mappers":20,"roads":5.17559823813131,"buildings":366,"edits":844,"latest":"2018-10-25T08:50:20.000Z"},"geometry":{"type":"Point","coordinates":[39.2753213377704,-6.82192478353065]}},{"type":"Feature","properties":{"id":5016,"title":"Kariakoo2","status":"PUBLISHED","created":"2018","lastUpdated":"2018","lastActive":"no","area":0.41684912948919983,"changesets":253,"mappers":36,"roads":0.0279580739560328,"buildings":1324,"edits":2341,"latest":"2018-10-03T16:17:27.000Z"},"geometry":{"type":"Point","coordinates":[39.2756281624855,-6.82026480265793]}},{"type":"Feature","properties":{"id":1999,"title":"MSD & JSI/USAID Tanzania Road Import - Singida region","status":"PUBLISHED","created":"2016","lastUpdated":"2016","lastActive":"no","area":26074.754451063287,"changesets":89,"mappers":10,"roads":4051.32827761662,"buildings":1,"edits":3084,"latest":"2016-08-23T09:44:36.000Z"},"geometry":{"type":"Point","coordinates":[34.7271332055842,-5.31860124964008]}},{"type":"Feature","properties":{"id":1972,"title":"MSD & JSI/USAID Tanzania Road Import - Kilimanjaro region","status":"PUBLISHED","created":"2016","lastUpdated":"2016","lastActive":"no","area":11317.826802773296,"changesets":39,"mappers":4,"roads":2795.17640777083,"buildings":1,"edits":2999,"latest":"2016-07-16T21:02:50.000Z"},"geometry":{"type":"Point","coordinates":[37.5703008351768,-3.69847440148271]}},{"type":"Feature","properties":{"id":5154,"title":"Tabata","status":"PUBLISHED","created":"2018","lastUpdated":"2018","lastActive":"no","area":4.474362552715539,"changesets":1339,"mappers":40,"roads":3.34133572011009,"buildings":16310,"edits":18457,"latest":"2018-09-18T12:54:13.000Z"},"geometry":{"type":"Point","coordinates":[39.2250548605046,-6.82841398190697]}},{"type":"Feature","properties":{"id":1904,"title":"Peace Corps Tanzania -- Mnavira","status":"ARCHIVED","created":"2016","lastUpdated":"2016","lastActive":"no","area":2.392296820488899,"changesets":67,"mappers":12,"roads":34.4734407565492,"buildings":1089,"edits":1629,"latest":"2016-07-19T15:50:21.000Z"},"geometry":{"type":"Point","coordinates":[39.2554909570247,-11.0739917532281]}},{"type":"Feature","properties":{"id":2159,"title":"Earthquake in Uganda and Tanzania, 10/09/2016 - NW of Bukoba Buildings Mapping","status":"ARCHIVED","created":"2016","lastUpdated":"2016","lastActive":"no","area":35.25230685743545,"changesets":692,"mappers":35,"roads":17.305928804687,"buildings":7977,"edits":8616,"latest":"2016-09-19T09:02:48.000Z"},"geometry":{"type":"Point","coordinates":[31.764514331462,-1.30982429531606]}},{"type":"Feature","properties":{"id":2149,"title":"Earthquake in Uganda and Tanzania, 10/09/2016 - Bukoba Buildings Mapping","status":"ARCHIVED","created":"2016","lastUpdated":"2016","lastActive":"no","area":31.690178701237453,"changesets":993,"mappers":43,"roads":31.6646699010167,"buildings":26227,"edits":27057,"latest":"2017-01-06T13:44:11.000Z"},"geometry":{"type":"Point","coordinates":[31.8096442169796,-1.32589362270035]}},{"type":"Feature","properties":{"id":2142,"title":"Earthquake in Uganda and Tanzania, 10/09/2016 - Road Network Mapping","status":"ARCHIVED","created":"2016","lastUpdated":"2016","lastActive":"no","area":4547.282461398547,"changesets":2055,"mappers":153,"roads":8021.40300882306,"buildings":8543,"edits":65009,"latest":"2016-09-29T20:47:06.000Z"},"geometry":{"type":"Point","coordinates":[31.5381716128231,-1.0830246554389]}},{"type":"Feature","properties":{"id":2261,"title":"Tanzania Development Trust: Serengeti district mapping project part 2","status":"PUBLISHED","created":"2016","lastUpdated":"2018","lastActive":"no","area":11207.631576365555,"changesets":34023,"mappers":1630,"roads":29645.1220241715,"buildings":604840,"edits":921128,"latest":"2018-10-31T21:58:06.000Z"},"geometry":{"type":"Point","coordinates":[33.6631417496372,-1.71314326443619]}},{"type":"Feature","properties":{"id":5174,"title":"Mbeya_Mbalizi","status":"PUBLISHED","created":"2018","lastUpdated":"2018","lastActive":"no","area":0.31206553705644136,"changesets":208,"mappers":40,"roads":1.60956563124592,"buildings":951,"edits":970,"latest":"2018-09-07T11:27:13.000Z"},"geometry":{"type":"Point","coordinates":[33.35435503872,-8.94534240301126]}},{"type":"Feature","properties":{"id":5218,"title":"Vingunguti","status":"PUBLISHED","created":"2018","lastUpdated":"2018","lastActive":"no","area":4.5147969243730985,"changesets":1438,"mappers":24,"roads":4.99903302839465,"buildings":14310,"edits":17644,"latest":"2018-11-07T13:45:08.000Z"},"geometry":{"type":"Point","coordinates":[39.2283271509236,-6.845412414447]}},{"type":"Feature","properties":{"id":5202,"title":"Mbagala","status":"PUBLISHED","created":"2018","lastUpdated":"2018","lastActive":"no","area":3.357497597645662,"changesets":614,"mappers":22,"roads":0.550372073861051,"buildings":3452,"edits":3769,"latest":"2018-10-23T14:01:26.000Z"},"geometry":{"type":"Point","coordinates":[39.2642484046761,-6.89854569609534]}},{"type":"Feature","properties":{"id":4358,"title":"Tanzania Development Trust: Mwanza West Community Mapping Project","status":"PUBLISHED","created":"2018","lastUpdated":"2018","lastActive":"no","area":1290.9455273129195,"changesets":20183,"mappers":1232,"roads":9839.49741792897,"buildings":173066,"edits":239668,"latest":"2018-11-07T10:09:31.000Z"},"geometry":{"type":"Point","coordinates":[32.539528576888,-2.61529690008607]}},{"type":"Feature","properties":{"id":2501,"title":"Tanzania Development Trust: Simiyu district mapping project part 1","status":"PUBLISHED","created":"2017","lastUpdated":"2018","lastActive":"no","area":6430.819090940454,"changesets":14453,"mappers":503,"roads":15059.9826728648,"buildings":303739,"edits":413729,"latest":"2018-10-21T19:37:35.000Z"},"geometry":{"type":"Point","coordinates":[34.0147323801402,-2.56082515091357]}},{"type":"Feature","properties":{"id":4283,"title":"Tanzania Development Trust: Kashenge Community Mapping Project","status":"ARCHIVED","created":"2018","lastUpdated":"2018","lastActive":"no","area":16.271801267146635,"changesets":316,"mappers":27,"roads":117.504567662701,"buildings":856,"edits":1867,"latest":"2018-05-01T11:36:25.000Z"},"geometry":{"type":"Point","coordinates":[31.65773305698,-1.69517523871843]}},{"type":"Feature","properties":{"id":5322,"title":"Gerezani","status":"PUBLISHED","created":"2018","lastUpdated":"2018","lastActive":"no","area":0.6617969975738225,"changesets":244,"mappers":19,"roads":0.0429388379459798,"buildings":959,"edits":1687,"latest":"2018-10-05T09:50:57.000Z"},"geometry":{"type":"Point","coordinates":[39.2751643416466,-6.82552891846113]}},{"type":"Feature","properties":{"id":4245,"title":"Tanzania Development Trust: Kome Island Community Mapping Project","status":"ARCHIVED","created":"2018","lastUpdated":"2018","lastActive":"no","area":385.79192833306934,"changesets":1556,"mappers":136,"roads":903.993377006293,"buildings":11792,"edits":17458,"latest":"2018-03-23T13:14:21.000Z"},"geometry":{"type":"Point","coordinates":[32.4921971949472,-2.32937991152019]}},{"type":"Feature","properties":{"id":5394,"title":"Mtakuja_METEOR","status":"PUBLISHED","created":"2018","lastUpdated":"2018","lastActive":"no","area":0.12654256421525886,"changesets":111,"mappers":10,"roads":0.154747279215324,"buildings":1165,"edits":1365,"latest":"2018-10-26T12:56:08.000Z"},"geometry":{"type":"Point","coordinates":[39.2311664932879,-6.84526241829827]}},{"type":"Feature","properties":{"id":4212,"title":"Tanzania Development Trust: Tunduma, Songwe Community Mapping Project","status":"ARCHIVED","created":"2018","lastUpdated":"2018","lastActive":"no","area":8.348830576332833,"changesets":1309,"mappers":102,"roads":131.172852446918,"buildings":16144,"edits":18573,"latest":"2018-04-16T10:35:52.000Z"},"geometry":{"type":"Point","coordinates":[32.7742526020665,-9.30855990968659]}},{"type":"Feature","properties":{"id":1543,"title":"Missing Maps: Dar es Salaam - Ramani Huria4","status":"ARCHIVED","created":"2016","lastUpdated":"2016","lastActive":"no","area":6.586859089516285,"changesets":1158,"mappers":78,"roads":650.511318632514,"buildings":20178,"edits":24608,"latest":"2016-09-01T08:17:43.000Z"},"geometry":{"type":"Point","coordinates":[39.281518958747,-6.90536076240958]}},{"type":"Feature","properties":{"id":2110,"title":"MSD & JSI/USAID Tanzania Road Import - Pwani region","status":"PUBLISHED","created":"2016","lastUpdated":"2016","lastActive":"no","area":21135.143831005626,"changesets":95,"mappers":10,"roads":2904.54132205525,"buildings":3,"edits":3983,"latest":"2016-11-09T09:02:07.000Z"},"geometry":{"type":"Point","coordinates":[38.8285213604307,-7.19520548815086]}},{"type":"Feature","properties":{"id":2096,"title":"Missing Maps: Dar es Salaam - Ramani Huria 6","status":"ARCHIVED","created":"2016","lastUpdated":"2016","lastActive":"no","area":15.749826830743899,"changesets":908,"mappers":68,"roads":1301.94233531873,"buildings":18208,"edits":21266,"latest":"2016-09-07T03:04:09.000Z"},"geometry":{"type":"Point","coordinates":[39.2003921033002,-6.87098917396666]}},{"type":"Feature","properties":{"id":3454,"title":"Missing Maps: Dar es Salaam - Ramani Huria 2.0 - 32","status":"ARCHIVED","created":"2017","lastUpdated":"2017","lastActive":"no","area":148.77453796641805,"changesets":2812,"mappers":53,"roads":500.637012890816,"buildings":23079,"edits":38338,"latest":"2017-10-17T04:22:49.000Z"},"geometry":{"type":"Point","coordinates":[39.1340184011576,-6.6957405723263]}},{"type":"Feature","properties":{"id":3456,"title":"Missing Maps: Dar es Salaam - Ramani Huria 2.0 - 34","status":"PUBLISHED","created":"2017","lastUpdated":"2018","lastActive":"no","area":196.89167630800463,"changesets":3676,"mappers":139,"roads":587.388974612296,"buildings":20987,"edits":38292,"latest":"2017-11-13T11:24:48.000Z"},"geometry":{"type":"Point","coordinates":[39.1288689759637,-6.84699584132868]}},{"type":"Feature","properties":{"id":3431,"title":"Missing Maps: Iringa - OpenStreetMap Tanzania","status":"PUBLISHED","created":"2017","lastUpdated":"2018","lastActive":"no","area":13.946474979484007,"changesets":682,"mappers":57,"roads":22.5822159299126,"buildings":4795,"edits":5743,"latest":"2018-09-23T18:49:09.000Z"},"geometry":{"type":"Point","coordinates":[35.7043219148728,-7.76082147715177]}},{"type":"Feature","properties":{"id":3426,"title":"Missing Maps: Dar es Salaam - Ramani Huria 2.0 - 29","status":"PUBLISHED","created":"2017","lastUpdated":"2018","lastActive":"no","area":297.76980439882516,"changesets":627,"mappers":46,"roads":1351.44697865554,"buildings":91,"edits":10344,"latest":"2017-09-06T11:56:12.000Z"},"geometry":{"type":"Point","coordinates":[39.4596870011174,-6.94130438133105]}},