{"totalEdits":39463799,"totalBuildings":32368282,"totalRoads":842861.964800611,"mappersOnline":36,"totalTasksMapped":1549187,"totalMappers":128862,"totalProjects":1585,"Chad":[{"type":"Feature","properties":{"title":"Missing Maps: Hadjer Lamis, Chad (Task 4 - residential areas and buildings)","id":1969,"area":2017.3414458929283,"year":"2018","lastUpdated":"2018-01-10T14:47:40.585187","changesets":0,"mappers":0,"roads":0,"buildings":0,"edits":0,"latest":null},"geometry":{"type":"Point","coordinates":[16.94373854405794,11.959941398066746]}},{"type":"Feature","properties":{"title":"Abeche (Tchad)","id":408,"area":35.85209429131716,"year":"2017","lastUpdated":"2017-03-21T11:04:31.328450","changesets":2171,"mappers":15,"roads":586.480967797649,"buildings":207238,"edits":226736,"latest":"2017-10-27T06:45:06.000Z"},"geometry":{"type":"Point","coordinates":[20.832180973967425,13.8277026353189]}},{"type":"Feature","properties":{"title":"Missing Maps: Hadjer Lamis, Chad (Task 2 - residential areas and buildings)","id":1878,"area":2081.112511512723,"year":"2018","lastUpdated":"2018-01-10T14:48:53.629862","changesets":0,"mappers":0,"roads":0,"buildings":0,"edits":0,"latest":null},"geometry":{"type":"Point","coordinates":[17.1760487487376,11.787522781528676]}},{"type":"Feature","properties":{"title":"Lake Chad Region","id":4199,"area":9277.85681376314,"year":"2018","lastUpdated":"2018-07-24T22:03:58.786874","changesets":2955,"mappers":464,"roads":1451.2232791495,"buildings":56956,"edits":60836,"latest":"2018-07-24T23:03:38.000Z"},"geometry":{"type":"Point","coordinates":[14.24183517289722,13.48247367894081]}},{"type":"Feature","properties":{"title":"Mapping for mine-clearing for Handicap International in Chad","id":3941,"area":237.73599778829367,"year":"2018","lastUpdated":"2018-07-21T11:29:04.258681","changesets":1744,"mappers":72,"roads":108.255390744436,"buildings":8569,"edits":9124,"latest":"2018-07-21T11:29:03.000Z"},"geometry":{"type":"Point","coordinates":[18.72306749824483,17.99395287654651]}}],"totalArea":5862085.179565605,"Ecuador":[{"type":"Feature","properties":{"title":"M7,8 Earthquake in Ecuador-16/04/2016: Canton Atacames - Ecuador SigTierras Pre-event imagery - Editar","id":1846,"area":367.5584436659646,"year":"2017","lastUpdated":"2017-10-12T20:26:35.022788","changesets":961,"mappers":110,"roads":609.309988920416,"buildings":9031,"edits":15496,"latest":"2017-10-12T20:24:47.000Z"},"geometry":{"type":"Point","coordinates":[-79.82292098427371,0.8191696375279732]}},{"type":"Feature","properties":{"title":"M7,8 Earthquake in Ecuador, Manta - Post-event imagery","id":2042,"area":124.70466486007663,"year":"2018","lastUpdated":"2018-06-23T23:07:00.159910","changesets":1191,"mappers":67,"roads":57.2983719356813,"buildings":3682,"edits":5284,"latest":"2018-06-23T23:49:17.000Z"},"geometry":{"type":"Point","coordinates":[-80.69907277706925,-0.9587221124911247]}}],"Democratic Republic of the Congo":[{"type":"Feature","properties":{"title":"Missing Maps : Bunia, RDC","id":1910,"area":35.88869487068581,"year":"2018","lastUpdated":"2018-03-05T16:12:13.102204","changesets":2077,"mappers":142,"roads":324.222974555042,"buildings":33749,"edits":39586,"latest":"2016-09-08T13:37:18.000Z"},"geometry":{"type":"Point","coordinates":[30.251924270988688,1.555222300372935]}},{"type":"Feature","properties":{"title":"Missing Maps: Kambove, Katanga Province, Democratic Republic of Congo (DRC)","id":1655,"area":8.503859703790376,"year":"2018","lastUpdated":"2018-01-10T14:49:41.072180","changesets":0,"mappers":0,"roads":0,"buildings":0,"edits":0,"latest":null},"geometry":{"type":"Point","coordinates":[26.59701633453368,-10.87240201313124]}},{"type":"Feature","properties":{"title":"Missing Maps: Sleeping Sickness in Maniema DR Congo - Lusangi","id":4839,"area":4259.872230869905,"year":"2018","lastUpdated":"2018-07-24T02:07:11.966168","changesets":0,"mappers":0,"roads":0,"buildings":0,"edits":0,"latest":null},"geometry":{"type":"Point","coordinates":[27.440327242821837,-4.520502235659915]}},{"type":"Feature","properties":{"title":"Coastal Jiba HZ, Ituri, DRC","id":3477,"area":100.88965683887055,"year":"2017","lastUpdated":"2017-11-07T19:11:50.381921","changesets":107,"mappers":13,"roads":1.46307617982564,"buildings":197,"edits":277,"latest":"2017-11-07T19:11:08.000Z"},"geometry":{"type":"Point","coordinates":[30.77659077690273,1.7791525856931818]}},{"type":"Feature","properties":{"title":"Kinshasa Floods: Ndjili and surroundings - Streets, tracks, paths, waterways and landuse","id":1394,"area":116.43515629332788,"year":"2018","lastUpdated":"2018-04-18T09:42:25.857058","changesets":0,"mappers":0,"roads":0,"buildings":0,"edits":0,"latest":null},"geometry":{"type":"Point","coordinates":[15.391131770886144,-4.418562879455062]}},{"type":"Feature","properties":{"title":"RD Congo, Kitchanga, Nextview imagery","id":212,"area":396.5620544492763,"year":"2017","lastUpdated":"2017-04-17T14:26:06.396677","changesets":286,"mappers":13,"roads":711.087114763236,"buildings":28800,"edits":33539,"latest":"2013-07-06T21:55:00.000Z"},"geometry":{"type":"Point","coordinates":[29.025187108459676,-1.25551393732527]}},{"type":"Feature","properties":{"title":"Matete - Kisenso (DRR-Erosion)","id":4764,"area":5.970040735252853,"year":"2018","lastUpdated":"2018-07-23T13:33:29.365305","changesets":0,"mappers":0,"roads":0,"buildings":0,"edits":0,"latest":null},"geometry":{"type":"Point","coordinates":[15.339304126563874,-4.394328476368255]}},{"type":"Feature","properties":{"title":"DRC Road network: Equateur (main roads based on CI/OR data)","id":4530,"area":49783.31145279449,"year":"2018","lastUpdated":"2018-07-24T04:14:11.836571","changesets":0,"mappers":0,"roads":0,"buildings":0,"edits":0,"latest":null},"geometry":{"type":"Point","coordinates":[20.558732217941056,1.659996162720795]}},{"type":"Feature","properties":{"title":"Missing Maps: Map Nyangi in South Kivu, Democratic Republic of Congo (Project 33)","id":4726,"area":1.491036847033257,"year":"2018","lastUpdated":"2018-07-23T23:25:36.982640","changesets":0,"mappers":0,"roads":0,"buildings":0,"edits":0,"latest":null},"geometry":{"type":"Point","coordinates":[28.839029505730498,-5.003375873425998]}},{"type":"Feature","properties":{"title":"DRC Road network: Kivu (main roads based on CI/OR data)","id":4471,"area":38701.61965431843,"year":"2018","lastUpdated":"2018-07-24T07:45:26.591340","changesets":0,"mappers":0,"roads":0,"buildings":0,"edits":0,"latest":null},"geometry":{"type":"Point","coordinates":[27.499520779122957,-2.6038102755076293]}},{"type":"Feature","properties":{"title":"Missing Maps: Sleeping Sickness in Maniema DR Congo - Samba","id":4472,"area":7333.222635221938,"year":"2018","lastUpdated":"2018-06-13T11:07:13.661632","changesets":0,"mappers":0,"roads":0,"buildings":0,"edits":0,"latest":null},"geometry":{"type":"Point","coordinates":[26.50016403861325,-4.518216616772377]}},{"type":"Feature","properties":{"title":"Missing Maps: Sleeping Sickness in Maniema DR Congo - Tunda","id":4434,"area":9995.56095616409,"year":"2018","lastUpdated":"2018-05-30T17:28:59.603255","changesets":0,"mappers":0,"roads":0,"buildings":0,"edits":0,"latest":null},"geometry":{"type":"Point","coordinates":[25.33041103066087,-4.220335367104785]}},{"type":"Feature","properties":{"title":"Missing Maps: Bachanga in South Kivu, Democratic Republic of Congo (Project 35)","id":4791,"area":0.5947063182625596,"year":"2018","lastUpdated":"2018-07-20T11:10:18.181407","changesets":0,"mappers":0,"roads":0,"buildings":0,"edits":0,"latest":null},"geometry":{"type":"Point","coordinates":[28.77049300345197,-4.91641637703107]}},{"type":"Feature","properties":{"title":"Missing Maps: Map Tchonka in South Kivu, Democratic Republic of Congo (Project 31)","id":4433,"area":658.3197350609657,"year":"2018","lastUpdated":"2018-07-03T17:47:56.912249","changesets":0,"mappers":0,"roads":0,"buildings":0,"edits":0,"latest":null},"geometry":{"type":"Point","coordinates":[27.737331290243333,-2.262634523983343]}},{"type":"Feature","properties":{"title":"Kingabwa, Kinshasa, DRC (suite 1)","id":4077,"area":0.4810177177951612,"year":"2018","lastUpdated":"2018-05-19T09:50:54.204691","changesets":0,"mappers":0,"roads":0,"buildings":0,"edits":0,"latest":null},"geometry":{"type":"Point","coordinates":[15.358737819487253,-4.349021180720147]}},{"type":"Feature","properties":{"title":"Missing Maps: Map South Kivu, Democratic Republic of Congo (Project 27: Buildings)","id":4004,"area":16.160413324668365,"year":"2018","lastUpdated":"2018-06-12T15:20:05.015060","changesets":0,"mappers":0,"roads":0,"buildings":0,"edits":0,"latest":null},"geometry":{"type":"Point","coordinates":[29.136414914339618,-4.314837454773905]}},{"type":"Feature","properties":{"title":"Mama Nzenze and Kingabwa, Kinshasa, DRC","id":3360,"area":0.4940352502577961,"year":"2017","lastUpdated":"2017-12-06T02:52:27.455688","changesets":26,"mappers":2,"roads":0.0789731376233602,"buildings":253,"edits":263,"latest":"2018-03-30T19:15:56.000Z"},"geometry":{"type":"Point","coordinates":[15.3524990169725,-4.3434251692991666]}},{"type":"Feature","properties":{"title":"Missing Maps: Sleeping Sickness in Maniema DR Congo - Kibombo","id":3288,"area":12606.952295364996,"year":"2018","lastUpdated":"2018-06-12T10:56:04.031896","changesets":524,"mappers":96,"roads":1390.07622955357,"buildings":1883,"edits":5082,"latest":"2018-06-10T07:15:38.000Z"},"geometry":{"type":"Point","coordinates":[25.431489186575085,-4.219075239036144]}},{"type":"Feature","properties":{"title":"DRC Road network: Task 1/A (based on DIAF data in Kasai)","id":2881,"area":12996.209617402423,"year":"2018","lastUpdated":"2018-04-19T10:36:23.459056","changesets":0,"mappers":0,"roads":0,"buildings":0,"edits":0,"latest":null},"geometry":{"type":"Point","coordinates":[22.38012796538654,-4.787140318759613]}},{"type":"Feature","properties":{"title":"Missing Maps - Goma, DRC - Water and Sanitation - For intermediate mappers","id":2608,"area":53.739188152281926,"year":"2018","lastUpdated":"2018-07-23T14:11:41.294598","changesets":3307,"mappers":195,"roads":649.074396407178,"buildings":126765,"edits":148224,"latest":"2018-03-07T08:02:19.000Z"},"geometry":{"type":"Point","coordinates":[29.191817698016994,-1.6392672855790005]}},{"type":"Feature","properties":{"title":"Missing Maps: Masisi territory, North Kivu, DRC (roads part 1)","id":1968,"area":578.7150994317658,"year":"2018","lastUpdated":"2018-03-16T16:29:31.342940","changesets":0,"mappers":0,"roads":0,"buildings":0,"edits":0,"latest":null},"geometry":{"type":"Point","coordinates":[28.772555949198146,-1.3487796222942736]}},{"type":"Feature","properties":{"title":"Missing Maps: Map South Kivu, Democratic Republic of Congo (Project 19: Roads and residential areas)","id":1900,"area":818.0040497957068,"year":"2018","lastUpdated":"2018-06-16T14:01:59.446739","changesets":0,"mappers":0,"roads":0,"buildings":0,"edits":0,"latest":null},"geometry":{"type":"Point","coordinates":[28.955946986868536,-2.9191117856260433]}}],"Ethiopia":[{"type":"Feature","properties":{"title":"Mekelle, Ethiopia: Mapping for Infrastructure, Land-Use and Water Resources","id":1710,"area":643.1263569567104,"year":"2017","lastUpdated":"2017-10-22T18:09:42.159613","changesets":680,"mappers":81,"roads":573.475985723308,"buildings":11988,"edits":18535,"latest":"2018-05-23T19:23:23.000Z"},"geometry":{"type":"Point","coordinates":[39.501922130584724,13.512029273167286]}},{"type":"Feature","properties":{"title":"Missing Maps - Ethiopia - Hamer Woreda South Omo zone - Part 02","id":4348,"area":1146.6473658836119,"year":"2018","lastUpdated":"2018-06-21T14:48:24.884106","changesets":389,"mappers":52,"roads":163.340484184003,"buildings":3797,"edits":4187,"latest":"2018-06-21T14:55:36.000Z"},"geometry":{"type":"Point","coordinates":[36.81444325638438,5.309369237202133]}},{"type":"Feature","properties":{"title":"Missing Maps - Ethiopia - Hamer Woreda South Omo zone","id":4347,"area":356.56699138047725,"year":"2018","lastUpdated":"2018-07-24T00:23:07.102052","changesets":441,"mappers":66,"roads":285.967329352915,"buildings":4809,"edits":5246,"latest":"2018-07-24T01:16:50.000Z"},"geometry":{"type":"Point","coordinates":[36.64986691146421,4.939154924453511]}},{"type":"Feature","properties":{"title":"Lower Omo Valley, Ethiopia Settlement Survey","id":2883,"area":2591.691298512675,"year":"2018","lastUpdated":"2018-02-08T07:50:06.305681","changesets":375,"mappers":34,"roads":396.878496604388,"buildings":8760,"edits":9190,"latest":"2018-02-08T07:50:08.000Z"},"geometry":{"type":"Point","coordinates":[35.95441606713822,5.272330905887008]}},{"type":"Feature","properties":{"title":"Peace Corps Ethiopia -- Addi Kala, Tigray","id":2213,"area":0.45895783316193295,"year":"2018","lastUpdated":"2018-02-08T03:21:47.331451","changesets":95,"mappers":8,"roads":29.4387100484328,"buildings":34,"edits":458,"latest":"2018-02-08T03:21:45.000Z"},"geometry":{"type":"Point","coordinates":[39.28217915927663,13.329562567295582]}},{"type":"Feature","properties":{"title":"Peace Corps Ethiopia -- Misraa ","id":2174,"area":1.1813005607474747,"year":"2016","lastUpdated":"2016-10-11T19:00:06.505017","changesets":8,"mappers":5,"roads":25.8690871143086,"buildings":434,"edits":655,"latest":"2016-10-11T18:59:17.000Z"},"geometry":{"type":"Point","coordinates":[40.075513766362114,7.013838290635306]}}],"Tanzania":[{"type":"Feature","properties":{"title":"Lindi, Lindi, Tanzania Mini Grids Project 05","id":4499,"area":1350.3603655694978,"year":"2018","lastUpdated":"2018-06-29T06:38:06.752377","changesets":1100,"mappers":66,"roads":1.12477553899274,"buildings":28479,"edits":28638,"latest":"2018-06-29T06:31:34.000Z"},"geometry":{"type":"Point","coordinates":[39.68909574499,-9.801786594046861]}},{"type":"Feature","properties":{"title":"Lindi, Lindi, Tanzania Mini Grids Project 01","id":4487,"area":2262.000623549842,"year":"2018","lastUpdated":"2018-05-10T05:11:52.452673","changesets":1674,"mappers":68,"roads":0.902342152134417,"buildings":56663,"edits":56749,"latest":"2018-05-14T14:03:37.000Z"},"geometry":{"type":"Point","coordinates":[38.91537784774695,-10.060492523381807]}},{"type":"Feature","properties":{"title":"Tunduru, Ruvuma, Tanzania Mini Grids Project 01","id":4423,"area":1513.3163670277308,"year":"2018","lastUpdated":"2018-06-29T11:40:34.768077","changesets":748,"mappers":73,"roads":0.672637130613432,"buildings":15105,"edits":15129,"latest":"2018-06-29T11:40:17.000Z"},"geometry":{"type":"Point","coordinates":[37.15242795625945,-11.620027648839601]}},{"type":"Feature","properties":{"title":"Tunduru, Ruvuma, Tanzania Mini Grids Project 04","id":4412,"area":1554.890184050325,"year":"2018","lastUpdated":"2018-05-25T06:52:25.748652","changesets":1325,"mappers":68,"roads":0.398203610661417,"buildings":26966,"edits":27033,"latest":"2018-04-30T08:47:26.000Z"},"geometry":{"type":"Point","coordinates":[37.58529301248964,-11.01510385295025]}},{"type":"Feature","properties":{"title":"Igalula Ward, Kigoma, Tanzania Mini Grids Project 01","id":4386,"area":1169.7270185651328,"year":"2018","lastUpdated":"2018-04-17T14:00:20.573026","changesets":912,"mappers":37,"roads":0.00817977234302703,"buildings":9782,"edits":9783,"latest":"2018-04-17T14:00:26.000Z"},"geometry":{"type":"Point","coordinates":[30.054356569129087,-6.011588890040766]}},{"type":"Feature","properties":{"title":"Urambo, Tabora, Tanzania Mini Grids Project 01-02","id":4376,"area":2032.586550505636,"year":"2018","lastUpdated":"2018-06-19T08:37:57.167229","changesets":2264,"mappers":60,"roads":0.977625727876198,"buildings":26878,"edits":26920,"latest":"2018-06-19T08:37:22.000Z"},"geometry":{"type":"Point","coordinates":[31.762362863705164,-5.438836111127685]}},{"type":"Feature","properties":{"title":"Missing Maps: Kyela - Data Zetu","id":3698,"area":251.55720854707542,"year":"2018","lastUpdated":"2018-04-05T07:21:35.195103","changesets":802,"mappers":12,"roads":5.58626698624379,"buildings":29269,"edits":29469,"latest":"2018-07-19T11:51:17.000Z"},"geometry":{"type":"Point","coordinates":[33.84069567931769,-9.544454940746501]}},{"type":"Feature","properties":{"title":"Zanzibar Roads - Unguja Island - 01","id":3650,"area":234.75514110431052,"year":"2017","lastUpdated":"2017-10-07T12:29:26.306281","changesets":573,"mappers":18,"roads":1191.68951939582,"buildings":43,"edits":17373,"latest":"2017-10-07T12:28:50.000Z"},"geometry":{"type":"Point","coordinates":[39.248176202742364,-6.1821500381296275]}},{"type":"Feature","properties":{"title":"Missing Maps: Dar es Salaam - Ramani Huria 2.0 - 39","id":3505,"area":96.83711970341507,"year":"2018","lastUpdated":"2018-03-04T23:01:32.143525","changesets":3897,"mappers":79,"roads":269.298159883004,"buildings":48923,"edits":63495,"latest":"2017-09-18T11:50:06.000Z"},"geometry":{"type":"Point","coordinates":[39.305843254526984,-6.840568905719535]}},{"type":"Feature","properties":{"title":"Missing Maps: Dar es Salaam - Ramani Huria 2.0 - 33","id":3455,"area":156.72153831900792,"year":"2018","lastUpdated":"2018-03-05T15:30:37.208960","changesets":2954,"mappers":102,"roads":579.977370621099,"buildings":21094,"edits":39085,"latest":"2017-10-29T15:21:56.000Z"},"geometry":{"type":"Point","coordinates":[39.06687201276458,-6.7708713265034515]}},{"type":"Feature","properties":{"title":"Missing Maps: Dar es Salaam - Ramani Huria 2.0 - 20","id":3387,"area":92.06647987703117,"year":"2018","lastUpdated":"2018-03-05T15:38:02.296786","changesets":1407,"mappers":57,"roads":12.7576761938866,"buildings":34483,"edits":36868,"latest":"2017-08-15T08:33:29.000Z"},"geometry":{"type":"Point","coordinates":[39.115395701674714,-6.820271980216828]}},{"type":"Feature","properties":{"title":"PEPFAR TANZANIA: GEITA DC","id":3903,"area":4738.968040349855,"year":"2018","lastUpdated":"2018-07-10T06:41:26.690980","changesets":5542,"mappers":267,"roads":3129.3516222182,"buildings":60063,"edits":84041,"latest":"2018-07-15T11:32:32.000Z"},"geometry":{"type":"Point","coordinates":[32.06279754752212,-2.682505789886702]}},{"type":"Feature","properties":{"title":"MSD & JSI/USAID Tanzania Road Import - Dodoma region","id":2012,"area":30070.63156173727,"year":"2016","lastUpdated":"2016-09-16T13:16:37.526872","changesets":0,"mappers":0,"roads":0,"buildings":0,"edits":0,"latest":null},"geometry":{"type":"Point","coordinates":[35.84633163505444,-5.8241716175440175]}},{"type":"Feature","properties":{"title":"MSD & JSI/USAID Tanzania Road Import - Arusha region","id":1971,"area":31245.987566415035,"year":"2017","lastUpdated":"2017-07-24T23:13:32.143193","changesets":0,"mappers":0,"roads":0,"buildings":0,"edits":0,"latest":null},"geometry":{"type":"Point","coordinates":[35.98178328230096,-2.99082315747327]}},{"type":"Feature","properties":{"title":"Tanzania Development Trust: Serengeti district mapping project","id":1788,"area":13584.124479203561,"year":"2018","lastUpdated":"2018-07-21T15:24:49.405542","changesets":0,"mappers":0,"roads":0,"buildings":0,"edits":0,"latest":null},"geometry":{"type":"Point","coordinates":[34.658088684082024,-1.9070894696788552]}},{"type":"Feature","properties":{"title":"MSD & JSI/USAID Tanzania Road Import - West Ruvuma region","id":1256,"area":10512.14514732082,"year":"2016","lastUpdated":"2016-04-04T16:27:39.061397","changesets":0,"mappers":0,"roads":0,"buildings":0,"edits":0,"latest":null},"geometry":{"type":"Point","coordinates":[35.73071423073114,-10.644452430898227]}},{"type":"Feature","properties":{"title":"Songea Rural, Ruvuma, Tanzania Mini Grids Project 01","id":4703,"area":1371.4453556338517,"year":"2018","lastUpdated":"2018-06-11T08:41:44.101036","changesets":58,"mappers":25,"roads":0,"buildings":427,"edits":427,"latest":"2018-06-11T08:40:02.000Z"},"geometry":{"type":"Point","coordinates":[35.7822148323556,-9.35501676850386]}},{"type":"Feature","properties":{"title":"Chemba and Bahi Districts, Tanzania Mini Grids Project 02","id":4653,"area":1921.3143960736681,"year":"2018","lastUpdated":"2018-06-06T08:56:05.854973","changesets":1303,"mappers":60,"roads":0.436199179573519,"buildings":33413,"edits":33434,"latest":"2018-06-07T11:55:30.000Z"},"geometry":{"type":"Point","coordinates":[35.47357948199084,-6.541668254164324]}},{"type":"Feature","properties":{"title":"Lamaiti Village, Tanzania Mini Grids Project","id":4636,"area":287.18127360801236,"year":"2018","lastUpdated":"2018-06-03T23:10:02.617305","changesets":510,"mappers":69,"roads":0.067806508631528,"buildings":6540,"edits":6550,"latest":"2018-06-04T09:04:54.000Z"},"geometry":{"type":"Point","coordinates":[35.4794601137225,-5.801276271989993]}},{"type":"Feature","properties":{"title":"Kasulu, Kasulu, Tanzania Mini Grids Project 04","id":4571,"area":2136.1760422465886,"year":"2018","lastUpdated":"2018-07-16T06:27:37.607948","changesets":2501,"mappers":67,"roads":13.8254831502392,"buildings":55848,"edits":56667,"latest":"2018-07-16T06:27:29.000Z"},"geometry":{"type":"Point","coordinates":[29.98247064013143,-4.6984841931908]}},{"type":"Feature","properties":{"title":"Central Singida, Singida, Tanzania Mini Grids Project 04 South","id":4528,"area":2679.1732629690173,"year":"2018","lastUpdated":"2018-05-17T05:23:15.289640","changesets":1170,"mappers":63,"roads":0.0259764287875841,"buildings":20358,"edits":20362,"latest":"2018-05-17T13:46:29.000Z"},"geometry":{"type":"Point","coordinates":[34.69281190135674,-5.4332570462654575]}},{"type":"Feature","properties":{"title":"Central Singida, Singida, Tanzania Mini Grids Project 01 East","id":4509,"area":1475.3604875927692,"year":"2018","lastUpdated":"2018-06-28T10:09:05.303438","changesets":937,"mappers":67,"roads":0.0165898988823745,"buildings":11972,"edits":11978,"latest":"2018-06-28T10:08:59.000Z"},"geometry":{"type":"Point","coordinates":[34.041140687827536,-5.126694160175507]}},{"type":"Feature","properties":{"title":"S. Monduli, Simanjiro, Tanzania Mini Grids - MapSwipe Project 04 - 02","id":4479,"area":131.2262807333246,"year":"2018","lastUpdated":"2018-05-04T09:42:42.952002","changesets":136,"mappers":50,"roads":0.000165500103078919,"buildings":1412,"edits":1414,"latest":"2018-05-04T09:36:27.000Z"},"geometry":{"type":"Point","coordinates":[37.140374705660484,-4.974450733390372]}},{"type":"Feature","properties":{"title":"Central Singida, Singida, Tanzania Mini Grids Project 00 North","id":4508,"area":2138.0235797080213,"year":"2018","lastUpdated":"2018-07-13T13:11:39.577533","changesets":2429,"mappers":66,"roads":2.19560796896209,"buildings":85349,"edits":85596,"latest":"2018-07-13T13:11:37.000Z"},"geometry":{"type":"Point","coordinates":[34.85630752643853,-4.7195257307215375]}},{"type":"Feature","properties":{"title":"S. Monduli, Simanjiro, Tanzania Mini Grids - MapSwipe Project 04 - 04","id":4477,"area":139.74141127398454,"year":"2018","lastUpdated":"2018-05-04T08:01:04.870840","changesets":352,"mappers":54,"roads":0,"buildings":4700,"edits":4700,"latest":"2018-05-04T08:40:26.000Z"},"geometry":{"type":"Point","coordinates":[37.97815318589818,-5.0748312565103175]}},{"type":"Feature","properties":{"title":"Mpwapwa, Dodoma, Tanzania Mini Grids Project 08","id":4418,"area":69.68255741962724,"year":"2018","lastUpdated":"2018-05-19T20:42:24.261907","changesets":1926,"mappers":103,"roads":18.7990415103299,"buildings":25541,"edits":25683,"latest":"2018-05-19T20:41:29.000Z"},"geometry":{"type":"Point","coordinates":[36.46391177601475,-5.9448724542277525]}},{"type":"Feature","properties":{"title":"Tunduru, Ruvuma, Tanzania Mini Grids Project 03","id":4378,"area":1369.2568876847938,"year":"2018","lastUpdated":"2018-05-03T12:58:11.041494","changesets":1018,"mappers":60,"roads":0.263537837490913,"buildings":23394,"edits":23430,"latest":"2018-05-03T13:14:28.000Z"},"geometry":{"type":"Point","coordinates":[37.28765739124834,-11.152541317436667]}},{"type":"Feature","properties":{"title":"Rungwe, Mbeya, Tanzania Mini Grids Project 01","id":4392,"area":1330.3320402972577,"year":"2018","lastUpdated":"2018-05-30T05:59:04.640865","changesets":2885,"mappers":74,"roads":21.3821929149524,"buildings":119621,"edits":120470,"latest":"2018-05-30T06:51:18.000Z"},"geometry":{"type":"Point","coordinates":[33.5756407980469,-9.244759979750832]}},{"type":"Feature","properties":{"title":"Karema Ward, Katavi, Tanzania Mini Grids Project 01","id":4402,"area":49.87575499116186,"year":"2018","lastUpdated":"2018-04-12T09:55:34.291247","changesets":83,"mappers":11,"roads":0,"buildings":1985,"edits":1985,"latest":"2018-04-12T09:55:03.000Z"},"geometry":{"type":"Point","coordinates":[30.45028626808132,-6.824839702555798]}},{"type":"Feature","properties":{"title":"Urambo, Tabora, Tanzania Mini Grids Project 09-10","id":4377,"area":1677.5206088742302,"year":"2018","lastUpdated":"2018-05-21T13:20:07.112179","changesets":1703,"mappers":67,"roads":0.363745706229784,"buildings":26610,"edits":26624,"latest":"2018-05-21T13:49:44.000Z"},"geometry":{"type":"Point","coordinates":[32.006976077428725,-4.486466132072692]}},{"type":"Feature","properties":{"title":"Urambo, Tabora, Tanzania Mini Grids Project 08","id":4355,"area":1512.9535222617567,"year":"2018","lastUpdated":"2018-06-29T06:36:14.716443","changesets":1803,"mappers":62,"roads":0.0539411172980745,"buildings":55003,"edits":55009,"latest":"2018-06-29T06:38:59.000Z"},"geometry":{"type":"Point","coordinates":[31.652766553125133,-4.666160203174864]}},{"type":"Feature","properties":{"title":"Mbozi, Mbeya, Tanzania Mini Grids Project 03","id":4289,"area":1303.883290131881,"year":"2018","lastUpdated":"2018-06-29T13:16:07.336988","changesets":2723,"mappers":78,"roads":1712.56467120964,"buildings":64564,"edits":69636,"latest":"2018-06-29T13:53:40.000Z"},"geometry":{"type":"Point","coordinates":[32.660369621525334,-8.981003005244997]}},{"type":"Feature","properties":{"title":"Kigoma_9","id":4090,"area":1.722690665551124,"year":"2018","lastUpdated":"2018-02-15T09:43:57.762973","changesets":290,"mappers":6,"roads":0.249339693562493,"buildings":1929,"edits":1941,"latest":"2018-02-15T09:43:50.000Z"},"geometry":{"type":"Point","coordinates":[29.825238216387262,-6.003663870933533]}},{"type":"Feature","properties":{"title":"Tanzania Development Trust: Morogoro Community Mapping Project","id":4852,"area":11.997049798456361,"year":"2018","lastUpdated":"2018-07-24T08:50:19.205776","changesets":448,"mappers":80,"roads":51.7748542351947,"buildings":8588,"edits":9223,"latest":"2018-07-24T19:30:12.000Z"},"geometry":{"type":"Point","coordinates":[37.68097780644893,-6.8100910041755895]}},{"type":"Feature","properties":{"title":"Priority Villages, Ruvuma Region, Tanzania Mini Grids Project","id":4801,"area":491.345226887175,"year":"2018","lastUpdated":"2018-07-03T15:18:55.293383","changesets":586,"mappers":30,"roads":0.0476650649909273,"buildings":26872,"edits":26882,"latest":"2018-06-28T09:53:53.000Z"},"geometry":{"type":"Point","coordinates":[35.45485146842986,-10.678797947427933]}},{"type":"Feature","properties":{"title":"Tanzania Development Trust: Simiyu South","id":4323,"area":3977.4740524717954,"year":"2018","lastUpdated":"2018-07-24T19:26:54.716414","changesets":4585,"mappers":384,"roads":2511.98514405437,"buildings":53584,"edits":62253,"latest":"2018-07-24T19:26:07.000Z"},"geometry":{"type":"Point","coordinates":[34.2659914121032,-3.1020947645146095]}},{"type":"Feature","properties":{"title":"Tanzania Development Trust: Mwanza West Community Mapping Project","id":4358,"area":1290.9455273129195,"year":"2018","lastUpdated":"2018-07-24T17:15:02.919084","changesets":13618,"mappers":986,"roads":6964.82294827094,"buildings":125532,"edits":171719,"latest":"2018-07-24T22:58:12.000Z"},"geometry":{"type":"Point","coordinates":[32.548552534014256,-2.6391112035937363]}},{"type":"Feature","properties":{"title":"Tanzania Development Trust: Shinyanga East community mapping project","id":4166,"area":1007.0589397559861,"year":"2018","lastUpdated":"2018-07-23T11:09:53.237997","changesets":2397,"mappers":337,"roads":1451.95322551139,"buildings":24137,"edits":29931,"latest":"2018-07-24T13:03:40.000Z"},"geometry":{"type":"Point","coordinates":[33.66405700164086,-3.5303866913753184]}},{"type":"Feature","properties":{"title":"Shinyanga_Tabora_Geita","id":4076,"area":3994.8430365253507,"year":"2018","lastUpdated":"2018-03-16T14:29:11.097041","changesets":47,"mappers":13,"roads":0.000161002645333808,"buildings":2061,"edits":2064,"latest":"2018-03-16T14:28:46.000Z"},"geometry":{"type":"Point","coordinates":[32.00242391521419,-4.080067283243879]}},{"type":"Feature","properties":{"title":"Tanzania Development Trust: Sawida District","id":4118,"area":924.6478975466252,"year":"2018","lastUpdated":"2018-07-24T15:31:23.613611","changesets":13248,"mappers":936,"roads":9590.19147115483,"buildings":149639,"edits":219008,"latest":"2018-07-24T15:30:06.000Z"},"geometry":{"type":"Point","coordinates":[33.663075852494615,-2.8525551326607483]}},{"type":"Feature","properties":{"title":"Tanzania Development Trust:  Mwanza East","id":3993,"area":6942.748601206665,"year":"2018","lastUpdated":"2018-07-23T16:17:17.894045","changesets":7703,"mappers":353,"roads":9171.58612712472,"buildings":151316,"edits":207805,"latest":"2018-07-23T16:17:11.000Z"},"geometry":{"type":"Point","coordinates":[33.151702880859375,-2.8604853284710874]}},{"type":"Feature","properties":{"title":"Tanzania Development Trust: Mbozi district community mapping project","id":3968,"area":270.15833206747897,"year":"2018","lastUpdated":"2018-07-21T13:52:33.597951","changesets":0,"mappers":0,"roads":0,"buildings":0,"edits":0,"latest":null},"geometry":{"type":"Point","coordinates":[32.76853833879746,-9.020802347567903]}},{"type":"Feature","properties":{"title":"Tanzania Development Trust: Manyoni district mapping project part 2","id":3389,"area":7477.8484249126495,"year":"2018","lastUpdated":"2018-07-24T15:53:12.845493","changesets":0,"mappers":0,"roads":0,"buildings":0,"edits":0,"latest":null},"geometry":{"type":"Point","coordinates":[35.27572631835939,-4.379171736396492]}},{"type":"Feature","properties":{"title":"Missing Maps: Dar es Salaam - Ramani Huria 2.0 - 21","id":3388,"area":69.65587897048133,"year":"2017","lastUpdated":"2017-08-29T20:18:54.288698","changesets":1939,"mappers":75,"roads":6.84000186734417,"buildings":36784,"edits":37868,"latest":"2017-08-11T12:28:34.000Z"},"geometry":{"type":"Point","coordinates":[39.1238626216775,-6.897961178878595]}},{"type":"Feature","properties":{"title":"Missing Maps: Dar es Salaam - Ramani Huria 2.0 - 06","id":3351,"area":42.09056201926153,"year":"2017","lastUpdated":"2017-09-18T13:32:44.404729","changesets":1060,"mappers":98,"roads":583.340797762564,"buildings":2543,"edits":21480,"latest":"2017-09-18T13:34:28.000Z"},"geometry":{"type":"Point","coordinates":[39.08745002746582,-6.700853885903787]}},{"type":"Feature","properties":{"title":"Tanzania Development Trust: Muzye, Muhunga and Bugaga wards community mapping project ","id":3313,"area":467.01646755665894,"year":"2018","lastUpdated":"2018-06-25T20:57:28.962446","changesets":0,"mappers":0,"roads":0,"buildings":0,"edits":0,"latest":null},"geometry":{"type":"Point","coordinates":[29.996941569562726,-4.632042691063947]}},{"type":"Feature","properties":{"title":"PEPFAR Tanzania: Kyela (Coast)","id":3204,"area":267.9000890686287,"year":"2018","lastUpdated":"2018-07-09T06:56:38.771652","changesets":2082,"mappers":220,"roads":832.34792096376,"buildings":19676,"edits":28587,"latest":"2018-07-12T23:12:42.000Z"},"geometry":{"type":"Point","coordinates":[33.86047686452975,-9.648327731192193]}},{"type":"Feature","properties":{"title":"Tanzania Development Trust: Singida district community mapping project ","id":3159,"area":746.5381861519145,"year":"2018","lastUpdated":"2018-04-14T11:47:27.250647","changesets":0,"mappers":0,"roads":0,"buildings":0,"edits":0,"latest":null},"geometry":{"type":"Point","coordinates":[35.00739145072836,-4.7137063082032755]}},{"type":"Feature","properties":{"title":"Tanzania Development Trust: Simiyu district mapping project part 1 - Updated Imagery","id":3177,"area":1361.7036746910928,"year":"2018","lastUpdated":"2018-07-04T16:36:22.997795","changesets":0,"mappers":0,"roads":0,"buildings":0,"edits":0,"latest":null},"geometry":{"type":"Point","coordinates":[34.246062786235,-2.4162541152175003]}},{"type":"Feature","properties":{"title":"Tanzania Development Trust: Masasi district, Mtwara Region","id":3251,"area":1622.139093292662,"year":"2018","lastUpdated":"2018-02-17T10:13:50.185746","changesets":0,"mappers":0,"roads":0,"buildings":0,"edits":0,"latest":null},"geometry":{"type":"Point","coordinates":[38.77120971679688,-10.7730228886694]}},{"type":"Feature","properties":{"title":"Tanzania Development Trust: Kulimi district community mapping project ","id":2989,"area":784.6955092821192,"year":"2018","lastUpdated":"2018-06-24T13:27:59.480684","changesets":0,"mappers":0,"roads":0,"buildings":0,"edits":0,"latest":null},"geometry":{"type":"Point","coordinates":[33.59668499857451,-3.223029192039045]}},{"type":"Feature","properties":{"title":"Tanzania Development Trust: Rusesa, Kwaga and Kigembe districts community mapping project ","id":3134,"area":554.3164257263877,"year":"2017","lastUpdated":"2017-12-12T20:58:40.374306","changesets":0,"mappers":0,"roads":0,"buildings":0,"edits":0,"latest":null},"geometry":{"type":"Point","coordinates":[30.003875680949932,-4.84165310145059]}},{"type":"Feature","properties":{"title":"Tanzania Development Trust: Manyoni district mapping project","id":3253,"area":1144.4488878187772,"year":"2018","lastUpdated":"2018-02-19T11:31:46.467382","changesets":0,"mappers":0,"roads":0,"buildings":0,"edits":0,"latest":null},"geometry":{"type":"Point","coordinates":[34.83352661132815,-5.7092421794668216]}},{"type":"Feature","properties":{"title":"Tanzania Development Trust: Maswa district mapping project part 1","id":2578,"area":159.57894576974346,"year":"2017","lastUpdated":"2017-10-19T10:37:48.653512","changesets":0,"mappers":0,"roads":0,"buildings":0,"edits":0,"latest":null},"geometry":{"type":"Point","coordinates":[33.817882557580745,-3.2813052403453997]}},{"type":"Feature","properties":{"title":"PEPFAR Tanzania: Mbeya CC","id":2556,"area":256.08947868821076,"year":"2018","lastUpdated":"2018-05-07T03:44:11.992952","changesets":3674,"mappers":263,"roads":1309.65000981764,"buildings":21914,"edits":54339,"latest":"2018-05-15T06:12:15.000Z"},"geometry":{"type":"Point","coordinates":[33.487846817016006,-8.911443046528687]}},{"type":"Feature","properties":{"title":"Tanzania Development Trust: Simiyu district mapping project part 1","id":2501,"area":6430.819090940454,"year":"2018","lastUpdated":"2018-01-24T12:18:11.755027","changesets":0,"mappers":0,"roads":0,"buildings":0,"edits":0,"latest":null},"geometry":{"type":"Point","coordinates":[33.963684082031236,-2.4816321015734735]}},{"type":"Feature","properties":{"title":"Tanzania Development Trust: Serengeti district mapping project part 2","id":2261,"area":11207.631576365555,"year":"2018","lastUpdated":"2018-05-22T06:15:57.092496","changesets":33973,"mappers":1625,"roads":29371.871301095,"buildings":602966,"edits":917465,"latest":"2018-07-14T15:32:32.000Z"},"geometry":{"type":"Point","coordinates":[33.563361167907715,-1.6146094797775092]}},{"type":"Feature","properties":{"title":"PEPFAR Tanzania: Shinyanga","id":2301,"area":565.5201463076456,"year":"2017","lastUpdated":"2017-11-16T23:33:37.890014","changesets":5198,"mappers":302,"roads":2277.42607148261,"buildings":46163,"edits":71621,"latest":"2017-11-16T23:33:01.000Z"},"geometry":{"type":"Point","coordinates":[33.44573190915658,-3.633071239733379]}},{"type":"Feature","properties":{"title":"Missing Maps: Dar es Salaam - Ramani Huria 8","id":2242,"area":18.297857125006182,"year":"2017","lastUpdated":"2017-04-26T13:26:16.487958","changesets":402,"mappers":13,"roads":17.3508405937143,"buildings":9226,"edits":9722,"latest":"2016-12-08T19:06:28.000Z"},"geometry":{"type":"Point","coordinates":[39.19390890056493,-6.76004283446328]}},{"type":"Feature","properties":{"title":"MSD & JSI/USAID Tanzania Road Import - Mwanza region","id":2138,"area":18452.858077930265,"year":"2017","lastUpdated":"2017-09-04T11:31:29.126756","changesets":149,"mappers":15,"roads":3770.57157796073,"buildings":105,"edits":5447,"latest":"2016-11-14T12:29:58.000Z"},"geometry":{"type":"Point","coordinates":[32.94155795664897,-2.648829790193047]}},{"type":"Feature","properties":{"title":"MSD & JSI/USAID Tanzania Road Import - Iringa region","id":2157,"area":30284.59973311939,"year":"2016","lastUpdated":"2016-10-20T13:22:29.952382","changesets":85,"mappers":13,"roads":2909.39047680426,"buildings":712,"edits":3579,"latest":"2016-10-19T21:15:43.000Z"},"geometry":{"type":"Point","coordinates":[35.12966588259462,-8.90039717715023]}},{"type":"Feature","properties":{"title":"Missing Maps: Dar es Salaam - Ramani Huria 7","id":2125,"area":15.59172030179052,"year":"2017","lastUpdated":"2017-12-11T17:19:29.232404","changesets":681,"mappers":54,"roads":23.3546858581493,"buildings":15759,"edits":16703,"latest":"2017-12-11T17:19:19.000Z"},"geometry":{"type":"Point","coordinates":[39.22768489444798,-6.724982791087041]}},{"type":"Feature","properties":{"title":"MSD & JSI/USAID Tanzania Road Import - Mbeya region","id":2111,"area":19769.484038509396,"year":"2016","lastUpdated":"2016-09-26T19:17:08.424814","changesets":79,"mappers":5,"roads":2211.37645137462,"buildings":3314,"edits":7568,"latest":"2016-10-05T18:18:41.000Z"},"geometry":{"type":"Point","coordinates":[33.53129587985334,-8.652609274565219]}},{"type":"Feature","properties":{"title":"MSD & JSI/USAID Tanzania Road Import - Kagera region","id":2000,"area":20054.048144070715,"year":"2017","lastUpdated":"2017-08-17T15:35:09.385364","changesets":0,"mappers":0,"roads":0,"buildings":0,"edits":0,"latest":null},"geometry":{"type":"Point","coordinates":[31.041926812127926,-2.3254413013888326]}},{"type":"Feature","properties":{"title":"MSD & JSI/USAID Tanzania Road Import - Singida region","id":1999,"area":26074.754451063287,"year":"2016","lastUpdated":"2016-09-25T10:42:24.947931","changesets":0,"mappers":0,"roads":0,"buildings":0,"edits":0,"latest":null},"geometry":{"type":"Point","coordinates":[34.50140704015796,-5.676229952710943]}},{"type":"Feature","properties":{"title":"MSD & JSI/USAID Tanzania Road Import - Morogoro region","id":2050,"area":28136.915277094853,"year":"2016","lastUpdated":"2016-08-23T17:28:25.347311","changesets":0,"mappers":0,"roads":0,"buildings":0,"edits":0,"latest":null},"geometry":{"type":"Point","coordinates":[36.961234396207985,-7.8614884864610755]}},{"type":"Feature","properties":{"title":"MSD & JSI/USAID Tanzania Road Import - Pwani region","id":2110,"area":21135.143831005626,"year":"2016","lastUpdated":"2016-11-09T09:08:14.321577","changesets":0,"mappers":0,"roads":0,"buildings":0,"edits":0,"latest":null},"geometry":{"type":"Point","coordinates":[38.66302671069425,-7.24398878152632]}},{"type":"Feature","properties":{"title":"MSD & JSI/USAID Tanzania Road Import - Kilimanjaro region","id":1972,"area":11317.826802773296,"year":"2016","lastUpdated":"2016-08-31T08:40:56.222091","changesets":0,"mappers":0,"roads":0,"buildings":0,"edits":0,"latest":null},"geometry":{"type":"Point","coordinates":[37.47095374471149,-3.5857099932097873]}},{"type":"Feature","properties":{"title":"MSD & JSI/USAID Tanzania Road Import - Shinyaga region","id":2049,"area":35039.611042625445,"year":"2016","lastUpdated":"2016-08-22T11:27:17.050654","changesets":0,"mappers":0,"roads":0,"buildings":0,"edits":0,"latest":null},"geometry":{"type":"Point","coordinates":[34.09181497141662,-3.1247602533541907]}},{"type":"Feature","properties":{"title":"MSD & JSI/USAID Tanzania Road Import - Manyara region","id":1973,"area":40580.74888215921,"year":"2016","lastUpdated":"2016-07-03T20:50:06.210422","changesets":0,"mappers":0,"roads":0,"buildings":0,"edits":0,"latest":null},"geometry":{"type":"Point","coordinates":[36.2647809052761,-4.352401182141463]}},{"type":"Feature","properties":{"title":"MSD & JSI/USAID Tanzania Road Import - Mara region","id":2095,"area":18583.120612545095,"year":"2016","lastUpdated":"2016-12-02T22:50:50.785436","changesets":0,"mappers":0,"roads":0,"buildings":0,"edits":0,"latest":null},"geometry":{"type":"Point","coordinates":[34.25431061911746,-1.7219985711602823]}},{"type":"Feature","properties":{"title":"MSD & JSI/USAID Tanzania Road Import - Tanga region","id":1921,"area":26453.26230241192,"year":"2016","lastUpdated":"2016-11-26T18:48:48.999774","changesets":0,"mappers":0,"roads":0,"buildings":0,"edits":0,"latest":null},"geometry":{"type":"Point","coordinates":[38.09654675335962,-5.362412457676792]}},{"type":"Feature","properties":{"title":"Peace Corps Tanzania -- Lushoto","id":1903,"area":69.21165370312055,"year":"2017","lastUpdated":"2017-09-19T04:44:26.195543","changesets":640,"mappers":88,"roads":126.39665147357,"buildings":9101,"edits":10836,"latest":"2017-07-28T23:41:56.000Z"},"geometry":{"type":"Point","coordinates":[38.303773299507476,-4.810238891566513]}},{"type":"Feature","properties":{"title":"MSD & JSI/USAID Tanzania Road Import - Rukwa and Katavi regions","id":1462,"area":23601.174016426638,"year":"2016","lastUpdated":"2016-11-09T18:57:37.926429","changesets":0,"mappers":0,"roads":0,"buildings":0,"edits":0,"latest":null},"geometry":{"type":"Point","coordinates":[31.18854567490904,-7.033630568874043]}},{"type":"Feature","properties":{"title":"MSD & JSI/USAID Tanzania Road Import - Zanzibar region","id":1299,"area":2309.3542336056603,"year":"2017","lastUpdated":"2017-03-25T22:18:08.637646","changesets":0,"mappers":0,"roads":0,"buildings":0,"edits":0,"latest":null},"geometry":{"type":"Point","coordinates":[39.31937084402078,-6.027515801549827]}}],"Philippines":[{"type":"Feature","properties":{"title":"CRS-UP NOAH Building Footprints Mapping - Malabon City","id":4475,"area":15.859280000650813,"year":"2018","lastUpdated":"2018-07-23T18:13:07.790933","changesets":415,"mappers":6,"roads":0.382137983857054,"buildings":11395,"edits":11501,"latest":"2018-07-23T18:12:59.000Z"},"geometry":{"type":"Point","coordinates":[120.9674154212251,14.667902897859918]}},{"type":"Feature","properties":{"title":"CRS-UP NOAH Building Footprints Mapping - Malabon City","id":3907,"area":15.859280000650813,"year":"2018","lastUpdated":"2018-06-06T07:45:46.150299","changesets":18,"mappers":2,"roads":0.908475572641972,"buildings":67,"edits":74,"latest":"2018-06-06T08:03:26.000Z"},"geometry":{"type":"Point","coordinates":[120.9674154212251,14.667902897859918]}},{"type":"Feature","properties":{"title":"UP-NOAH Mapping Campuses (UP Manila School of Health Sciences, South Cotabato)","id":3792,"area":4.3460409669323505,"year":"2017","lastUpdated":"2017-11-25T04:42:36.696361","changesets":0,"mappers":0,"roads":0,"buildings":0,"edits":0,"latest":null},"geometry":{"type":"Point","coordinates":[124.88243261589301,6.447533405730095]}},{"type":"Feature","properties":{"title":"UP-NOAH Mapping Campuses (UP Visayas Miag-ao) ","id":3470,"area":12.578176573343839,"year":"2017","lastUpdated":"2017-11-25T07:02:40.744442","changesets":0,"mappers":0,"roads":0,"buildings":0,"edits":0,"latest":null},"geometry":{"type":"Point","coordinates":[122.21696706918563,10.652970828749863]}},{"type":"Feature","properties":{"title":"UP-NOAH Mapping Campuses (UP Diliman Extension Programs in Pampanga)","id":3434,"area":43.54156672373075,"year":"2018","lastUpdated":"2018-03-08T03:26:29.800555","changesets":0,"mappers":0,"roads":0,"buildings":0,"edits":0,"latest":null},"geometry":{"type":"Point","coordinates":[120.55005827104301,15.186427180404344]}},{"type":"Feature","properties":{"title":"Barangay Talisay, Mayorga, Leyte - Missing Maps","id":3829,"area":2.270534722569991,"year":"2018","lastUpdated":"2018-01-25T15:59:08.065074","changesets":61,"mappers":13,"roads":3.70690145632449,"buildings":738,"edits":928,"latest":"2017-12-24T15:19:57.000Z"},"geometry":{"type":"Point","coordinates":[124.9775838851929,10.91758102492891]}},{"type":"Feature","properties":{"title":"Mapping in Taal volcano, Philippines","id":387,"area":71.85336636220062,"year":"2016","lastUpdated":"2016-07-04T02:41:53.554278","changesets":6,"mappers":4,"roads":0,"buildings":42,"edits":42,"latest":"2016-07-04T02:41:31.000Z"},"geometry":{"type":"Point","coordinates":[120.995006544419,14.0074435256194]}},{"type":"Feature","properties":{"title":"Mapping in Cavite, Philippines - SA activities","id":378,"area":347.85007544928436,"year":"2018","lastUpdated":"2018-01-31T02:41:47.484533","changesets":1184,"mappers":74,"roads":37.6705904876275,"buildings":9795,"edits":11838,"latest":"2018-05-17T21:48:06.000Z"},"geometry":{"type":"Point","coordinates":[120.95298071824062,14.44782100733958]}},{"type":"Feature","properties":{"title":"CRS-UP NOAH Building Footprints Mapping - Angono, Rizal","id":4476,"area":14.749809999799018,"year":"2018","lastUpdated":"2018-07-18T10:03:55.901875","changesets":369,"mappers":13,"roads":0.56708532054949,"buildings":1334,"edits":1377,"latest":"2018-07-21T00:48:05.000Z"},"geometry":{"type":"Point","coordinates":[121.16528400038572,14.535180941214387]}},{"type":"Feature","properties":{"title":"Cagayan Valley, PH - Missing Roads","id":4219,"area":2.940942559638417,"year":"2018","lastUpdated":"2018-07-06T06:27:32.983505","changesets":17575795,"mappers":803313,"roads":11463700.022595,"buildings":283907947,"edits":364544477,"latest":"2018-07-24T23:39:51.000Z"},"geometry":{"type":"Point","coordinates":[121.68249184541031,17.195568942139595]}},{"type":"Feature","properties":{"title":"Soccsksargen, PH - Missing Roads","id":4227,"area":3.1029043042642748,"year":"2018","lastUpdated":"2018-07-06T06:29:12.343135","changesets":17575795,"mappers":803313,"roads":11463700.022595,"buildings":283907947,"edits":364544477,"latest":"2018-07-24T23:39:51.000Z"},"geometry":{"type":"Point","coordinates":[124.99650831963473,6.287009318987416]}},{"type":"Feature","properties":{"title":"Mayon Volcano USAID & USGS","id":4202,"area":23.191221545963582,"year":"2018","lastUpdated":"2018-07-24T00:42:11.317491","changesets":475,"mappers":97,"roads":30.2305632319562,"buildings":7830,"edits":8159,"latest":"2018-07-24T00:41:55.000Z"},"geometry":{"type":"Point","coordinates":[123.708816541763,13.271475957593504]}},{"type":"Feature","properties":{"title":"Barangay Marasbaras, Tacloban, Leyte - Missing Maps","id":3300,"area":7.807989010258504,"year":"2018","lastUpdated":"2018-06-28T16:24:54.135765","changesets":126,"mappers":9,"roads":5.10115868250806,"buildings":3434,"edits":3775,"latest":"2018-06-28T16:24:02.000Z"},"geometry":{"type":"Point","coordinates":[125.01222282424382,11.203458223071134]}},{"type":"Feature","properties":{"title":"DOST-Project NOAH (ISAIAH) Structures Map Up Zambales","id":1966,"area":4983.089272993,"year":"2017","lastUpdated":"2017-06-29T07:11:51.796592","changesets":0,"mappers":0,"roads":0,"buildings":0,"edits":0,"latest":null},"geometry":{"type":"Point","coordinates":[120.14176535981657,15.274302892442977]}},{"type":"Feature","properties":{"title":"DOST-Project NOAH (ISAIAH) Structures Map Up Cavite","id":1636,"area":1236.7930267854183,"year":"2017","lastUpdated":"2017-01-06T03:53:24.366033","changesets":0,"mappers":0,"roads":0,"buildings":0,"edits":0,"latest":null},"geometry":{"type":"Point","coordinates":[120.89029621315147,14.296354336510534]}},{"type":"Feature","properties":{"title":"Northern Cebu Risk Mapping Project - Daanbantayan and Medellin","id":1509,"area":165.4687088247908,"year":"2018","lastUpdated":"2018-05-27T16:30:44.519125","changesets":0,"mappers":0,"roads":0,"buildings":0,"edits":0,"latest":null},"geometry":{"type":"Point","coordinates":[124.00373259912789,11.183437208381003]}},{"type":"Feature","properties":{"title":"Philippines: Silvinos Lobos","id":1157,"area":6.207303897148626,"year":"2017","lastUpdated":"2017-07-21T03:12:42.356484","changesets":292,"mappers":16,"roads":26.35312779277,"buildings":544,"edits":804,"latest":"2015-12-16T07:22:58.000Z"},"geometry":{"type":"Point","coordinates":[124.8381827034895,12.32730317863355]}}],"Central African Republic":[{"type":"Feature","properties":{"title":"Concern Worldwide Disaster Risk Reduction (pilot) Gaga / Datoli, Central African Republic","id":4448,"area":3.1098974543285984,"year":"2018","lastUpdated":"2018-07-17T08:23:37.578474","changesets":114,"mappers":15,"roads":12.629216277212,"buildings":1812,"edits":1942,"latest":"2018-07-17T08:23:29.000Z"},"geometry":{"type":"Point","coordinates":[16.97869646415265,5.48774680125175]}},{"type":"Feature","properties":{"title":"Central African Republic, Lobaye, MbaÃ¯ki","id":449,"area":9.413091416207873,"year":"2015","lastUpdated":"2015-04-19T17:57:40.334280","changesets":13,"mappers":8,"roads":43.2228441743804,"buildings":108,"edits":286,"latest":"2017-09-26T12:40:50.000Z"},"geometry":{"type":"Point","coordinates":[18.000240323421774,3.8817880432844687]}},{"type":"Feature","properties":{"title":"Central African Republic/RÃ©publique Centrafricaine, Haut-Mbomou, ZÃ©mio","id":397,"area":11.022278185380612,"year":"2014","lastUpdated":"2014-02-10T00:14:14.928829","changesets":145,"mappers":16,"roads":517.642846680441,"buildings":2851,"edits":4593,"latest":"2017-07-07T07:54:06.000Z"},"geometry":{"type":"Point","coordinates":[25.1297235453902,5.027035543277952]}},{"type":"Feature","properties":{"title":"Concern Worldwide Disaster Risk Reduction (pilot) MbankoÃ©, Central African Republic","id":4450,"area":1.8526255318439828,"year":"2018","lastUpdated":"2018-04-24T15:27:49.285526","changesets":2,"mappers":1,"roads":5.62731420224133,"buildings":0,"edits":9,"latest":"2018-04-24T16:08:29.000Z"},"geometry":{"type":"Point","coordinates":[17.011505081182875,4.830940356346273]}}],"Malawi":[{"type":"Feature","properties":{"title":"Katumba Songwe, Mbeya, Tanzania Mini Grids Project 01","id":4400,"area":38.180931167498045,"year":"2018","lastUpdated":"2018-04-12T09:09:59.185092","changesets":477,"mappers":58,"roads":1.86573763751187,"buildings":9477,"edits":9737,"latest":"2018-04-12T09:09:50.000Z"},"geometry":{"type":"Point","coordinates":[33.87519405982135,-9.66733130427923]}},{"type":"Feature","properties":{"title":"Peace Corps Malawi -- Chikwina","id":1847,"area":15.30237627828821,"year":"2017","lastUpdated":"2017-01-05T02:48:44.896301","changesets":262,"mappers":30,"roads":106.043879397822,"buildings":1138,"edits":2155,"latest":"2016-11-25T19:55:33.000Z"},"geometry":{"type":"Point","coordinates":[34.17408943176268,-11.395309126629073]}},{"type":"Feature","properties":{"title":"Missing Maps: Mbawela, Thyolo District, Southern Region, Malawi","id":3212,"area":183.55221000784567,"year":"2018","lastUpdated":"2018-05-03T01:34:57.499603","changesets":0,"mappers":0,"roads":0,"buildings":0,"edits":0,"latest":null},"geometry":{"type":"Point","coordinates":[35.20417174986481,-16.247769535019906]}},{"type":"Feature","properties":{"title":"Missing Maps - Malawi - Nchewere","id":4786,"area":63.125753852058665,"year":"2018","lastUpdated":"2018-07-10T12:41:11.572302","changesets":387,"mappers":54,"roads":195.539001251755,"buildings":3212,"edits":3688,"latest":"2018-07-10T12:37:32.000Z"},"geometry":{"type":"Point","coordinates":[34.174610317515125,-10.321445695342208]}},{"type":"Feature","properties":{"title":"Kapelulu","id":4379,"area":338.62418037046297,"year":"2018","lastUpdated":"2018-07-17T08:50:13.043340","changesets":1151,"mappers":83,"roads":1213.94477048783,"buildings":20345,"edits":27778,"latest":"2018-07-17T08:49:29.000Z"},"geometry":{"type":"Point","coordinates":[33.87933429655841,-12.928213987958761]}},{"type":"Feature","properties":{"title":"Missing Maps - Malawi - Mbabvi","id":4136,"area":494.03595616006686,"year":"2018","lastUpdated":"2018-07-09T10:28:58.149455","changesets":562,"mappers":47,"roads":481.562949378303,"buildings":2861,"edits":5564,"latest":"2018-07-20T10:50:22.000Z"},"geometry":{"type":"Point","coordinates":[35.00100389511327,-16.709331318309083]}},{"type":"Feature","properties":{"title":"Missing Maps - Malawi - Chitipa","id":4139,"area":10483.53823408829,"year":"2018","lastUpdated":"2018-07-24T18:04:37.393451","changesets":7238,"mappers":696,"roads":10324.8139769652,"buildings":116481,"edits":165641,"latest":"2018-07-24T19:04:22.000Z"},"geometry":{"type":"Point","coordinates":[33.414076255588895,-9.822840295480221]}},{"type":"Feature","properties":{"title":"Missing Masp - Malawi - Bangula South-east","id":4113,"area":71.00413003396825,"year":"2018","lastUpdated":"2018-05-29T17:56:27.046186","changesets":223,"mappers":38,"roads":75.0060565637773,"buildings":2910,"edits":4201,"latest":"2018-05-29T18:28:32.000Z"},"geometry":{"type":"Point","coordinates":[35.16832243750663,-16.612015997197528]}},{"type":"Feature","properties":{"title":"Missing Maps - Malawi - Bangula east","id":3956,"area":123.59059385253316,"year":"2018","lastUpdated":"2018-05-07T08:36:59.511711","changesets":414,"mappers":96,"roads":179.379168903383,"buildings":3121,"edits":4903,"latest":"2018-07-15T14:57:13.000Z"},"geometry":{"type":"Point","coordinates":[34.917830921643144,-16.619995019375573]}},{"type":"Feature","properties":{"title":"Missing Maps - Malawi - Nsanje north-east","id":3952,"area":117.38792525999837,"year":"2018","lastUpdated":"2018-06-29T22:46:14.119636","changesets":1083,"mappers":166,"roads":588.500364020167,"buildings":17215,"edits":25494,"latest":"2018-06-29T22:46:10.000Z"},"geometry":{"type":"Point","coordinates":[35.27086703721364,-16.795308230120305]}},{"type":"Feature","properties":{"title":"Missing Maps - Malawi - Nsanje South","id":3628,"area":66.18672691836431,"year":"2018","lastUpdated":"2018-01-31T00:01:17.095453","changesets":242,"mappers":25,"roads":199.681188672184,"buildings":5544,"edits":7837,"latest":"2018-01-31T00:01:13.000Z"},"geometry":{"type":"Point","coordinates":[35.25486946105957,-16.9723286413173]}},{"type":"Feature","properties":{"title":"Missing Maps - Malawi - Southeast","id":3629,"area":155.3693048178326,"year":"2018","lastUpdated":"2018-04-24T19:38:12.722089","changesets":603,"mappers":79,"roads":284.109908705379,"buildings":12316,"edits":19615,"latest":"2018-04-24T19:38:08.000Z"},"geometry":{"type":"Point","coordinates":[35.269203186035156,-17.063810965862945]}},{"type":"Feature","properties":{"title":"Missing Maps - Malawi - Malemia South (Buildings only)","id":3280,"area":111.1059820286046,"year":"2017","lastUpdated":"2017-11-13T10:18:00.914781","changesets":225,"mappers":24,"roads":28.8940297959984,"buildings":2877,"edits":3045,"latest":"2017-09-08T13:35:07.000Z"},"geometry":{"type":"Point","coordinates":[35.22125137313565,-16.94416173197515]}},{"type":"Feature","properties":{"title":"Missing Maps - Malawi - Mwambo West (Buildings)","id":3100,"area":278.2275896931429,"year":"2017","lastUpdated":"2017-11-13T10:19:23.984291","changesets":1775,"mappers":93,"roads":17.0233371608272,"buildings":25502,"edits":25872,"latest":"2017-07-24T19:28:31.000Z"},"geometry":{"type":"Point","coordinates":[35.446619575884924,-15.453184046719608]}},{"type":"Feature","properties":{"title":"Peace Corps Malawi -- Mikolongwe,â â â  Thyolo","id":2600,"area":36.17857650157155,"year":"2018","lastUpdated":"2018-06-20T04:21:05.997966","changesets":347,"mappers":47,"roads":155.91709837346,"buildings":6814,"edits":11822,"latest":"2018-06-20T04:17:47.000Z"},"geometry":{"type":"Point","coordinates":[35.164520800000005,-15.9033634]}},{"type":"Feature","properties":{"title":"Peace Corps Malawi -- TA Chamba, Machinga","id":2599,"area":31.527637564309366,"year":"2018","lastUpdated":"2018-06-20T05:29:23.478733","changesets":251,"mappers":12,"roads":502.001448169999,"buildings":10788,"edits":14959,"latest":"2018-06-20T05:20:05.000Z"},"geometry":{"type":"Point","coordinates":[35.3974555,-15.19788]}},{"type":"Feature","properties":{"title":"Peace Corps Malawi -- Mpiri, Machinga","id":2597,"area":89.20745550476056,"year":"2017","lastUpdated":"2017-11-15T18:33:51.801430","changesets":229,"mappers":32,"roads":226.038871519312,"buildings":4496,"edits":7838,"latest":"2018-02-01T11:59:51.000Z"},"geometry":{"type":"Point","coordinates":[35.60664,-14.772054999999998]}},{"type":"Feature","properties":{"title":"Peace Corps Malawi -- Embangweni, Mzimba","id":2476,"area":269.5370587306771,"year":"2017","lastUpdated":"2017-09-20T12:23:35.488287","changesets":464,"mappers":128,"roads":518.557430006959,"buildings":3077,"edits":7777,"latest":"2018-03-14T12:42:31.000Z"},"geometry":{"type":"Point","coordinates":[33.4562284725,-12.130773614999999]}},{"type":"Feature","properties":{"title":"Missing Maps - Malawi - Thyolo - Blantyre (buildings) ","id":2472,"area":390.599967535883,"year":"2017","lastUpdated":"2017-11-17T10:26:43.447355","changesets":2857,"mappers":146,"roads":236.803655849551,"buildings":38767,"edits":42991,"latest":"2017-06-29T13:26:16.000Z"},"geometry":{"type":"Point","coordinates":[35.164578638804194,-15.971932043722934]}},{"type":"Feature","properties":{"title":"Missing Maps - Malawi - Thyolo - Blantyre (roads)","id":2471,"area":260.21162645851905,"year":"2017","lastUpdated":"2017-12-10T00:18:10.218421","changesets":1511,"mappers":193,"roads":3117.55276893705,"buildings":32887,"edits":78192,"latest":"2018-03-21T16:03:26.000Z"},"geometry":{"type":"Point","coordinates":[35.180671276779776,-15.966715971022984]}},{"type":"Feature","properties":{"title":"Missing Maps - Malawi - Southern areas (2)","id":2382,"area":57.44689181397446,"year":"2017","lastUpdated":"2017-09-10T00:11:33.210972","changesets":232,"mappers":21,"roads":149.366922718635,"buildings":1881,"edits":4027,"latest":"2017-04-27T08:43:32.000Z"},"geometry":{"type":"Point","coordinates":[35.29521699831209,-16.21238850436092]}},{"type":"Feature","properties":{"title":"Missing Maps - Malawi - TA Chikumba (buildings)","id":2297,"area":222.63039250784496,"year":"2017","lastUpdated":"2017-04-17T12:40:41.270988","changesets":2641,"mappers":161,"roads":379.32641656652,"buildings":29044,"edits":36017,"latest":"2017-05-12T12:09:07.000Z"},"geometry":{"type":"Point","coordinates":[35.4070637827874,-16.03716635758071]}},{"type":"Feature","properties":{"title":"Missing Maps - Malawi - TA Thomas (roads)","id":2280,"area":111.61732175540202,"year":"2017","lastUpdated":"2017-10-10T12:35:26.526771","changesets":433,"mappers":70,"roads":1099.09278869546,"buildings":1644,"edits":12442,"latest":"2017-10-10T13:08:19.000Z"},"geometry":{"type":"Point","coordinates":[34.959800443181905,-16.016128489130818]}},{"type":"Feature","properties":{"title":"Missing Maps - Malawi - TA Lundu (Buildings)","id":2311,"area":228.51892886625433,"year":"2017","lastUpdated":"2017-06-28T11:56:54.503004","changesets":836,"mappers":60,"roads":41.8100804549834,"buildings":11063,"edits":11364,"latest":"2017-02-21T17:45:05.000Z"},"geometry":{"type":"Point","coordinates":[34.861993300643434,-16.21781898586094]}},{"type":"Feature","properties":{"title":"Missing Maps - Malawi - TA Maseya (Buildings)","id":2309,"area":197.67633071782188,"year":"2016","lastUpdated":"2016-11-28T18:14:38.568203","changesets":1871,"mappers":77,"roads":137.092213223059,"buildings":9997,"edits":10424,"latest":"2017-01-26T07:04:12.000Z"},"geometry":{"type":"Point","coordinates":[34.866286169252206,-16.094315051572565]}},{"type":"Feature","properties":{"title":"Missing Maps - Malawi - TA Maseya (roads)","id":2310,"area":146.15076576006686,"year":"2017","lastUpdated":"2017-02-22T18:52:41.431116","changesets":399,"mappers":39,"roads":700.705465896641,"buildings":278,"edits":5528,"latest":"2017-02-17T16:05:03.000Z"},"geometry":{"type":"Point","coordinates":[34.86430721130162,-16.102664526024622]}},{"type":"Feature","properties":{"title":"Missing Maps - Malawi - Southern areas","id":2381,"area":359.7540340123145,"year":"2017","lastUpdated":"2017-11-02T09:48:44.385076","changesets":1655,"mappers":89,"roads":599.857943931075,"buildings":13370,"edits":27615,"latest":"2017-06-23T03:49:45.000Z"},"geometry":{"type":"Point","coordinates":[35.06495829383556,-16.238190326730273]}},{"type":"Feature","properties":{"title":"Missing Maps - Malawi - TA Somba (Buildings)","id":2341,"area":244.67801257800394,"year":"2017","lastUpdated":"2017-06-09T10:02:29.205978","changesets":926,"mappers":53,"roads":206.161695748684,"buildings":12774,"edits":14922,"latest":"2017-06-09T10:02:58.000Z"},"geometry":{"type":"Point","coordinates":[34.89981902821421,-15.928768043305036]}},{"type":"Feature","properties":{"title":"Missing Maps - Malawi - TA Chikumba (roads)","id":2298,"area":150.15157283923318,"year":"2017","lastUpdated":"2017-08-28T14:12:54.283306","changesets":1529,"mappers":119,"roads":1182.77977174999,"buildings":6958,"edits":22253,"latest":"2017-08-28T14:12:21.000Z"},"geometry":{"type":"Point","coordinates":[35.404504733227455,-16.041780590431358]}},{"type":"Feature","properties":{"title":"Missing Maps: Dedza, Dedza District, Central Region, Malawi","id":2185,"area":23.897236709253992,"year":"2018","lastUpdated":"2018-06-22T04:35:14.710644","changesets":1103,"mappers":103,"roads":206.253926674209,"buildings":10752,"edits":15886,"latest":"2018-07-23T22:40:19.000Z"},"geometry":{"type":"Point","coordinates":[34.32334899902346,-14.382520985940015]}},{"type":"Feature","properties":{"title":"Missing Maps: Lilongwe (north), Lilongwe District, Central Region, Malawi","id":2190,"area":215.24362358914928,"year":"2018","lastUpdated":"2018-06-25T04:39:35.531839","changesets":5489,"mappers":339,"roads":1569.76820208458,"buildings":49646,"edits":72461,"latest":"2018-07-05T05:47:22.000Z"},"geometry":{"type":"Point","coordinates":[33.79564905166625,-13.872780672455855]}},{"type":"Feature","properties":{"title":"Missing Maps: Mzuzu, Malawi","id":1981,"area":43.59269845235998,"year":"2017","lastUpdated":"2017-02-14T15:44:34.992366","changesets":3354,"mappers":191,"roads":548.032225871739,"buildings":56545,"edits":72759,"latest":"2017-02-21T13:56:54.000Z"},"geometry":{"type":"Point","coordinates":[34.00998115539552,-11.44982566732664]}},{"type":"Feature","properties":{"title":"Peace Corps Malawi -- Liwonde","id":2060,"area":223.5878549297584,"year":"2017","lastUpdated":"2017-10-16T14:55:21.323478","changesets":5412,"mappers":254,"roads":3040.8746674548,"buildings":29539,"edits":67223,"latest":"2018-02-18T00:17:20.000Z"},"geometry":{"type":"Point","coordinates":[35.2229118347168,-15.046146972913348]}}],"Vietnam":[{"type":"Feature","properties":{"title":"Can Tho Core City Mapathon Area","id":3895,"area":149.1174397768337,"year":"2018","lastUpdated":"2018-04-27T16:26:46.935925","changesets":484,"mappers":21,"roads":49.8156810371734,"buildings":4694,"edits":6133,"latest":"2018-04-27T16:33:46.000Z"},"geometry":{"type":"Point","coordinates":[105.71904173803547,10.03014896250419]}},{"type":"Feature","properties":{"title":"Missing Maps: Tam Ky, Vietnam 2","id":3868,"area":60.68202185336558,"year":"2018","lastUpdated":"2018-07-05T16:46:12.916921","changesets":969,"mappers":110,"roads":14.6886584720354,"buildings":8663,"edits":8799,"latest":"2018-07-13T19:39:47.000Z"},"geometry":{"type":"Point","coordinates":[108.5092704779448,15.609606878767911]}},{"type":"Feature","properties":{"title":"Missing Maps: Cam Pho Ward, Da Nang, Viet Nam","id":4601,"area":1.3191805454564582,"year":"2018","lastUpdated":"2018-07-24T06:12:10.444711","changesets":193,"mappers":43,"roads":1.13567049092244,"buildings":407,"edits":466,"latest":"2018-07-13T21:04:09.000Z"},"geometry":{"type":"Point","coordinates":[108.32319234706529,15.880939585337895]}},{"type":"Feature","properties":{"title":"Missing Maps: Hoa Nhon, Da Nang, Viet Nam","id":4595,"area":32.75607542042544,"year":"2018","lastUpdated":"2018-07-24T13:47:44.103086","changesets":923,"mappers":199,"roads":193.822713231961,"buildings":10071,"edits":11931,"latest":"2018-07-24T13:47:20.000Z"},"geometry":{"type":"Point","coordinates":[108.11778095392042,16.016404351515657]}},{"type":"Feature","properties":{"title":"Sentinel Asia Mini-Project: Vu Gia Thu Bon river basin, Vietnam","id":1374,"area":9200.467345858582,"year":"2017","lastUpdated":"2017-11-26T11:02:50.399046","changesets":152,"mappers":19,"roads":5766.02757826086,"buildings":4232,"edits":42236,"latest":"2017-11-28T15:12:17.000Z"},"geometry":{"type":"Point","coordinates":[107.90731716815813,15.569732746626746]}}],"Mongolia":[{"type":"Feature","properties":{"title":"Erdenebulgan Soum Center","id":3847,"area":65.67714091334696,"year":"2018","lastUpdated":"2018-05-13T08:46:53.565217","changesets":523,"mappers":50,"roads":108.39722771687,"buildings":1712,"edits":2619,"latest":"2018-05-13T08:45:31.000Z"},"geometry":{"type":"Point","coordinates":[101.4685454682905,47.465522048388706]}},{"type":"Feature","properties":{"title":"Erdenebulgan sum","id":3783,"area":61.75209371627156,"year":"2018","lastUpdated":"2018-05-12T10:03:16.046873","changesets":299,"mappers":31,"roads":71.2443210851076,"buildings":820,"edits":1282,"latest":"2018-07-12T00:42:31.000Z"},"geometry":{"type":"Point","coordinates":[101.47483737653846,47.51158596915389]}},{"type":"Feature","properties":{"title":"Bulgan sum","id":3622,"area":3259.9412271023048,"year":"2017","lastUpdated":"2017-11-08T03:54:53.820994","changesets":755,"mappers":16,"roads":652.269737190044,"buildings":1730,"edits":2943,"latest":"2017-11-04T08:06:59.000Z"},"geometry":{"type":"Point","coordinates":[101.03539235665707,47.012723943812425]}},{"type":"Feature","properties":{"title":"Hashaat sum","id":3617,"area":2589.6325478030785,"year":"2018","lastUpdated":"2018-03-28T21:48:27.461960","changesets":82,"mappers":14,"roads":458.829261849085,"buildings":264,"edits":1123,"latest":"2018-03-28T21:48:02.000Z"},"geometry":{"type":"Point","coordinates":[103.20555800281657,47.43599268738683]}},{"type":"Feature","properties":{"title":"Tsenkher sum","id":3612,"area":3166.989134861274,"year":"2018","lastUpdated":"2018-07-17T21:07:38.497301","changesets":95,"mappers":11,"roads":791.864829775597,"buildings":677,"edits":1084,"latest":"2018-07-17T21:07:26.000Z"},"geometry":{"type":"Point","coordinates":[101.68685399247293,47.168898601818455]}},{"type":"Feature","properties":{"title":"Ulziit sum","id":3608,"area":1691.2232764727976,"year":"2017","lastUpdated":"2017-12-16T14:55:25.499980","changesets":8,"mappers":2,"roads":28.9655597348063,"buildings":375,"edits":397,"latest":"2017-12-16T16:56:24.000Z"},"geometry":{"type":"Point","coordinates":[102.50110500797966,48.06102034864942]}},{"type":"Feature","properties":{"title":"Tsetserleg sum","id":3611,"area":2481.406043518446,"year":"2017","lastUpdated":"2017-11-03T10:56:45.281961","changesets":2,"mappers":1,"roads":0,"buildings":14,"edits":14,"latest":"2017-11-06T09:16:39.000Z"},"geometry":{"type":"Point","coordinates":[100.80596861826358,49.0399797360591]}},{"type":"Feature","properties":{"title":"Mapping Ulaanbaatar, Mongolia - Bayanzu'rx and Nalaix Districts","id":2254,"area":1698.1376834942735,"year":"2018","lastUpdated":"2018-04-27T14:18:02.391298","changesets":0,"mappers":0,"roads":0,"buildings":0,"edits":0,"latest":null},"geometry":{"type":"Point","coordinates":[107.4150030446948,47.9413245060865]}},{"type":"Feature","properties":{"title":"Mapping Ulaanbaatar, Mongolia - Su'xbaatar and Chingeltei Districts","id":2022,"area":296.9698603173244,"year":"2018","lastUpdated":"2018-03-17T22:02:23.400060","changesets":0,"mappers":0,"roads":0,"buildings":0,"edits":0,"latest":null},"geometry":{"type":"Point","coordinates":[106.92217922330099,48.03787994660196]}}],"El Salvador":[{"type":"Feature","properties":{"title":"Missing Maps: Chirilagua, El Salvador","id":3814,"area":214.86119406268924,"year":"2018","lastUpdated":"2018-07-16T01:46:06.577674","changesets":0,"mappers":0,"roads":0,"buildings":0,"edits":0,"latest":null},"geometry":{"type":"Point","coordinates":[-88.14350874487482,13.262116801652168]}},{"type":"Feature","properties":{"title":"Peace Corps El Salvador - Metapan","id":1281,"area":5.790547849032817,"year":"2018","lastUpdated":"2018-03-10T19:27:53.935663","changesets":185,"mappers":22,"roads":28.1680857429414,"buildings":2199,"edits":2725,"latest":"2018-03-10T19:45:30.000Z"},"geometry":{"type":"Point","coordinates":[-89.44315617201758,14.326359382398481]}},{"type":"Feature","properties":{"title":"Peace Corps El Salvador - Chalatenango","id":1243,"area":4.288838880176266,"year":"2016","lastUpdated":"2016-02-06T01:29:37.655800","changesets":472,"mappers":24,"roads":133.331340440643,"buildings":1685,"edits":3594,"latest":"2015-12-08T03:16:09.000Z"},"geometry":{"type":"Point","coordinates":[-88.94277095794678,14.039527902968844]}}],"Nepal":[{"type":"Feature","properties":{"title":"Mapping Unmapped Places (Western Nepal) : Patan, Baitadi","id":3741,"area":119.66443564128191,"year":"2018","lastUpdated":"2018-06-02T06:11:35.757250","changesets":0,"mappers":0,"roads":0,"buildings":0,"edits":0,"latest":null},"geometry":{"type":"Point","coordinates":[80.53020956104902,29.460627820647296]}},{"type":"Feature","properties":{"title":"Flood Prone Community Mapping - Rupandehi, Nepal","id":3590,"area":52.9027060483444,"year":"2017","lastUpdated":"2017-11-26T12:40:43.582408","changesets":0,"mappers":0,"roads":0,"buildings":0,"edits":0,"latest":null},"geometry":{"type":"Point","coordinates":[83.14818838368294,27.711526753939904]}},{"type":"Feature","properties":{"title":"Sentinel Asia Mini-Project: West Rapti river basin, Nepal ","id":1372,"area":6391.502318061466,"year":"2018","lastUpdated":"2018-07-07T06:37:00.579778","changesets":1662,"mappers":44,"roads":323.503308691567,"buildings":15647,"edits":18884,"latest":"2018-07-07T06:36:09.000Z"},"geometry":{"type":"Point","coordinates":[82.39560001793716,28.10648477420485]}},{"type":"Feature","properties":{"title":"Seti River, Kaski, Kharapani area, Nepal","id":268,"area":188.231336627942,"year":"2018","lastUpdated":"2018-04-14T21:01:23.167441","changesets":62,"mappers":10,"roads":11.0116175322283,"buildings":412,"edits":574,"latest":"2018-04-05T14:19:28.000Z"},"geometry":{"type":"Point","coordinates":[83.92569779181132,28.319588853591895]}},{"type":"Feature","properties":{"title":"Tanahu Mapping","id":2009,"area":1577.9339889134376,"year":"2017","lastUpdated":"2017-04-02T23:31:16.919181","changesets":0,"mappers":0,"roads":0,"buildings":0,"edits":0,"latest":null},"geometry":{"type":"Point","coordinates":[84.18261352582412,27.950608816405012]}},{"type":"Feature","properties":{"title":"Mapping Flood Affected Community in Nepal (Morang District, Biratnagar)","id":3473,"area":1830.0915357323506,"year":"2018","lastUpdated":"2018-07-14T13:29:32.096284","changesets":0,"mappers":0,"roads":0,"buildings":0,"edits":0,"latest":null},"geometry":{"type":"Point","coordinates":[87.41436987053658,26.652046649252412]}},{"type":"Feature","properties":{"title":"Mapping Flood Affected Community in Nepal (Bank of East Rapti River)","id":3405,"area":814.4121243749338,"year":"2018","lastUpdated":"2018-07-24T01:47:52.887071","changesets":0,"mappers":0,"roads":0,"buildings":0,"edits":0,"latest":null},"geometry":{"type":"Point","coordinates":[84.77587980382584,27.517333661235245]}},{"type":"Feature","properties":{"title":"Kolti Mapping - Bajura (Kathmandu Living Labs)","id":3330,"area":147.69194823039064,"year":"2018","lastUpdated":"2018-04-24T02:46:56.466110","changesets":321,"mappers":52,"roads":133.321037552097,"buildings":3075,"edits":3709,"latest":"2018-04-24T02:43:44.000Z"},"geometry":{"type":"Point","coordinates":[81.60544529322915,29.57203413802083]}},{"type":"Feature","properties":{"title":"Flood Prone Community Mapping - Gulariya","id":2674,"area":96.10571474858709,"year":"2017","lastUpdated":"2017-11-20T07:03:32.605793","changesets":517,"mappers":16,"roads":301.883413162937,"buildings":10175,"edits":12396,"latest":"2017-11-20T08:14:01.000Z"},"geometry":{"type":"Point","coordinates":[81.3394547724868,28.21000535555556]}},{"type":"Feature","properties":{"title":"Open Data Day Nepal 2017 - Rajapur Mapping","id":2614,"area":240.9449448084045,"year":"2018","lastUpdated":"2018-04-25T01:46:45.905920","changesets":100305,"mappers":3635,"roads":35919.162340089,"buildings":1717731,"edits":2161054,"latest":"2018-07-24T08:22:58.000Z"},"geometry":{"type":"Point","coordinates":[81.15835880373676,28.43001877737917]}},{"type":"Feature","properties":{"title":"Kathmandu Living Labs: Pokhara, Nepal (Extended) â Mapping for Resiliency and Emergency Planning","id":2734,"area":427.5206799187036,"year":"2017","lastUpdated":"2017-08-30T14:33:06.596886","changesets":2594,"mappers":32,"roads":580.553483012276,"buildings":41384,"edits":54204,"latest":"2017-11-15T10:14:39.000Z"},"geometry":{"type":"Point","coordinates":[83.98499502441072,28.235686624880366]}},{"type":"Feature","properties":{"title":"Flood Prone Community Mapping - Tikapur","id":2718,"area":211.5990836047075,"year":"2018","lastUpdated":"2018-02-11T18:30:24.424355","changesets":1518,"mappers":82,"roads":407.678517559743,"buildings":29814,"edits":34154,"latest":"2018-05-02T20:14:30.000Z"},"geometry":{"type":"Point","coordinates":[81.1373093686036,28.509438927392804]}},{"type":"Feature","properties":{"title":"Flood Prone Community Mapping - Bardiya","id":2675,"area":79.47129041782082,"year":"2017","lastUpdated":"2017-08-23T20:07:13.391387","changesets":305,"mappers":28,"roads":95.1964207879617,"buildings":3299,"edits":4471,"latest":"2017-08-23T20:07:03.000Z"},"geometry":{"type":"Point","coordinates":[81.216641934225,28.544337034614546]}},{"type":"Feature","properties":{"title":"Kathmandu urban area (inside the Ring Road), Nepal - OSM data patrol and validation","id":3047,"area":43.016884533416324,"year":"2018","lastUpdated":"2018-07-01T11:09:43.398487","changesets":1451,"mappers":25,"roads":12.9063854477437,"buildings":24308,"edits":31900,"latest":"2018-06-15T14:40:59.000Z"},"geometry":{"type":"Point","coordinates":[85.32579613228638,27.701711697854677]}},{"type":"Feature","properties":{"title":"HFH :: NEAP - Tupche","id":2156,"area":19.040396945807156,"year":"2016","lastUpdated":"2016-12-23T08:39:53.477120","changesets":591,"mappers":4,"roads":2.84682321601079,"buildings":876,"edits":1010,"latest":"2016-12-23T09:09:08.000Z"},"geometry":{"type":"Point","coordinates":[85.14546811698014,27.964839893383807]}},{"type":"Feature","properties":{"title":"Missing Maps: Kaule, Nuwakot, Nepal","id":1540,"area":65.719858585551,"year":"2017","lastUpdated":"2017-10-18T21:58:46.189273","changesets":0,"mappers":0,"roads":0,"buildings":0,"edits":0,"latest":null},"geometry":{"type":"Point","coordinates":[85.1400089263916,28.002808997963548]}},{"type":"Feature","properties":{"title":"Kaligandaki Landslide - Gulmi (High Alert District)","id":1073,"area":1112.34738546875,"year":"2017","lastUpdated":"2017-09-29T18:20:00.485063","changesets":8464,"mappers":356,"roads":2001.3187979335,"buildings":64162,"edits":79402,"latest":"2017-11-19T22:52:21.000Z"},"geometry":{"type":"Point","coordinates":[83.30952359552255,28.087069216166462]}}],"Myanmar":[{"type":"Feature","properties":{"title":"Missing Maps: Mawlamyinegyun, Myanmar #1","id":3688,"area":267.95522733398417,"year":"2018","lastUpdated":"2018-07-19T07:03:50.101519","changesets":626,"mappers":100,"roads":9.92578145649791,"buildings":8026,"edits":8118,"latest":"2018-07-19T07:03:51.000Z"},"geometry":{"type":"Point","coordinates":[95.10533091768269,16.22352191657049]}},{"type":"Feature","properties":{"title":"Myanmar Island Mapping","id":3422,"area":263.7703600625425,"year":"2018","lastUpdated":"2018-02-21T23:08:16.849174","changesets":73,"mappers":8,"roads":11.8503523208968,"buildings":357,"edits":429,"latest":"2018-02-21T23:07:16.000Z"},"geometry":{"type":"Point","coordinates":[98.10889107840401,12.211170939144498]}},{"type":"Feature","properties":{"title":"Missing Maps: Dedaye, Myanmar #4","id":3343,"area":489.9566965470058,"year":"2018","lastUpdated":"2018-07-06T15:20:13.724652","changesets":0,"mappers":0,"roads":0,"buildings":0,"edits":0,"latest":null},"geometry":{"type":"Point","coordinates":[95.90425227572035,16.322551966730813]}},{"type":"Feature","properties":{"title":"Missing Maps: Pyapon, Myanmar #3","id":3337,"area":538.5449282117553,"year":"2018","lastUpdated":"2018-03-16T14:37:11.636363","changesets":0,"mappers":0,"roads":0,"buildings":0,"edits":0,"latest":null},"geometry":{"type":"Point","coordinates":[95.5936115841653,16.28720095187042]}},{"type":"Feature","properties":{"title":"Missing Maps: Ngapudaw, Myanmar 6","id":3810,"area":436.0451049544843,"year":"2018","lastUpdated":"2018-07-07T22:50:57.231778","changesets":378,"mappers":54,"roads":249.864917900959,"buildings":1909,"edits":2256,"latest":"2018-07-07T22:50:46.000Z"},"geometry":{"type":"Point","coordinates":[94.43520233755503,16.509700575651326]}},{"type":"Feature","properties":{"title":"Missing Maps: Pyapon, Myanmar #2","id":3336,"area":569.7196286833451,"year":"2018","lastUpdated":"2018-07-04T05:11:53.365376","changesets":0,"mappers":0,"roads":0,"buildings":0,"edits":0,"latest":null},"geometry":{"type":"Point","coordinates":[95.61312064893197,15.968033641220504]}},{"type":"Feature","properties":{"title":"Mapping in Hpa-an, Myanmar - SA activities","id":368,"area":21.979402938789597,"year":"2017","lastUpdated":"2017-09-19T18:35:38.582658","changesets":252,"mappers":9,"roads":505.936266559858,"buildings":3574,"edits":6792,"latest":"2017-10-28T18:58:25.000Z"},"geometry":{"type":"Point","coordinates":[97.64815805984709,16.868976951016524]}},{"type":"Feature","properties":{"title":"Missing Maps: Mawlamyine, Myanmar, South #2","id":4644,"area":135.9156421940245,"year":"2018","lastUpdated":"2018-07-24T04:34:43.653383","changesets":443,"mappers":66,"roads":13.1623839281844,"buildings":3655,"edits":3721,"latest":"2018-07-24T04:30:10.000Z"},"geometry":{"type":"Point","coordinates":[97.70429104328167,16.220942508576666]}},{"type":"Feature","properties":{"title":"SolidaritÃ© International, refugees crisis, Bandarban (Bengladesh)","id":4331,"area":145.63066042938559,"year":"2018","lastUpdated":"2018-07-05T20:55:28.170268","changesets":797,"mappers":101,"roads":510.084882061295,"buildings":11647,"edits":14328,"latest":"2018-06-21T08:00:59.000Z"},"geometry":{"type":"Point","coordinates":[92.2341151572248,21.37998345996593]}},{"type":"Feature","properties":{"title":"Missing Maps: Kangyidaunt, Myanmar 2","id":4159,"area":476.7682230265321,"year":"2018","lastUpdated":"2018-07-24T07:16:55.077252","changesets":2225,"mappers":197,"roads":235.764059120442,"buildings":20912,"edits":22085,"latest":"2018-07-24T07:16:31.000Z"},"geometry":{"type":"Point","coordinates":[94.94212214042263,16.85376643586638]}},{"type":"Feature","properties":{"title":"Missing Maps: Thabaung, Myanmar 3","id":4161,"area":435.66539985620176,"year":"2018","lastUpdated":"2018-06-25T09:46:13.669548","changesets":1262,"mappers":117,"roads":99.2104062247087,"buildings":12997,"edits":13465,"latest":"2018-06-25T09:46:15.000Z"},"geometry":{"type":"Point","coordinates":[94.83960315561043,17.206533222437205]}},{"type":"Feature","properties":{"title":"Missing Maps: Thabaung, Myanmar 2","id":4160,"area":440.6827719380873,"year":"2018","lastUpdated":"2018-07-24T02:42:44.943035","changesets":1362,"mappers":123,"roads":40.4055274833239,"buildings":20622,"edits":20879,"latest":"2018-07-24T02:42:40.000Z"},"geometry":{"type":"Point","coordinates":[94.9331397141187,17.066206912056927]}},{"type":"Feature","properties":{"title":"Missing Maps: Pathein, Myanmar 4","id":4158,"area":488.4174815874417,"year":"2018","lastUpdated":"2018-07-24T02:55:00.608058","changesets":1260,"mappers":110,"roads":212.224373103273,"buildings":11958,"edits":12902,"latest":"2018-07-24T02:54:36.000Z"},"geometry":{"type":"Point","coordinates":[94.49767830247966,16.957356319418096]}},{"type":"Feature","properties":{"title":"Missing Maps: Thabaung, Myanmar 4","id":4162,"area":588.283853174881,"year":"2018","lastUpdated":"2018-07-02T15:31:09.817964","changesets":887,"mappers":101,"roads":189.43269413199,"buildings":5806,"edits":6385,"latest":"2018-07-02T15:31:15.000Z"},"geometry":{"type":"Point","coordinates":[94.62374782942722,17.19714219739823]}},{"type":"Feature","properties":{"title":"Missing Maps: Pyapon, Myanmar #1","id":3335,"area":704.0196862171777,"year":"2018","lastUpdated":"2018-07-06T15:57:50.231245","changesets":0,"mappers":0,"roads":0,"buildings":0,"edits":0,"latest":null},"geometry":{"type":"Point","coordinates":[95.35416484539562,15.788094481146144]}},{"type":"Feature","properties":{"title":"Missing Maps: Myaungmya, Myanmar","id":2896,"area":509.575471121068,"year":"2018","lastUpdated":"2018-07-03T11:42:27.099803","changesets":0,"mappers":0,"roads":0,"buildings":0,"edits":0,"latest":null},"geometry":{"type":"Point","coordinates":[94.76710715420732,16.463608293264897]}},{"type":"Feature","properties":{"title":"Missing Maps: Ngapudaw, Myanmar","id":2895,"area":236.3694164765761,"year":"2018","lastUpdated":"2018-07-03T11:49:47.700607","changesets":0,"mappers":0,"roads":0,"buildings":0,"edits":0,"latest":null},"geometry":{"type":"Point","coordinates":[94.70663942662026,16.51722917938823]}},{"type":"Feature","properties":{"title":"Missing Maps: Thabaung, Myanmar","id":2893,"area":274.20568914473694,"year":"2018","lastUpdated":"2018-07-06T05:10:35.444659","changesets":0,"mappers":0,"roads":0,"buildings":0,"edits":0,"latest":null},"geometry":{"type":"Point","coordinates":[94.76076173702539,16.956558240636813]}},{"type":"Feature","properties":{"title":"Missing Maps: Kangyidaunt, Myanmar","id":2894,"area":475.9514420988058,"year":"2018","lastUpdated":"2018-07-03T12:10:24.568033","changesets":0,"mappers":0,"roads":0,"buildings":0,"edits":0,"latest":null},"geometry":{"type":"Point","coordinates":[94.7856125179502,16.760181641325154]}}],"Bangladesh":[{"type":"Feature","properties":{"title":"Missing Maps: Kurigram, Bangladesh 3","id":3672,"area":556.4887451906692,"year":"2018","lastUpdated":"2018-05-26T09:53:20.525687","changesets":2197,"mappers":118,"roads":1149.57400028338,"buildings":122342,"edits":127132,"latest":"2018-05-31T05:51:33.000Z"},"geometry":{"type":"Point","coordinates":[89.75651049174013,25.53274805601626]}},{"type":"Feature","properties":{"title":"Mapping Flood Affected Communities in Bangladesh (Panchagarh, Rangpur)","id":3630,"area":1368.7065038384933,"year":"2018","lastUpdated":"2018-07-15T04:10:24.043617","changesets":23677,"mappers":1092,"roads":17117.7137843707,"buildings":931486,"edits":1068245,"latest":"2018-07-24T10:16:41.000Z"},"geometry":{"type":"Point","coordinates":[88.57763249131968,26.281538436679263]}},{"type":"Feature","properties":{"title":"Bangladesh Refugee Crisis camp mapping - NW of megacamp 3 Update","id":4891,"area":0.4833315559159053,"year":"2018","lastUpdated":"2018-07-24T21:40:43.215173","changesets":0,"mappers":0,"roads":0,"buildings":0,"edits":0,"latest":null},"geometry":{"type":"Point","coordinates":[92.14090672511095,21.210296467726188]}},{"type":"Feature","properties":{"title":"Mirzapur, Bangladesh: Typhoid Burden Assessment","id":4170,"area":218.91877670477695,"year":"2018","lastUpdated":"2018-06-05T10:18:57.869782","changesets":1175,"mappers":78,"roads":771.443533008432,"buildings":95805,"edits":98475,"latest":"2018-06-05T11:08:04.000Z"},"geometry":{"type":"Point","coordinates":[90.09622216543468,24.098319907132247]}},{"type":"Feature","properties":{"title":"Missing Maps: Pirojpur Sadar, Bangladesh","id":4032,"area":163.27718741770573,"year":"2018","lastUpdated":"2018-07-12T06:03:03.920419","changesets":977,"mappers":80,"roads":344.618761171259,"buildings":38199,"edits":39449,"latest":"2018-07-18T07:57:18.000Z"},"geometry":{"type":"Point","coordinates":[89.96735048229488,22.61471747081276]}},{"type":"Feature","properties":{"title":"Missing Maps: Barguna Sadar Northeast, Bangladesh","id":4005,"area":184.33000832032738,"year":"2018","lastUpdated":"2018-06-23T03:59:46.493734","changesets":2021,"mappers":248,"roads":593.870625202452,"buildings":45276,"edits":48143,"latest":"2018-06-10T10:51:20.000Z"},"geometry":{"type":"Point","coordinates":[90.1363679961483,22.208016999259193]}},{"type":"Feature","properties":{"title":"Missing Maps: Bangladesh, Barisal Sadar West","id":4002,"area":105.30820518035584,"year":"2018","lastUpdated":"2018-07-07T09:11:19.734798","changesets":1949,"mappers":252,"roads":620.033589593557,"buildings":75451,"edits":80211,"latest":"2018-07-21T09:43:41.000Z"},"geometry":{"type":"Point","coordinates":[90.30573887247904,22.732975915465744]}},{"type":"Feature","properties":{"title":"Mapping Flood Affected Community in Bangladesh (Kajla and Kamalpur district) - additional data","id":3439,"area":89.3773764699791,"year":"2017","lastUpdated":"2017-10-18T22:23:34.059584","changesets":218,"mappers":52,"roads":168.93574156142,"buildings":5049,"edits":6999,"latest":"2017-09-10T19:43:46.000Z"},"geometry":{"type":"Point","coordinates":[89.6187707413559,24.869993343805707]}},{"type":"Feature","properties":{"title":"Missing Maps : DRR programs in Saheber Alga Union, Ulipur Upazila, Kurigram District, Bangladesh","id":1818,"area":97.48155864176962,"year":"2018","lastUpdated":"2018-03-04T20:57:42.908531","changesets":228,"mappers":31,"roads":180.857092520079,"buildings":800,"edits":2349,"latest":"2018-03-16T03:43:31.000Z"},"geometry":{"type":"Point","coordinates":[89.7909826017373,25.70869189988306]}}],"Colombia":[{"type":"Feature","properties":{"title":"Riohacha, La Guajira, Colombia","id":3664,"area":706.7545854657328,"year":"2017","lastUpdated":"2017-11-18T00:07:57.329036","changesets":163,"mappers":6,"roads":11.4435775851385,"buildings":5171,"edits":5221,"latest":"2017-11-18T00:07:43.000Z"},"geometry":{"type":"Point","coordinates":[-72.99279784318057,11.440059132768244]}},{"type":"Feature","properties":{"title":"CARTOCOSTA-URABÃ // COASTMAP-URABÃ, Turbo, Colombia (Turbo urban area)","id":3304,"area":25.20888360057874,"year":"2018","lastUpdated":"2018-03-02T13:27:22.208444","changesets":459,"mappers":53,"roads":16.8092113803972,"buildings":10439,"edits":10802,"latest":"2018-03-02T13:27:04.000Z"},"geometry":{"type":"Point","coordinates":[-76.7297885215835,8.09866496358627]}},{"type":"Feature","properties":{"title":"Missing Maps: Tunja, Colombia","id":3976,"area":31.307113482258835,"year":"2018","lastUpdated":"2018-07-04T16:32:43.405479","changesets":2473,"mappers":364,"roads":129.445487055638,"buildings":21324,"edits":24459,"latest":"2018-07-04T16:32:29.000Z"},"geometry":{"type":"Point","coordinates":[-73.35189247154187,5.539283324982605]}},{"type":"Feature","properties":{"title":"Missing Maps: Bucaramanga, Colombia","id":3975,"area":119.77785243564033,"year":"2018","lastUpdated":"2018-07-13T19:50:41.239988","changesets":3188,"mappers":516,"roads":369.632908375653,"buildings":55931,"edits":70931,"latest":"2018-07-18T19:29:58.000Z"},"geometry":{"type":"Point","coordinates":[-73.15325064346113,7.122835518515928]}},{"type":"Feature","properties":{"title":"Missing Maps: Manizales, Colombia","id":3966,"area":72.20940775033188,"year":"2018","lastUpdated":"2018-07-01T22:06:32.637965","changesets":3644,"mappers":272,"roads":262.4044442486,"buildings":48333,"edits":57649,"latest":"2018-07-09T08:28:11.000Z"},"geometry":{"type":"Point","coordinates":[-75.49124155213437,5.056056689553945]}},{"type":"Feature","properties":{"title":"Missing Maps: Ibague, Colombia","id":3965,"area":117.23362586407669,"year":"2018","lastUpdated":"2018-07-24T02:07:22.320993","changesets":789,"mappers":169,"roads":37.5596831636957,"buildings":13794,"edits":15395,"latest":"2018-07-24T02:06:34.000Z"},"geometry":{"type":"Point","coordinates":[-75.19818443213875,4.41564719298531]}},{"type":"Feature","properties":{"title":"Missing Maps: San Juan de Pasto, Colombia","id":3967,"area":134.61429989136033,"year":"2018","lastUpdated":"2018-05-11T01:55:39.801162","changesets":3251,"mappers":292,"roads":252.506059048519,"buildings":35028,"edits":39239,"latest":"2018-05-07T21:23:10.000Z"},"geometry":{"type":"Point","coordinates":[-77.29604405173711,1.2270909116548077]}}],"Peru":[{"type":"Feature","properties":{"title":"Missing Maps: Peru 1","id":3482,"area":1305.0467467261167,"year":"2018","lastUpdated":"2018-06-23T20:39:21.412674","changesets":3961,"mappers":241,"roads":2228.97490371924,"buildings":28816,"edits":39598,"latest":"2018-06-23T20:39:20.000Z"},"geometry":{"type":"Point","coordinates":[-80.51987591911767,-5.580023059844556]}},{"type":"Feature","properties":{"title":"Missing Maps - Peru - Iquitos","id":4586,"area":4968.712676885282,"year":"2018","lastUpdated":"2018-07-22T18:37:04.802373","changesets":1763,"mappers":193,"roads":385.856594623288,"buildings":14543,"edits":16736,"latest":"2018-07-24T17:25:44.000Z"},"geometry":{"type":"Point","coordinates":[-73.14220138876463,-3.6938852126741515]}},{"type":"Feature","properties":{"title":"PerÃº Friaje Relief: Roads and Rivers","id":4902,"area":408.57589694711623,"year":"2018","lastUpdated":"2018-07-24T21:03:27.187494","changesets":73,"mappers":12,"roads":0,"buildings":0,"edits":0,"latest":"2018-07-24T22:47:07.000Z"},"geometry":{"type":"Point","coordinates":[-75.56619402072059,-12.783121891637647]}},{"type":"Feature","properties":{"title":"The Santa Maria and Larapa, Cusco, Peru","id":4513,"area":39.55014288875528,"year":"2018","lastUpdated":"2018-07-16T13:35:19.670027","changesets":464,"mappers":87,"roads":54.1707223394932,"buildings":3410,"edits":3804,"latest":"2018-07-22T11:41:28.000Z"},"geometry":{"type":"Point","coordinates":[-71.8779106117475,-13.5220735278]}},{"type":"Feature","properties":{"title":"La ConvenciÃ³n, Cusco, Peru","id":4689,"area":212.8099329331731,"year":"2018","lastUpdated":"2018-07-24T17:06:24.894795","changesets":467,"mappers":62,"roads":123.793961514247,"buildings":2447,"edits":3045,"latest":"2018-07-24T17:01:29.000Z"},"geometry":{"type":"Point","coordinates":[-72.44762454986555,-13.064793716872222]}},{"type":"Feature","properties":{"title":"Misti Volcano USAID and USGS (high risk areas)","id":4351,"area":123.24473999578873,"year":"2018","lastUpdated":"2018-07-24T21:37:16.726357","changesets":5252,"mappers":208,"roads":235.422927474157,"buildings":72238,"edits":76422,"latest":"2018-07-24T21:36:41.000Z"},"geometry":{"type":"Point","coordinates":[-71.54234348252237,-16.397387659243922]}},{"type":"Feature","properties":{"title":"Relave, Ayacucho, Peru Area - Earthquake","id":4028,"area":2.1232559009828247,"year":"2018","lastUpdated":"2018-05-05T22:35:45.663687","changesets":229,"mappers":16,"roads":125.785318154595,"buildings":2908,"edits":4123,"latest":"2018-05-06T05:12:26.000Z"},"geometry":{"type":"Point","coordinates":[-74.057946099301,-15.611530929589431]}},{"type":"Feature","properties":{"title":"Peru Flood Support 5: Cajamarquilla","id":2709,"area":2.4586436613224625,"year":"2018","lastUpdated":"2018-06-11T18:16:21.704604","changesets":335,"mappers":52,"roads":12.3498090151547,"buildings":6426,"edits":6837,"latest":"2018-06-11T18:13:47.000Z"},"geometry":{"type":"Point","coordinates":[-76.89585207559715,-11.974392120525716]}},{"type":"Feature","properties":{"title":"Chosica, Peru: Flood Prone Communities Mapathon 2017","id":2719,"area":44.733542291558976,"year":"2018","lastUpdated":"2018-03-23T20:54:29.418343","changesets":645,"mappers":57,"roads":71.7767115461587,"buildings":13487,"edits":14842,"latest":"2018-05-09T01:56:35.000Z"},"geometry":{"type":"Point","coordinates":[-76.71607020173401,-11.947297958484999]}},{"type":"Feature","properties":{"title":"Peru Flood Support 3: Yarabamba","id":2678,"area":16.628855937173377,"year":"2017","lastUpdated":"2017-03-31T02:42:57.223584","changesets":288,"mappers":23,"roads":218.371284808701,"buildings":6329,"edits":10429,"latest":"2017-04-03T18:08:12.000Z"},"geometry":{"type":"Point","coordinates":[-71.47170721776783,-16.540443813509714]}},{"type":"Feature","properties":{"title":"Peru Flood Support 4: Huarmey","id":2679,"area":26.19131548841877,"year":"2017","lastUpdated":"2017-11-23T22:12:34.419997","changesets":398,"mappers":76,"roads":124.370578824888,"buildings":7721,"edits":9553,"latest":"2017-11-23T22:12:17.000Z"},"geometry":{"type":"Point","coordinates":[-78.16002595984315,-10.086719711906468]}},{"type":"Feature","properties":{"title":"Piura, Peru - West","id":1369,"area":141.85382801090756,"year":"2017","lastUpdated":"2017-03-30T04:42:12.703928","changesets":253,"mappers":53,"roads":35.6973703952655,"buildings":499,"edits":1726,"latest":"2018-01-04T16:48:43.000Z"},"geometry":{"type":"Point","coordinates":[-80.6360533020713,-5.1838490020712635]}}],"Laos":[{"type":"Feature","properties":{"title":"Missing Maps: Laos Malaria Elimination 12","id":3402,"area":2131.4998807067445,"year":"2018","lastUpdated":"2018-05-27T18:35:10.775298","changesets":1804,"mappers":35,"roads":82.4578606460865,"buildings":15777,"edits":16077,"latest":"2018-05-27T18:32:32.000Z"},"geometry":{"type":"Point","coordinates":[107.27538325113112,15.022538041969096]}},{"type":"Feature","properties":{"title":"Missing Maps - Nong district, Laos Step 2","id":2553,"area":206.55363200715976,"year":"2017","lastUpdated":"2017-09-18T13:40:13.176036","changesets":298,"mappers":34,"roads":242.024667174058,"buildings":116,"edits":1278,"latest":"2017-09-18T13:38:41.000Z"},"geometry":{"type":"Point","coordinates":[106.55127530428878,16.315360830033626]}},{"type":"Feature","properties":{"title":"Missing Maps - Nong district, Laos Step 1","id":2551,"area":83.38623118459611,"year":"2017","lastUpdated":"2017-09-02T18:51:43.430943","changesets":158,"mappers":30,"roads":200.345418159611,"buildings":210,"edits":998,"latest":"2017-09-02T18:50:31.000Z"},"geometry":{"type":"Point","coordinates":[106.41184573024294,16.460634750548884]}}],"Sri Lanka":[{"type":"Feature","properties":{"title":"Sri Lanka Flood Response 2018 Project 5a","id":4898,"area":179.65163946290278,"year":"2018","lastUpdated":"2018-07-24T23:34:43.138316","changesets":594,"mappers":64,"roads":0,"buildings":0,"edits":0,"latest":"2018-07-24T23:34:06.000Z"},"geometry":{"type":"Point","coordinates":[80.13172225161175,7.6380538705756535]}},{"type":"Feature","properties":{"title":"Households Affected by the Rehabilitation of the Kelani Valley Railway Line in Sri Lanka (Phase I)","id":3708,"area":5.995576025848344,"year":"2018","lastUpdated":"2018-07-19T03:04:57.065278","changesets":2286,"mappers":505,"roads":41.5868806054718,"buildings":23626,"edits":26520,"latest":"2018-07-11T13:37:46.000Z"},"geometry":{"type":"Point","coordinates":[79.93229074838194,6.866991515472465]}},{"type":"Feature","properties":{"title":"State of Sri Lankan Cities Project_Jaffna","id":3801,"area":20.572566020587715,"year":"2018","lastUpdated":"2018-04-23T05:33:29.460211","changesets":2528,"mappers":302,"roads":210.824073597209,"buildings":29166,"edits":39893,"latest":"2018-05-14T05:31:30.000Z"},"geometry":{"type":"Point","coordinates":[80.02361142960619,9.667374771291863]}},{"type":"Feature","properties":{"title":"State of Sri Lankan Cities Project_Colombo","id":3683,"area":76.3662329096078,"year":"2018","lastUpdated":"2018-06-13T17:57:02.956540","changesets":145,"mappers":24,"roads":9.02083421635936,"buildings":4008,"edits":4765,"latest":"2018-06-13T18:19:32.000Z"},"geometry":{"type":"Point","coordinates":[79.87230122320143,6.900430216281295]}},{"type":"Feature","properties":{"title":"Bandarawela City Mapping by ISM Diyatalawa Nov 2013","id":333,"area":5.404416842798238,"year":"2017","lastUpdated":"2017-05-19T20:38:43.449902","changesets":2,"mappers":1,"roads":0,"buildings":46,"edits":46,"latest":"2017-05-19T20:38:35.000Z"},"geometry":{"type":"Point","coordinates":[80.99465488260168,6.833164163180819]}},{"type":"Feature","properties":{"title":"Mapping tasks in Sri Lanka under HOT micro grant program â Peradeniya  Mapathon","id":4538,"area":6.043193140136328,"year":"2018","lastUpdated":"2018-07-19T14:19:24.908435","changesets":0,"mappers":0,"roads":0,"buildings":0,"edits":0,"latest":null},"geometry":{"type":"Point","coordinates":[80.59787955635555,7.254418763217669]}},{"type":"Feature","properties":{"title":"State of Sri Lankan Cities Project_Attidiya","id":4396,"area":62.14593115591769,"year":"2018","lastUpdated":"2018-07-22T17:02:45.877096","changesets":3150,"mappers":405,"roads":376.601046482804,"buildings":45096,"edits":49379,"latest":"2018-07-24T10:33:10.000Z"},"geometry":{"type":"Point","coordinates":[79.91323188207848,6.842368304146934]}},{"type":"Feature","properties":{"title":"Sri Lanka Flood Response 2018 Project 4","id":4840,"area":597.8616558006948,"year":"2018","lastUpdated":"2018-07-24T21:44:45.652439","changesets":4078,"mappers":324,"roads":581.778575898244,"buildings":43106,"edits":46033,"latest":"2018-07-24T19:30:01.000Z"},"geometry":{"type":"Point","coordinates":[80.00800340790637,7.776793538994095]}},{"type":"Feature","properties":{"title":"The State of Sri Lankan Cities Project_Kandy","id":3825,"area":29.230170687259616,"year":"2018","lastUpdated":"2018-07-18T16:38:37.610478","changesets":2329,"mappers":441,"roads":164.333412565962,"buildings":22125,"edits":27669,"latest":"2018-07-18T16:55:43.000Z"},"geometry":{"type":"Point","coordinates":[80.62800760169543,7.287563006462094]}},{"type":"Feature","properties":{"title":"The State of Sri Lankan Cities Project_1km buffer_Kandy","id":4193,"area":36.43386706280162,"year":"2018","lastUpdated":"2018-05-25T15:40:06.745404","changesets":227,"mappers":58,"roads":12.5611416501108,"buildings":1984,"edits":2181,"latest":"2018-06-13T20:00:41.000Z"},"geometry":{"type":"Point","coordinates":[80.62225053391758,7.292263901852885]}},{"type":"Feature","properties":{"title":"The State of Sri Lankan Cities Project_1km buffer_Jaffna","id":4192,"area":24.13896696193855,"year":"2018","lastUpdated":"2018-05-17T18:44:23.290815","changesets":83,"mappers":31,"roads":13.4159805558671,"buildings":809,"edits":982,"latest":"2018-06-13T20:21:03.000Z"},"geometry":{"type":"Point","coordinates":[80.02465560721443,9.670739966034176]}},{"type":"Feature","properties":{"title":"The State of Sri Lankan Cities Project_1km buffer_Rathnapura","id":4181,"area":38.10625380910254,"year":"2018","lastUpdated":"2018-05-17T12:51:18.886308","changesets":140,"mappers":32,"roads":24.8264062903753,"buildings":943,"edits":1119,"latest":"2018-06-13T19:35:07.000Z"},"geometry":{"type":"Point","coordinates":[80.40787068722196,6.688544892838841]}},{"type":"Feature","properties":{"title":"The State of Sri Lankan Cities Project_1km buffer_Badulla","id":4191,"area":20.176610754772092,"year":"2018","lastUpdated":"2018-05-16T18:18:30.048394","changesets":141,"mappers":30,"roads":33.7442636313583,"buildings":537,"edits":794,"latest":"2018-06-06T11:52:34.000Z"},"geometry":{"type":"Point","coordinates":[81.05873003836558,6.984289567484544]}},{"type":"Feature","properties":{"title":"The State of Sri Lankan Cities Project_1km buffer_Kurunegala","id":4172,"area":17.247737927995328,"year":"2018","lastUpdated":"2018-06-13T17:01:52.461705","changesets":77,"mappers":15,"roads":9.46899301975093,"buildings":984,"edits":1091,"latest":"2018-06-28T10:06:04.000Z"},"geometry":{"type":"Point","coordinates":[80.36273999489835,7.487601346240175]}},{"type":"Feature","properties":{"title":"The State of Sri Lankan Cities Project_Land use for Anuradhapura Municipal Council _ 1km buffer","id":4062,"area":41.09884822649527,"year":"2018","lastUpdated":"2018-05-17T12:50:39.182109","changesets":224,"mappers":15,"roads":29.8638488005311,"buildings":279,"edits":974,"latest":"2018-06-13T14:02:03.000Z"},"geometry":{"type":"Point","coordinates":[80.41822324295406,8.333130310575672]}},{"type":"Feature","properties":{"title":"Eravur_Pattu_DS_Land_Use","id":4008,"area":610.855514890442,"year":"2018","lastUpdated":"2018-04-15T22:01:57.272530","changesets":0,"mappers":0,"roads":0,"buildings":0,"edits":0,"latest":null},"geometry":{"type":"Point","coordinates":[81.49688086127105,7.72148747927966]}},{"type":"Feature","properties":{"title":"The State of Sri Lankan Cities Project_Badulla","id":3824,"area":10.820766983374872,"year":"2018","lastUpdated":"2018-03-27T16:03:01.570326","changesets":450,"mappers":122,"roads":41.1937899885062,"buildings":4315,"edits":5464,"latest":"2018-03-27T09:30:20.000Z"},