{"totalEdits":44393901,"totalBuildings":36957765,"totalRoads":932187.045307379,"mappersOnline":25,"totalTasksMapped":1762857,"totalMappers":151907,"totalProjects":4288,"Tanzania":[{"type":"Feature","properties":{"id":5397,"title":"TPDC_METEOR","status":"PUBLISHED","created":"2018","lastUpdated":"2018","lastActive":"no","area":0.11797338733636886,"changesets":94,"mappers":18,"roads":0.266615772031029,"buildings":517,"edits":536,"latest":"2018-11-01T12:33:09.000Z"},"geometry":{"type":"Point","coordinates":[39.2441458818339,-6.76148596392833]}},{"type":"Feature","properties":{"id":5321,"title":"Sinza","status":"PUBLISHED","created":"2018","lastUpdated":"2018","lastActive":"no","area":3.361250557091652,"changesets":797,"mappers":22,"roads":1.58255838155942,"buildings":10827,"edits":12143,"latest":"2018-10-12T08:09:26.000Z"},"geometry":{"type":"Point","coordinates":[39.2227970545496,-6.78373809051709]}},{"type":"Feature","properties":{"id":5326,"title":"Gerezani 2","status":"PUBLISHED","created":"2018","lastUpdated":"2018","lastActive":"no","area":0.1378230000413372,"changesets":53,"mappers":16,"roads":0.00932165201596649,"buildings":205,"edits":254,"latest":"2018-10-05T10:46:52.000Z"},"geometry":{"type":"Point","coordinates":[39.2777012004308,-6.82897780332198]}},{"type":"Feature","properties":{"id":5371,"title":"DAR Wards_METEOR","status":"PUBLISHED","created":"2018","lastUpdated":"2018","lastActive":"no","area":1.4384185421356332,"changesets":132,"mappers":16,"roads":6.29776572367043,"buildings":1424,"edits":1694,"latest":"2018-10-31T14:01:56.000Z"},"geometry":{"type":"Point","coordinates":[39.2733530998677,-6.83014324994139]}},{"type":"Feature","properties":{"id":5387,"title":"Kagera Mikoroshoni_METEOR","status":"PUBLISHED","created":"2018","lastUpdated":"2018","lastActive":"no","area":0.08697368560971801,"changesets":267,"mappers":16,"roads":0.854564025781823,"buildings":1018,"edits":1290,"latest":"2018-10-26T11:50:08.000Z"},"geometry":{"type":"Point","coordinates":[39.2429037515631,-6.79943400787608]}},{"type":"Feature","properties":{"id":5391,"title":"Kivule_METEOR","status":"PUBLISHED","created":"2018","lastUpdated":"2018","lastActive":"no","area":0.5583741907798839,"changesets":105,"mappers":10,"roads":1.83379910834755,"buildings":757,"edits":834,"latest":"2018-10-31T08:17:39.000Z"},"geometry":{"type":"Point","coordinates":[39.169724511382,-6.9352240012431]}},{"type":"Feature","properties":{"id":4336,"title":"Tanzania Development Trust: Mingoyo Community Mapping Project","status":"ARCHIVED","created":"2018","lastUpdated":"2018","lastActive":"no","area":6.093244915676354,"changesets":452,"mappers":71,"roads":108.978266720093,"buildings":3373,"edits":5105,"latest":"2018-03-25T17:50:56.000Z"},"geometry":{"type":"Point","coordinates":[39.6150235515117,-10.1073176624119]}},{"type":"Feature","properties":{"id":4440,"title":"Tanzania Development Trust: Kihurio Community Mapping Project","status":"ARCHIVED","created":"2018","lastUpdated":"2018","lastActive":"no","area":25.149218397883203,"changesets":424,"mappers":67,"roads":255.735874916018,"buildings":3520,"edits":4623,"latest":"2018-04-21T23:10:25.000Z"},"geometry":{"type":"Point","coordinates":[38.0710346364441,-4.47694510234758]}},{"type":"Feature","properties":{"id":4326,"title":"Tanzania Development Trust: Chamchuzi Karagwe Community Mapping Project","status":"ARCHIVED","created":"2018","lastUpdated":"2018","lastActive":"no","area":14.620352225319428,"changesets":96,"mappers":13,"roads":118.753544967722,"buildings":625,"edits":1031,"latest":"2018-03-18T21:53:31.000Z"},"geometry":{"type":"Point","coordinates":[30.8657918691606,-1.79784583007795]}},{"type":"Feature","properties":{"id":3204,"title":"PEPFAR Tanzania: Kyela (Coast)","status":"PUBLISHED","created":"2017","lastUpdated":"2018","lastActive":"no","area":267.9000890686287,"changesets":2176,"mappers":238,"roads":906.372658541644,"buildings":19971,"edits":29794,"latest":"2018-11-27T23:49:45.000Z"},"geometry":{"type":"Point","coordinates":[33.8624923854606,-9.60932245038593]}},{"type":"Feature","properties":{"id":5587,"title":"Tanzania missing buildings Babati Urban District","status":"PUBLISHED","created":"2018","lastUpdated":"2018","lastActive":"yes","area":325.6568772393911,"changesets":69,"mappers":12,"roads":13.6856811317244,"buildings":447,"edits":555,"latest":"2018-12-23T04:56:47.000Z"},"geometry":{"type":"Point","coordinates":[35.7408340563966,-4.19602650417695]}},{"type":"Feature","properties":{"id":4334,"title":"Tanzania Development Trust: Ihemi Iringa Community Mapping Project","status":"ARCHIVED","created":"2018","lastUpdated":"2018","lastActive":"no","area":17.979652120471023,"changesets":138,"mappers":17,"roads":162.956597880068,"buildings":1531,"edits":2481,"latest":"2018-03-20T18:15:43.000Z"},"geometry":{"type":"Point","coordinates":[35.5059379677161,-8.01149565167227]}},{"type":"Feature","properties":{"id":4315,"title":"Tanzania Development Trust: Nshamba Community Mapping Project","status":"ARCHIVED","created":"2018","lastUpdated":"2018","lastActive":"no","area":20.728217465742752,"changesets":502,"mappers":54,"roads":258.414508170386,"buildings":5488,"edits":8174,"latest":"2018-03-18T15:53:19.000Z"},"geometry":{"type":"Point","coordinates":[31.5495323621043,-1.80167815244229]}},{"type":"Feature","properties":{"id":4405,"title":"Tanzania Development Trust: Rushwa Community Mapping Project","status":"ARCHIVED","created":"2018","lastUpdated":"2018","lastActive":"no","area":28.44762453258442,"changesets":298,"mappers":40,"roads":300.470888123495,"buildings":1582,"edits":3500,"latest":"2018-04-12T05:58:16.000Z"},"geometry":{"type":"Point","coordinates":[31.4939209647812,-1.78766119268283]}},{"type":"Feature","properties":{"id":4284,"title":"Tanzania Development Trust: Nyakigando Ikimba Community Mapping Project","status":"ARCHIVED","created":"2018","lastUpdated":"2018","lastActive":"no","area":9.041298427344486,"changesets":320,"mappers":21,"roads":159.247797886851,"buildings":1179,"edits":3057,"latest":"2018-03-12T21:12:54.000Z"},"geometry":{"type":"Point","coordinates":[31.5705837031557,-1.51810455931155]}},{"type":"Feature","properties":{"id":4294,"title":"Tanzania Development Trust: Mubunda Muleba Community Mapping Project","status":"ARCHIVED","created":"2018","lastUpdated":"2018","lastActive":"no","area":7.587230914571072,"changesets":306,"mappers":43,"roads":177.651635751973,"buildings":1516,"edits":2786,"latest":"2018-03-16T04:45:19.000Z"},"geometry":{"type":"Point","coordinates":[31.5148740880789,-1.94608709963417]}},{"type":"Feature","properties":{"id":4710,"title":"Tanzania Development Trust: Rubale Community Mapping Project","status":"ARCHIVED","created":"2018","lastUpdated":"2018","lastActive":"no","area":2.8694421907196968,"changesets":223,"mappers":15,"roads":47.6921069447722,"buildings":1026,"edits":1672,"latest":"2018-06-10T20:40:39.000Z"},"geometry":{"type":"Point","coordinates":[31.5198154824657,-1.60317363606181]}},{"type":"Feature","properties":{"id":5558,"title":"Makanda","status":"PUBLISHED","created":"2018","lastUpdated":"2018","lastActive":"no","area":303.7760037608982,"changesets":9,"mappers":3,"roads":0,"buildings":22,"edits":28,"latest":"2018-11-29T21:06:37.000Z"},"geometry":{"type":"Point","coordinates":[35.3810498816351,-5.746704775747]}},{"type":"Feature","properties":{"id":5548,"title":"Chali","status":"PUBLISHED","created":"2018","lastUpdated":"2018","lastActive":"no","area":293.026474967643,"changesets":0,"mappers":0,"roads":0,"buildings":0,"edits":0,"latest":null},"geometry":{"type":"Point","coordinates":[35.2630727303968,-6.26212970964754]}},{"type":"Feature","properties":{"id":5533,"title":"zanka_pilot","status":"PUBLISHED","created":"2018","lastUpdated":"2018","lastActive":"no","area":332.82676510382277,"changesets":110,"mappers":17,"roads":0.0208284000809371,"buildings":291,"edits":294,"latest":"2018-11-22T12:32:58.000Z"},"geometry":{"type":"Point","coordinates":[35.8282202770526,-5.78331947358886]}},{"type":"Feature","properties":{"id":5550,"title":"Chikola","status":"PUBLISHED","created":"2018","lastUpdated":"2018","lastActive":"no","area":364.54472047107805,"changesets":0,"mappers":0,"roads":0,"buildings":0,"edits":0,"latest":null},"geometry":{"type":"Point","coordinates":[35.3432190143094,-6.13969848411729]}},{"type":"Feature","properties":{"id":4368,"title":"Tanzania Development Trust: Morogoro Community Mapping Project","status":"ARCHIVED","created":"2018","lastUpdated":"2018","lastActive":"no","area":6.725652855463129,"changesets":1281,"mappers":89,"roads":81.8895955188457,"buildings":19328,"edits":20942,"latest":"2018-07-08T14:32:19.000Z"},"geometry":{"type":"Point","coordinates":[37.6521283051778,-6.82130428335325]}},{"type":"Feature","properties":{"id":4324,"title":"Tanzania Development Trust: Nyakaiga Karagwe Community Mapping Project","status":"ARCHIVED","created":"2018","lastUpdated":"2018","lastActive":"no","area":12.111231176337705,"changesets":103,"mappers":12,"roads":99.5600341898669,"buildings":1190,"edits":1678,"latest":"2018-03-18T16:20:36.000Z"},"geometry":{"type":"Point","coordinates":[30.9630721040928,-1.72913994836662]}},{"type":"Feature","properties":{"id":4292,"title":"Tanzania Development Trust: Nyaishozi Karagwe Community Mapping Project","status":"ARCHIVED","created":"2018","lastUpdated":"2018","lastActive":"no","area":34.276689435879305,"changesets":399,"mappers":36,"roads":474.8159693901,"buildings":2973,"edits":4948,"latest":"2018-03-18T21:40:04.000Z"},"geometry":{"type":"Point","coordinates":[31.1192616184384,-1.74718623175017]}},{"type":"Feature","properties":{"id":3459,"title":"Tanzania Development Trust: Nshamba Community Mapping Project","status":"ARCHIVED","created":"2017","lastUpdated":"2017","lastActive":"no","area":46.014908284249266,"changesets":1320,"mappers":99,"roads":645.897463633866,"buildings":7191,"edits":20283,"latest":"2017-09-08T21:24:18.000Z"},"geometry":{"type":"Point","coordinates":[31.5612210026871,-1.7322936400178]}},{"type":"Feature","properties":{"id":5546,"title":"msisi_pilot","status":"PUBLISHED","created":"2018","lastUpdated":"2018","lastActive":"no","area":299.23019148117373,"changesets":0,"mappers":0,"roads":0,"buildings":0,"edits":0,"latest":null},"geometry":{"type":"Point","coordinates":[35.6507594031343,-5.81195430714583]}},{"type":"Feature","properties":{"id":5556,"title":"Kigwe","status":"PUBLISHED","created":"2018","lastUpdated":"2018","lastActive":"no","area":162.81242472936432,"changesets":1,"mappers":1,"roads":0,"buildings":2,"edits":2,"latest":"2018-12-06T16:28:42.000Z"},"geometry":{"type":"Point","coordinates":[35.5034119238305,-6.15149765637834]}},{"type":"Feature","properties":{"id":5442,"title":"Ukonga","status":"PUBLISHED","created":"2018","lastUpdated":"2018","lastActive":"no","area":9.973212227035186,"changesets":1,"mappers":1,"roads":0.0957173698489048,"buildings":0,"edits":1,"latest":"2018-11-08T18:22:56.000Z"},"geometry":{"type":"Point","coordinates":[39.1716103075864,-6.87643354356797]}},{"type":"Feature","properties":{"id":5467,"title":"Makuburi","status":"PUBLISHED","created":"2018","lastUpdated":"2018","lastActive":"no","area":7.6743988229254745,"changesets":65,"mappers":9,"roads":7.63816287996377e-10,"buildings":236,"edits":240,"latest":"2018-12-13T16:28:00.000Z"},"geometry":{"type":"Point","coordinates":[39.2000761299092,-6.80869248275905]}},{"type":"Feature","properties":{"id":5539,"title":"mwitirika","status":"PUBLISHED","created":"2018","lastUpdated":"2018","lastActive":"no","area":310.08409917434227,"changesets":0,"mappers":0,"roads":0,"buildings":0,"edits":0,"latest":null},"geometry":{"type":"Point","coordinates":[35.6729879289732,-6.56534479236094]}},{"type":"Feature","properties":{"id":5370,"title":"Pwani_METEOR","status":"PUBLISHED","created":"2018","lastUpdated":"2018","lastActive":"no","area":1.857301592423365,"changesets":150,"mappers":19,"roads":26.9283625898123,"buildings":740,"edits":1247,"latest":"2018-10-31T08:49:13.000Z"},"geometry":{"type":"Point","coordinates":[39.3251033855678,-6.98577812479199]}},{"type":"Feature","properties":{"id":5386,"title":"Gerezani_METEOR","status":"PUBLISHED","created":"2018","lastUpdated":"2018","lastActive":"no","area":0.31545538866072964,"changesets":208,"mappers":20,"roads":5.17559823813131,"buildings":366,"edits":844,"latest":"2018-10-25T08:50:20.000Z"},"geometry":{"type":"Point","coordinates":[39.2753213377704,-6.82192478353065]}},{"type":"Feature","properties":{"id":5322,"title":"Gerezani","status":"PUBLISHED","created":"2018","lastUpdated":"2018","lastActive":"no","area":0.6617969975738225,"changesets":244,"mappers":19,"roads":0.0429388379459798,"buildings":959,"edits":1687,"latest":"2018-10-05T09:50:57.000Z"},"geometry":{"type":"Point","coordinates":[39.2751643416466,-6.82552891846113]}},{"type":"Feature","properties":{"id":5317,"title":"Kijitonyama","status":"PUBLISHED","created":"2018","lastUpdated":"2018","lastActive":"no","area":3.944334462943499,"changesets":984,"mappers":24,"roads":1.36938792486868,"buildings":12348,"edits":13618,"latest":"2018-11-02T12:54:37.000Z"},"geometry":{"type":"Point","coordinates":[39.2362348265782,-6.77781749264387]}},{"type":"Feature","properties":{"id":5325,"title":"Mwananyamala","status":"PUBLISHED","created":"2018","lastUpdated":"2018","lastActive":"no","area":2.49542175237576,"changesets":336,"mappers":20,"roads":0.154280978731387,"buildings":1714,"edits":2074,"latest":"2018-10-09T13:18:30.000Z"},"geometry":{"type":"Point","coordinates":[39.2586298839167,-6.78686342634381]}},{"type":"Feature","properties":{"id":5192,"title":"Mabibo","status":"PUBLISHED","created":"2018","lastUpdated":"2018","lastActive":"no","area":4.059450716198464,"changesets":2230,"mappers":25,"roads":6.02412742139534,"buildings":19921,"edits":24255,"latest":"2018-10-03T07:34:20.000Z"},"geometry":{"type":"Point","coordinates":[39.2256157177568,-6.80974155735172]}},{"type":"Feature","properties":{"id":5396,"title":"Sinza_METEOR","status":"PUBLISHED","created":"2018","lastUpdated":"2018","lastActive":"no","area":0.11495287086645402,"changesets":65,"mappers":15,"roads":0.115200681951529,"buildings":130,"edits":194,"latest":"2018-11-01T13:14:45.000Z"},"geometry":{"type":"Point","coordinates":[39.2245824861265,-6.7834148800241]}},{"type":"Feature","properties":{"id":5218,"title":"Vingunguti","status":"PUBLISHED","created":"2018","lastUpdated":"2018","lastActive":"no","area":4.5147969243730985,"changesets":1476,"mappers":25,"roads":5.76973550436218,"buildings":14462,"edits":17891,"latest":"2018-11-09T13:30:13.000Z"},"geometry":{"type":"Point","coordinates":[39.2283271509236,-6.845412414447]}},{"type":"Feature","properties":{"id":5395,"title":"Pwani 2_METEOR","status":"PUBLISHED","created":"2018","lastUpdated":"2018","lastActive":"no","area":0.3697493857621717,"changesets":0,"mappers":0,"roads":0,"buildings":0,"edits":0,"latest":null},"geometry":{"type":"Point","coordinates":[39.0994490443233,-6.90247043542125]}},{"type":"Feature","properties":{"id":5156,"title":"Sombetini","status":"PUBLISHED","created":"2018","lastUpdated":"2018","lastActive":"no","area":2.158067893428719,"changesets":293,"mappers":79,"roads":0.414735952058103,"buildings":8073,"edits":8138,"latest":"2018-09-07T20:15:20.000Z"},"geometry":{"type":"Point","coordinates":[36.6679931001053,-3.38106582367836]}},{"type":"Feature","properties":{"id":5389,"title":"Karakata_METEOR","status":"PUBLISHED","created":"2018","lastUpdated":"2018","lastActive":"no","area":0.06278618638144412,"changesets":169,"mappers":16,"roads":0.00354592966511319,"buildings":653,"edits":657,"latest":"2018-10-29T08:18:50.000Z"},"geometry":{"type":"Point","coordinates":[39.2067495928809,-6.8487382427679]}},{"type":"Feature","properties":{"id":5201,"title":"Mbagala Kuu","status":"PUBLISHED","created":"2018","lastUpdated":"2018","lastActive":"no","area":6.586352566704119,"changesets":696,"mappers":18,"roads":2.03386537084955,"buildings":7935,"edits":8531,"latest":"2018-10-18T10:59:16.000Z"},"geometry":{"type":"Point","coordinates":[39.2823935446052,-6.90745859327607]}},{"type":"Feature","properties":{"id":5194,"title":"Hananasifu","status":"PUBLISHED","created":"2018","lastUpdated":"2018","lastActive":"no","area":1.8382439011755702,"changesets":775,"mappers":19,"roads":3.34109193738527,"buildings":6357,"edits":7943,"latest":"2018-10-03T07:37:03.000Z"},"geometry":{"type":"Point","coordinates":[39.2696283358805,-6.79609178054355]}},{"type":"Feature","properties":{"id":5149,"title":"Makurumla","status":"PUBLISHED","created":"2018","lastUpdated":"2018","lastActive":"no","area":1.5565034409898066,"changesets":6,"mappers":3,"roads":0.155136909614126,"buildings":44,"edits":51,"latest":"2018-09-27T08:15:11.000Z"},"geometry":{"type":"Point","coordinates":[39.2425747094317,-6.80590884032526]}},{"type":"Feature","properties":{"id":4976,"title":"Ramani Huria and GreenWaste Colaboration","status":"PUBLISHED","created":"2018","lastUpdated":"2018","lastActive":"no","area":0.8606536928715187,"changesets":452,"mappers":12,"roads":0.303793935716114,"buildings":1699,"edits":2153,"latest":"2018-08-09T09:46:52.000Z"},"geometry":{"type":"Point","coordinates":[39.2825405412206,-6.82300659119486]}},{"type":"Feature","properties":{"id":5554,"title":"Ibugule","status":"PUBLISHED","created":"2018","lastUpdated":"2018","lastActive":"no","area":216.3150509902929,"changesets":0,"mappers":0,"roads":0,"buildings":0,"edits":0,"latest":null},"geometry":{"type":"Point","coordinates":[35.5318205113061,-6.39091426956685]}},{"type":"Feature","properties":{"id":5147,"title":"Buguruni","status":"PUBLISHED","created":"2018","lastUpdated":"2018","lastActive":"no","area":3.4752018850888398,"changesets":1320,"mappers":39,"roads":4.89305254742563,"buildings":15862,"edits":19963,"latest":"2018-09-11T11:11:16.000Z"},"geometry":{"type":"Point","coordinates":[39.2449507288679,-6.83166163112609]}},{"type":"Feature","properties":{"id":5132,"title":"Mbeya","status":"PUBLISHED","created":"2018","lastUpdated":"2018","lastActive":"no","area":32.205542095178586,"changesets":1096,"mappers":149,"roads":10.112548747506,"buildings":22237,"edits":23434,"latest":"2018-09-21T09:26:09.000Z"},"geometry":{"type":"Point","coordinates":[33.4905580602805,-8.88468840419366]}},{"type":"Feature","properties":{"id":3352,"title":"Missing Maps: Dar es Salaam - Ramani Huria 2.0 - 07","status":"ARCHIVED","created":"2017","lastUpdated":"2017","lastActive":"no","area":43.602163515930684,"changesets":1015,"mappers":62,"roads":384.282174733634,"buildings":221,"edits":8861,"latest":"2017-08-04T07:19:27.000Z"},"geometry":{"type":"Point","coordinates":[39.1225445864321,-6.72392047199685]}},{"type":"Feature","properties":{"id":5544,"title":"mtitaa_pilot","status":"PUBLISHED","created":"2018","lastUpdated":"2018","lastActive":"no","area":184.51184663767475,"changesets":0,"mappers":0,"roads":0,"buildings":0,"edits":0,"latest":null},"geometry":{"type":"Point","coordinates":[35.544978622217,-6.47118101674341]}},{"type":"Feature","properties":{"id":5541,"title":"Babayu","status":"PUBLISHED","created":"2018","lastUpdated":"2018","lastActive":"no","area":291.1572465623741,"changesets":0,"mappers":0,"roads":0,"buildings":0,"edits":0,"latest":null},"geometry":{"type":"Point","coordinates":[35.6844455201668,-5.68286034293222]}},{"type":"Feature","properties":{"id":3389,"title":"Tanzania Development Trust: Manyoni district mapping project part 2","status":"PUBLISHED","created":"2017","lastUpdated":"2018","lastActive":"no","area":7477.8484249126495,"changesets":22325,"mappers":1458,"roads":30659.0222202039,"buildings":334952,"edits":560231,"latest":"2018-12-22T02:54:11.000Z"},"geometry":{"type":"Point","coordinates":[35.3323430025322,-4.33553146038057]}},{"type":"Feature","properties":{"id":4570,"title":"Kasulu, Kasulu, Tanzania Mini Grids Project 03","status":"PUBLISHED","created":"2018","lastUpdated":"2018","lastActive":"no","area":1652.0254948432712,"changesets":774,"mappers":62,"roads":0.25450019539659,"buildings":10336,"edits":10388,"latest":"2018-07-18T11:48:21.000Z"},"geometry":{"type":"Point","coordinates":[30.5130429954929,-4.22710402465406]}},{"type":"Feature","properties":{"id":4751,"title":"Njombe Region, Tanzania Mini Grids Project 05","status":"PUBLISHED","created":"2018","lastUpdated":"2018","lastActive":"no","area":1958.8180766909427,"changesets":1262,"mappers":33,"roads":5.76234886943838,"buildings":59931,"edits":60292,"latest":"2018-06-22T07:51:23.000Z"},"geometry":{"type":"Point","coordinates":[34.73166445996,-9.30709784418002]}},{"type":"Feature","properties":{"id":4642,"title":"Villages in Pangani District, Tanzania Mini Grids Project","status":"PUBLISHED","created":"2018","lastUpdated":"2018","lastActive":"no","area":3.2853624864693787,"changesets":85,"mappers":27,"roads":0.0728887891265449,"buildings":3068,"edits":3101,"latest":"2018-06-08T10:05:47.000Z"},"geometry":{"type":"Point","coordinates":[38.9510503654064,-5.45416108609809]}},{"type":"Feature","properties":{"id":5398,"title":"Ungindoni_METEOR","status":"PUBLISHED","created":"2018","lastUpdated":"2018","lastActive":"no","area":0.8096558160905647,"changesets":0,"mappers":0,"roads":0,"buildings":0,"edits":0,"latest":null},"geometry":{"type":"Point","coordinates":[39.3545451261367,-6.8745441047526]}},{"type":"Feature","properties":{"id":5444,"title":"Kawe","status":"PUBLISHED","created":"2018","lastUpdated":"2018","lastActive":"no","area":14.787548318407664,"changesets":274,"mappers":20,"roads":0.443529945999423,"buildings":2289,"edits":2364,"latest":"2018-11-29T12:22:28.000Z"},"geometry":{"type":"Point","coordinates":[39.225268225533,-6.72642707641227]}},{"type":"Feature","properties":{"id":5390,"title":"Kisutu_METEOR","status":"PUBLISHED","created":"2018","lastUpdated":"2018","lastActive":"no","area":0.30002608748587883,"changesets":75,"mappers":13,"roads":0.336096943618833,"buildings":286,"edits":453,"latest":"2018-10-25T14:59:01.000Z"},"geometry":{"type":"Point","coordinates":[39.287876425417,-6.81640921080609]}},{"type":"Feature","properties":{"id":5392,"title":"Miembeni_METEOR","status":"PUBLISHED","created":"2018","lastUpdated":"2018","lastActive":"no","area":0.6398735476823335,"changesets":38,"mappers":6,"roads":0.812261387339561,"buildings":332,"edits":416,"latest":"2018-10-26T09:57:26.000Z"},"geometry":{"type":"Point","coordinates":[39.2311523544842,-6.84980246580113]}},{"type":"Feature","properties":{"id":5356,"title":"Kimanga","status":"PUBLISHED","created":"2018","lastUpdated":"2018","lastActive":"no","area":9.377792323494011,"changesets":1,"mappers":1,"roads":0,"buildings":2,"edits":2,"latest":"2018-10-16T13:25:26.000Z"},"geometry":{"type":"Point","coordinates":[39.1889734397382,-6.82488295475237]}},{"type":"Feature","properties":{"id":3430,"title":"Tanzania Development Trust: Kamachumu Community Mapping Project","status":"ARCHIVED","created":"2017","lastUpdated":"2018","lastActive":"no","area":46.24964449397239,"changesets":1628,"mappers":108,"roads":714.34611932829,"buildings":7600,"edits":26515,"latest":"2018-06-19T13:57:44.000Z"},"geometry":{"type":"Point","coordinates":[31.6206229724663,-1.60520444319064]}},{"type":"Feature","properties":{"id":5338,"title":"Tabata_Msimbazi","status":"PUBLISHED","created":"2018","lastUpdated":"2018","lastActive":"no","area":2.7361327645312596,"changesets":598,"mappers":22,"roads":1.52976158880248,"buildings":5381,"edits":5750,"latest":"2018-10-29T18:04:45.000Z"},"geometry":{"type":"Point","coordinates":[39.2210232072559,-6.83783297253043]}},{"type":"Feature","properties":{"id":5394,"title":"Mtakuja_METEOR","status":"PUBLISHED","created":"2018","lastUpdated":"2018","lastActive":"no","area":0.12654256421525886,"changesets":111,"mappers":10,"roads":0.154747279215324,"buildings":1165,"edits":1365,"latest":"2018-10-26T12:56:08.000Z"},"geometry":{"type":"Point","coordinates":[39.2311664932879,-6.84526241829827]}},{"type":"Feature","properties":{"id":5320,"title":"Mburahati","status":"PUBLISHED","created":"2018","lastUpdated":"2018","lastActive":"no","area":1.1212118323428015,"changesets":15,"mappers":2,"roads":0.0911120604846218,"buildings":12,"edits":16,"latest":"2018-10-10T03:09:39.000Z"},"geometry":{"type":"Point","coordinates":[39.242086920805,-6.81266527325492]}},{"type":"Feature","properties":{"id":5204,"title":"Makumbusho","status":"PUBLISHED","created":"2018","lastUpdated":"2018","lastActive":"no","area":1.7495807696096894,"changesets":1019,"mappers":20,"roads":5.8505806882872,"buildings":7506,"edits":9235,"latest":"2018-11-07T13:50:16.000Z"},"geometry":{"type":"Point","coordinates":[39.2508110711774,-6.78966677791311]}},{"type":"Feature","properties":{"id":5529,"title":"Tanzania missing buildings Simanjiro District","status":"PUBLISHED","created":"2018","lastUpdated":"2018","lastActive":"yes","area":1446.0821011615285,"changesets":4673,"mappers":345,"roads":343.333197832172,"buildings":32006,"edits":32961,"latest":"2018-12-23T04:34:03.000Z"},"geometry":{"type":"Point","coordinates":[36.977133550602,-4.08798441021924]}},{"type":"Feature","properties":{"id":4236,"title":"Tanzania Development Trust: Mitwero, Lindi Community Mapping Project","status":"ARCHIVED","created":"2018","lastUpdated":"2018","lastActive":"no","area":80.77775171781835,"changesets":528,"mappers":67,"roads":468.376805254013,"buildings":2230,"edits":4918,"latest":"2018-06-22T20:06:01.000Z"},"geometry":{"type":"Point","coordinates":[39.7342788001324,-9.91500147746219]}},{"type":"Feature","properties":{"id":4211,"title":"Tanzania Development Trust: Kayanga Karagwe Community Mapping Project","status":"ARCHIVED","created":"2018","lastUpdated":"2018","lastActive":"no","area":9.817134429272661,"changesets":2030,"mappers":111,"roads":257.875156407586,"buildings":6739,"edits":9339,"latest":"2018-06-25T20:44:51.000Z"},"geometry":{"type":"Point","coordinates":[31.1517912801376,-1.53378723172487]}},{"type":"Feature","properties":{"id":4234,"title":"Tanzania Development Trust: Sigunga Kigoma Community Mapping Project","status":"ARCHIVED","created":"2018","lastUpdated":"2018","lastActive":"no","area":818.7157786819456,"changesets":1881,"mappers":148,"roads":845.753785159551,"buildings":5279,"edits":10353,"latest":"2018-04-11T09:53:47.000Z"},"geometry":{"type":"Point","coordinates":[30.0041057178603,-5.67930749441936]}},{"type":"Feature","properties":{"id":5022,"title":"Mchikichini","status":"PUBLISHED","created":"2018","lastUpdated":"2018","lastActive":"no","area":1.696085516193505,"changesets":668,"mappers":38,"roads":2.21692032106359,"buildings":7214,"edits":8160,"latest":"2018-08-24T13:48:26.000Z"},"geometry":{"type":"Point","coordinates":[39.2653533791413,-6.81925346992819]}},{"type":"Feature","properties":{"id":5030,"title":"Mzimuni","status":"PUBLISHED","created":"2018","lastUpdated":"2018","lastActive":"no","area":1.2272442307232991,"changesets":716,"mappers":28,"roads":1.03965932616205,"buildings":6152,"edits":7023,"latest":"2018-08-31T11:15:01.000Z"},"geometry":{"type":"Point","coordinates":[39.2573050529511,-6.81085336649721]}},{"type":"Feature","properties":{"id":5028,"title":"Keko","status":"PUBLISHED","created":"2018","lastUpdated":"2018","lastActive":"no","area":1.4649293626540205,"changesets":1033,"mappers":36,"roads":3.96567970367937,"buildings":8564,"edits":10636,"latest":"2018-08-29T12:46:37.000Z"},"geometry":{"type":"Point","coordinates":[39.275538576061,-6.83599209301762]}},{"type":"Feature","properties":{"id":4852,"title":"Tanzania Development Trust: Morogoro Community Mapping Project","status":"PUBLISHED","created":"2018","lastUpdated":"2018","lastActive":"no","area":11.997049798456361,"changesets":737,"mappers":117,"roads":113.988219575311,"buildings":14602,"edits":16041,"latest":"2018-12-19T04:02:42.000Z"},"geometry":{"type":"Point","coordinates":[37.6844733023174,-6.81089355032121]}},{"type":"Feature","properties":{"id":5016,"title":"Kariakoo2","status":"PUBLISHED","created":"2018","lastUpdated":"2018","lastActive":"no","area":0.41684912948919983,"changesets":253,"mappers":36,"roads":0.0279580739560328,"buildings":1324,"edits":2341,"latest":"2018-10-03T16:17:27.000Z"},"geometry":{"type":"Point","coordinates":[39.2756281624855,-6.82026480265793]}},{"type":"Feature","properties":{"id":4076,"title":"Shinyanga_Tabora_Geita","status":"PUBLISHED","created":"2018","lastUpdated":"2018","lastActive":"no","area":3994.8430365253507,"changesets":50,"mappers":14,"roads":0.000161002645333808,"buildings":2248,"edits":2251,"latest":"2018-08-23T03:54:33.000Z"},"geometry":{"type":"Point","coordinates":[31.8409955510823,-4.30414913053918]}},{"type":"Feature","properties":{"id":4801,"title":"Priority Villages, Ruvuma Region, Tanzania Mini Grids Project","status":"PUBLISHED","created":"2018","lastUpdated":"2018","lastActive":"no","area":491.345226887175,"changesets":662,"mappers":36,"roads":3.61080322618974,"buildings":27808,"edits":27829,"latest":"2018-08-23T09:25:41.000Z"},"geometry":{"type":"Point","coordinates":[35.4477861752995,-10.8248962516213]}},{"type":"Feature","properties":{"id":2361,"title":"Tanzania Development Trust: Tabora district mapping project","status":"PUBLISHED","created":"2016","lastUpdated":"2018","lastActive":"no","area":11331.719987775972,"changesets":11664,"mappers":420,"roads":28508.3138575684,"buildings":316326,"edits":517728,"latest":"2018-09-05T04:26:28.000Z"},"geometry":{"type":"Point","coordinates":[32.9311624412335,-5.02219301254299]}},{"type":"Feature","properties":{"id":4283,"title":"Tanzania Development Trust: Kashenge Community Mapping Project","status":"ARCHIVED","created":"2018","lastUpdated":"2018","lastActive":"no","area":16.271801267146635,"changesets":316,"mappers":27,"roads":117.504567662701,"buildings":856,"edits":1867,"latest":"2018-05-01T11:36:25.000Z"},"geometry":{"type":"Point","coordinates":[31.65773305698,-1.69517523871843]}},{"type":"Feature","properties":{"id":5151,"title":"Sandali","status":"PUBLISHED","created":"2018","lastUpdated":"2018","lastActive":"no","area":2.754693570123113,"changesets":1143,"mappers":35,"roads":0.699111235055833,"buildings":7843,"edits":8260,"latest":"2018-09-18T13:58:19.000Z"},"geometry":{"type":"Point","coordinates":[39.2468576140869,-6.85541663438858]}},{"type":"Feature","properties":{"id":4323,"title":"Tanzania Development Trust: Simiyu South","status":"PUBLISHED","created":"2018","lastUpdated":"2018","lastActive":"no","area":3977.4740524717954,"changesets":7773,"mappers":557,"roads":5757.35797801379,"buildings":92776,"edits":111618,"latest":"2018-12-21T16:14:41.000Z"},"geometry":{"type":"Point","coordinates":[34.3684346241635,-3.14466084541383]}},{"type":"Feature","properties":{"id":4250,"title":"Manyara","status":"ARCHIVED","created":"2018","lastUpdated":"2018","lastActive":"no","area":63.093260840318564,"changesets":0,"mappers":0,"roads":0,"buildings":0,"edits":0,"latest":null},"geometry":{"type":"Point","coordinates":[35.3368133697752,-4.30430004427207]}},{"type":"Feature","properties":{"id":4254,"title":"Manyara_minigrids","status":"ARCHIVED","created":"2018","lastUpdated":"2018","lastActive":"no","area":63.093260840318564,"changesets":0,"mappers":0,"roads":0,"buildings":0,"edits":0,"latest":null},"geometry":{"type":"Point","coordinates":[35.3368133697752,-4.30430004427207]}},{"type":"Feature","properties":{"id":3387,"title":"Missing Maps: Dar es Salaam - Ramani Huria 2.0 - 20","status":"PUBLISHED","created":"2017","lastUpdated":"2018","lastActive":"no","area":92.06647987703117,"changesets":1407,"mappers":57,"roads":12.7576761938866,"buildings":34483,"edits":36868,"latest":"2017-08-15T08:33:29.000Z"},"geometry":{"type":"Point","coordinates":[39.107002934666,-6.82229799377065]}},{"type":"Feature","properties":{"id":3366,"title":"Missing Maps: Dar es Salaam - Ramani Huria 2.0 - 11","status":"ARCHIVED","created":"2017","lastUpdated":"2017","lastActive":"no","area":46.40941299737609,"changesets":744,"mappers":52,"roads":1.45858369529433,"buildings":4756,"edits":5152,"latest":"2017-08-01T12:47:45.000Z"},"geometry":{"type":"Point","coordinates":[39.0957516639887,-6.69596825590191]}},{"type":"Feature","properties":{"id":3395,"title":"Missing Maps: Dar es Salaam - Ramani Huria 2.0 - 23","status":"PUBLISHED","created":"2017","lastUpdated":"2018","lastActive":"no","area":200.39044222285065,"changesets":11931,"mappers":207,"roads":6.40062292346281,"buildings":130739,"edits":132569,"latest":"2017-12-05T17:05:23.000Z"},"geometry":{"type":"Point","coordinates":[39.1952993835025,-6.91753429051324]}},{"type":"Feature","properties":{"id":3411,"title":"Missing Maps: Dar es Salaam - Ramani Huria 2.0 - 25","status":"PUBLISHED","created":"2017","lastUpdated":"2018","lastActive":"no","area":260.81879568766976,"changesets":1755,"mappers":99,"roads":3.25862217409201,"buildings":58641,"edits":59730,"latest":"2017-08-21T09:01:52.000Z"},"geometry":{"type":"Point","coordinates":[39.3808440193565,-6.94279344737865]}},{"type":"Feature","properties":{"id":5136,"title":"Tanzania Development Trust:  Manyara FGM 6","status":"PUBLISHED","created":"2018","lastUpdated":"2018","lastActive":"yes","area":1127.3539356225028,"changesets":3619,"mappers":248,"roads":1504.15420579366,"buildings":50076,"edits":53442,"latest":"2018-12-22T20:43:18.000Z"},"geometry":{"type":"Point","coordinates":[37.0715783941217,-6.08590867686194]}},{"type":"Feature","properties":{"id":3488,"title":"Missing Maps: Dar es Salaam - Ramani Huria 2.0 - 36","status":"PUBLISHED","created":"2017","lastUpdated":"2018","lastActive":"no","area":375.46340276958506,"changesets":3567,"mappers":92,"roads":484.778915813185,"buildings":27629,"edits":38950,"latest":"2017-09-08T11:51:25.000Z"},"geometry":{"type":"Point","coordinates":[39.3726002893632,-6.92392303696635]}},{"type":"Feature","properties":{"id":2556,"title":"PEPFAR Tanzania: Mbeya CC","status":"PUBLISHED","created":"2017","lastUpdated":"2018","lastActive":"no","area":256.08947868821076,"changesets":3674,"mappers":263,"roads":1309.65000981764,"buildings":21914,"edits":54339,"latest":"2018-05-15T06:12:15.000Z"},"geometry":{"type":"Point","coordinates":[33.4732048006568,-8.89830150489546]}},{"type":"Feature","properties":{"id":2609,"title":"Tanzania Development Trust: Maswa district mapping project part 2","status":"ARCHIVED","created":"2017","lastUpdated":"2017","lastActive":"no","area":562.8015857815028,"changesets":3334,"mappers":121,"roads":2584.15851997412,"buildings":32479,"edits":61974,"latest":"2017-07-23T02:02:02.000Z"},"geometry":{"type":"Point","coordinates":[33.8216815175903,-3.13671054186429]}},{"type":"Feature","properties":{"id":4179,"title":"Itona_Kilosa","status":"PUBLISHED","created":"2018","lastUpdated":"2018","lastActive":"no","area":741.6959938125862,"changesets":409,"mappers":55,"roads":1.35885332610885,"buildings":3691,"edits":3744,"latest":"2018-04-11T07:21:08.000Z"},"geometry":{"type":"Point","coordinates":[35.5313455011513,-8.5391899246068]}},{"type":"Feature","properties":{"id":3376,"title":"Missing Maps: Dar es Salaam - Ramani Huria 2.0 - 19","status":"ARCHIVED","created":"2017","lastUpdated":"2017","lastActive":"no","area":63.29172462574548,"changesets":792,"mappers":51,"roads":558.280894827984,"buildings":335,"edits":12639,"latest":"2017-08-13T07:18:12.000Z"},"geometry":{"type":"Point","coordinates":[39.11766640955,-6.60449427493299]}},{"type":"Feature","properties":{"id":5284,"title":"Tanzania Development Trust:  Manyara FGM 7","status":"PUBLISHED","created":"2018","lastUpdated":"2018","lastActive":"no","area":4559.343921547239,"changesets":1664,"mappers":263,"roads":962.289756772172,"buildings":8565,"edits":10819,"latest":"2018-11-07T12:52:35.000Z"},"geometry":{"type":"Point","coordinates":[37.147103144532,-4.15751878737149]}},{"type":"Feature","properties":{"id":3134,"title":"Tanzania Development Trust: Rusesa, Kwaga and Kigembe districts community mapping project ","status":"PUBLISHED","created":"2017","lastUpdated":"2017","lastActive":"no","area":554.3164257263877,"changesets":1163,"mappers":53,"roads":1911.05305710096,"buildings":17520,"edits":30108,"latest":"2017-07-08T06:59:25.000Z"},"geometry":{"type":"Point","coordinates":[30.055031705149,-4.86715366951607]}},{"type":"Feature","properties":{"id":3369,"title":"Missing Maps: Dar es Salaam - Ramani Huria 2.0 - 14","status":"ARCHIVED","created":"2017","lastUpdated":"2017","lastActive":"no","area":59.53047699316665,"changesets":2493,"mappers":75,"roads":7.81894605201079,"buildings":17056,"edits":17781,"latest":"2017-08-21T12:22:37.000Z"},"geometry":{"type":"Point","coordinates":[39.0524394635221,-6.77490751585555]}},{"type":"Feature","properties":{"id":4287,"title":"Mbozi, Mbeya, Tanzania Mini Grids Project 02","status":"PUBLISHED","created":"2018","lastUpdated":"2018","lastActive":"no","area":1464.4147850208826,"changesets":3239,"mappers":63,"roads":3419.72220762667,"buildings":69891,"edits":79035,"latest":"2018-03-28T14:41:07.000Z"},"geometry":{"type":"Point","coordinates":[32.7279617801428,-9.08426035329012]}},{"type":"Feature","properties":{"id":3371,"title":"Missing Maps: Dar es Salaam - Ramani Huria 2.0 - 16","status":"ARCHIVED","created":"2017","lastUpdated":"2017","lastActive":"no","area":92.06647987703117,"changesets":643,"mappers":55,"roads":534.034385643581,"buildings":332,"edits":9986,"latest":"2017-08-17T13:11:30.000Z"},"geometry":{"type":"Point","coordinates":[39.107002934666,-6.82229799377065]}},{"type":"Feature","properties":{"id":3313,"title":"Tanzania Development Trust: Muzye, Muhunga and Bugaga wards community mapping project ","status":"PUBLISHED","created":"2017","lastUpdated":"2018","lastActive":"no","area":467.01646755665894,"changesets":1342,"mappers":90,"roads":2020.46900906235,"buildings":22150,"edits":37327,"latest":"2018-12-18T09:56:59.000Z"},"geometry":{"type":"Point","coordinates":[30.0142412007814,-4.64239965954966]}},{"type":"Feature","properties":{"id":3332,"title":"Missing Maps: Dar es Salaam - Ramani Huria 2.0 - 02","status":"ARCHIVED","created":"2017","lastUpdated":"2017","lastActive":"no","area":22.918002471745922,"changesets":2022,"mappers":67,"roads":2.30023874900871,"buildings":16203,"edits":16555,"latest":"2017-08-14T13:58:26.000Z"},"geometry":{"type":"Point","coordinates":[39.1749360182797,-6.6577888275312]}},{"type":"Feature","properties":{"id":3177,"title":"Tanzania Development Trust: Simiyu district mapping project part 1 - Updated Imagery","status":"PUBLISHED","created":"2017","lastUpdated":"2018","lastActive":"no","area":1361.7036746910928,"changesets":3403,"mappers":231,"roads":2532.63772099731,"buildings":54092,"edits":74404,"latest":"2018-08-03T08:31:49.000Z"},"geometry":{"type":"Point","coordinates":[34.2552244698097,-2.5523894645034]}},{"type":"Feature","properties":{"id":3456,"title":"Missing Maps: Dar es Salaam - Ramani Huria 2.0 - 34","status":"PUBLISHED","created":"2017","lastUpdated":"2018","lastActive":"no","area":196.89167630800463,"changesets":3676,"mappers":139,"roads":587.388974612296,"buildings":20987,"edits":38292,"latest":"2017-11-13T11:24:48.000Z"},"geometry":{"type":"Point","coordinates":[39.1288689759637,-6.84699584132868]}},{"type":"Feature","properties":{"id":3496,"title":"Missing Maps: Dar es Salaam - Ramani Huria 2.0 - 38","status":"PUBLISHED","created":"2017","lastUpdated":"2018","lastActive":"no","area":41.1920610625183,"changesets":5472,"mappers":73,"roads":78.4353169552312,"buildings":94858,"edits":120253,"latest":"2017-11-10T12:46:09.000Z"},"geometry":{"type":"Point","coordinates":[39.2408830614877,-6.80049765582427]}},{"type":"Feature","properties":{"id":4722,"title":"Njombe Region, Tanzania Mini Grids Project 01","status":"PUBLISHED","created":"2018","lastUpdated":"2018","lastActive":"no","area":1960.7678476372357,"changesets":1187,"mappers":61,"roads":1.07364951171986,"buildings":57724,"edits":57843,"latest":"2018-06-14T13:57:46.000Z"},"geometry":{"type":"Point","coordinates":[34.6300177951371,-8.83922964032332]}},{"type":"Feature","properties":{"id":1066,"title":"Missing Maps: Kigoma region towns, Burundi / Tanzania","status":"ARCHIVED","created":"2015","lastUpdated":"2015","lastActive":"no","area":213.63718639264667,"changesets":2,"mappers":1,"roads":1.68154796651448,"buildings":231,"edits":245,"latest":"2015-09-27T23:38:29.000Z"},"geometry":{"type":"Point","coordinates":[29.6664188192449,-4.72722002716652]}},{"type":"Feature","properties":{"id":4646,"title":"Chemba District Villages, Tanzania Mini Grids Project","status":"PUBLISHED","created":"2018","lastUpdated":"2018","lastActive":"no","area":4.696678039184461,"changesets":75,"mappers":22,"roads":0.00801516130593583,"buildings":2731,"edits":2732,"latest":"2018-06-03T12:03:34.000Z"},"geometry":{"type":"Point","coordinates":[35.8524726241387,-5.16212165410825]}},{"type":"Feature","properties":{"id":3351,"title":"Missing Maps: Dar es Salaam - Ramani Huria 2.0 - 06","status":"PUBLISHED","created":"2017","lastUpdated":"2017","lastActive":"no","area":42.09056201926153,"changesets":1060,"mappers":98,"roads":583.340797762564,"buildings":2543,"edits":21480,"latest":"2017-09-18T13:34:28.000Z"},"geometry":{"type":"Point","coordinates":[39.0979103142561,-6.69636185713101]}},{"type":"Feature","properties":{"id":3388,"title":"Missing Maps: Dar es Salaam - Ramani Huria 2.0 - 21","status":"PUBLISHED","created":"2017","lastUpdated":"2017","lastActive":"no","area":69.65587897048133,"changesets":1939,"mappers":75,"roads":6.84000186734417,"buildings":36784,"edits":37868,"latest":"2017-08-11T12:28:34.000Z"},"geometry":{"type":"Point","coordinates":[39.1283057323213,-6.89210398958084]}},{"type":"Feature","properties":{"id":1788,"title":"Tanzania Development Trust: Serengeti district mapping project","status":"ARCHIVED","created":"2016","lastUpdated":"2018","lastActive":"no","area":13584.124479203561,"changesets":22885,"mappers":911,"roads":32070.8722414284,"buildings":416061,"edits":635374,"latest":"2018-10-07T14:50:39.000Z"},"geometry":{"type":"Point","coordinates":[34.6535890667968,-1.94252940124096]}},{"type":"Feature","properties":{"id":1972,"title":"MSD & JSI/USAID Tanzania Road Import - Kilimanjaro region","status":"PUBLISHED","created":"2016","lastUpdated":"2016","lastActive":"no","area":11317.826802773296,"changesets":39,"mappers":4,"roads":2795.17640777083,"buildings":1,"edits":2999,"latest":"2016-07-16T21:02:50.000Z"},"geometry":{"type":"Point","coordinates":[37.5703008351768,-3.69847440148271]}},{"type":"Feature","properties":{"id":1544,"title":"Missing Maps: Dar es Salaam - Ramani Huria5","status":"ARCHIVED","created":"2016","lastUpdated":"2016","lastActive":"no","area":5.586401873878637,"changesets":1381,"mappers":124,"roads":368.316305127799,"buildings":20873,"edits":24593,"latest":"2016-09-07T11:12:52.000Z"},"geometry":{"type":"Point","coordinates":[39.2262531835573,-6.87782624257323]}},{"type":"Feature","properties":{"id":2050,"title":"MSD & JSI/USAID Tanzania Road Import - Morogoro region","status":"PUBLISHED","created":"2016","lastUpdated":"2016","lastActive":"no","area":28136.915277094853,"changesets":232,"mappers":9,"roads":5403.72286464984,"buildings":8,"edits":6562,"latest":"2016-08-17T09:47:25.000Z"},"geometry":{"type":"Point","coordinates":[37.1326578119178,-7.21230071196328]}},{"type":"Feature","properties":{"id":3368,"title":"Missing Maps: Dar es Salaam - Ramani Huria 2.0 - 13","status":"ARCHIVED","created":"2017","lastUpdated":"2017","lastActive":"no","area":48.99161431195106,"changesets":4070,"mappers":170,"roads":18.9213194873194,"buildings":32771,"edits":34946,"latest":"2018-03-05T14:07:36.000Z"},"geometry":{"type":"Point","coordinates":[39.1382076039561,-6.75845322372412]}},{"type":"Feature","properties":{"id":5428,"title":"Tanzania missing buildings Mbulu District","status":"PUBLISHED","created":"2018","lastUpdated":"2018","lastActive":"yes","area":1102.5651278977764,"changesets":8487,"mappers":507,"roads":1050.34355364121,"buildings":46670,"edits":50228,"latest":"2018-12-23T01:39:05.000Z"},"geometry":{"type":"Point","coordinates":[35.4288815332799,-3.84128025510992]}},{"type":"Feature","properties":{"id":3426,"title":"Missing Maps: Dar es Salaam - Ramani Huria 2.0 - 29","status":"PUBLISHED","created":"2017","lastUpdated":"2018","lastActive":"no","area":297.76980439882516,"changesets":627,"mappers":46,"roads":1351.44697865554,"buildings":91,"edits":10344,"latest":"2017-09-06T11:56:12.000Z"},"geometry":{"type":"Point","coordinates":[39.4596870011174,-6.94130438133105]}},{"type":"Feature","properties":{"id":3479,"title":"Missing Maps: Dar es Salaam - Ramani Huria 2.0 - 35","status":"PUBLISHED","created":"2017","lastUpdated":"2018","lastActive":"no","area":278.2939060927899,"changesets":2410,"mappers":124,"roads":330.96957804182,"buildings":13540,"edits":24252,"latest":"2017-09-14T20:28:36.000Z"},"geometry":{"type":"Point","coordinates":[39.1372214131026,-6.98538631246333]}},{"type":"Feature","properties":{"id":3078,"title":"Tanzania Development Trust: Ishunju, Ishozi and Gera districts community mapping project ","status":"ARCHIVED","created":"2017","lastUpdated":"2018","lastActive":"no","area":117.52166194056245,"changesets":514,"mappers":48,"roads":167.554220708217,"buildings":5211,"edits":9222,"latest":"2018-07-03T14:55:27.000Z"},"geometry":{"type":"Point","coordinates":[31.7577065704359,-1.19192302980064]}},{"type":"Feature","properties":{"id":1119,"title":"Missing Maps: Dar es Salaam (phase 2 & 3)","status":"ARCHIVED","created":"2015","lastUpdated":"2017","lastActive":"no","area":18.40993909198471,"changesets":922,"mappers":50,"roads":8.97784506878528,"buildings":3303,"edits":3812,"latest":"2015-11-18T19:10:47.000Z"},"geometry":{"type":"Point","coordinates":[39.245717821605,-6.81747513993096]}},{"type":"Feature","properties":{"id":3353,"title":"Missing Maps: Dar es Salaam - Ramani Huria 2.0 - 08","status":"ARCHIVED","created":"2017","lastUpdated":"2017","lastActive":"no","area":41.71271249600479,"changesets":1277,"mappers":107,"roads":341.752455858356,"buildings":1180,"edits":8988,"latest":"2017-08-21T10:19:51.000Z"},"geometry":{"type":"Point","coordinates":[39.1368897058541,-6.75873901328791]}},{"type":"Feature","properties":{"id":4212,"title":"Tanzania Development Trust: Tunduma, Songwe Community Mapping Project","status":"ARCHIVED","created":"2018","lastUpdated":"2018","lastActive":"no","area":8.348830576332833,"changesets":1309,"mappers":102,"roads":131.172852446918,"buildings":16144,"edits":18573,"latest":"2018-04-16T10:35:52.000Z"},"geometry":{"type":"Point","coordinates":[32.7742526020665,-9.30855990968659]}},{"type":"Feature","properties":{"id":4245,"title":"Tanzania Development Trust: Kome Island Community Mapping Project","status":"ARCHIVED","created":"2018","lastUpdated":"2018","lastActive":"no","area":385.79192833306934,"changesets":1556,"mappers":136,"roads":903.993377006293,"buildings":11792,"edits":17458,"latest":"2018-03-23T13:14:21.000Z"},"geometry":{"type":"Point","coordinates":[32.4921971949472,-2.32937991152019]}},{"type":"Feature","properties":{"id":4210,"title":"Tanzania Development Trust: Rubya Muleba Community Mapping Project","status":"ARCHIVED","created":"2018","lastUpdated":"2018","lastActive":"no","area":3.8004410986879655,"changesets":883,"mappers":30,"roads":76.7339517069804,"buildings":1681,"edits":2914,"latest":"2018-03-04T15:40:41.000Z"},"geometry":{"type":"Point","coordinates":[31.6199206128424,-1.75212343213756]}},{"type":"Feature","properties":{"id":1233,"title":"MSD & JSI/USAID Tanzania Road Import - Kigoma and Tabora regions","status":"PUBLISHED","created":"2015","lastUpdated":"2017","lastActive":"no","area":55716.44775664574,"changesets":89,"mappers":5,"roads":7164.0075520837,"buildings":137,"edits":14011,"latest":"2015-10-15T16:49:58.000Z"},"geometry":{"type":"Point","coordinates":[31.938951757194,-4.84880832874386]}},{"type":"Feature","properties":{"id":955,"title":"Missing Maps: Ushirombo, Tanzania","status":"ARCHIVED","created":"2015","lastUpdated":"2017","lastActive":"no","area":734.2330870305057,"changesets":5658,"mappers":205,"roads":2686.98537358062,"buildings":25007,"edits":61755,"latest":"2015-10-29T23:37:03.000Z"},"geometry":{"type":"Point","coordinates":[31.8893884959412,-3.44082642084493]}},{"type":"Feature","properties":{"id":2000,"title":"MSD & JSI/USAID Tanzania Road Import - Kagera region","status":"PUBLISHED","created":"2016","lastUpdated":"2017","lastActive":"no","area":20054.048144070715,"changesets":358,"mappers":13,"roads":5109.7295790206,"buildings":602,"edits":5030,"latest":"2016-09-01T07:25:22.000Z"},"geometry":{"type":"Point","coordinates":[31.2939426199718,-2.04845084133451]}},{"type":"Feature","properties":{"id":4235,"title":"Tanzania Development Trust: Biharamulo Community Mapping Project","status":"ARCHIVED","created":"2018","lastUpdated":"2018","lastActive":"no","area":6.039818387380115,"changesets":765,"mappers":51,"roads":284.739876449328,"buildings":4189,"edits":5785,"latest":"2018-06-24T19:09:43.000Z"},"geometry":{"type":"Point","coordinates":[31.311664443878,-2.63422509905993]}},{"type":"Feature","properties":{"id":2578,"title":"Tanzania Development Trust: Maswa district mapping project part 1","status":"PUBLISHED","created":"2017","lastUpdated":"2017","lastActive":"no","area":159.57894576974346,"changesets":798,"mappers":47,"roads":907.46038769883,"buildings":10840,"edits":16860,"latest":"2018-06-24T09:29:40.000Z"},"geometry":{"type":"Point","coordinates":[33.8183321244147,-3.27981056061139]}},{"type":"Feature","properties":{"id":2159,"title":"Earthquake in Uganda and Tanzania, 10/09/2016 - NW of Bukoba Buildings Mapping","status":"ARCHIVED","created":"2016","lastUpdated":"2016","lastActive":"no","area":35.25230685743545,"changesets":692,"mappers":35,"roads":17.305928804687,"buildings":7977,"edits":8616,"latest":"2016-09-19T09:02:48.000Z"},"geometry":{"type":"Point","coordinates":[31.764514331462,-1.30982429531606]}},{"type":"Feature","properties":{"id":3968,"title":"Tanzania Development Trust: Mbozi district community mapping project","status":"PUBLISHED","created":"2017","lastUpdated":"2018","lastActive":"no","area":270.15833206747897,"changesets":2286,"mappers":250,"roads":2544.75601300673,"buildings":13884,"edits":37539,"latest":"2018-12-23T02:02:50.000Z"},"geometry":{"type":"Point","coordinates":[32.7810690177479,-9.02055139563406]}},{"type":"Feature","properties":{"id":3826,"title":"Tanzania Development Trust: Ihanda Community Mapping Project","status":"ARCHIVED","created":"2017","lastUpdated":"2018","lastActive":"no","area":84.22986494226826,"changesets":308,"mappers":18,"roads":373.737137847268,"buildings":3803,"edits":6185,"latest":"2018-06-21T20:32:04.000Z"},"geometry":{"type":"Point","coordinates":[31.088492540636,-1.549140845654]}},{"type":"Feature","properties":{"id":3505,"title":"Missing Maps: Dar es Salaam - Ramani Huria 2.0 - 39","status":"PUBLISHED","created":"2017","lastUpdated":"2018","lastActive":"no","area":96.83711970341507,"changesets":3897,"mappers":79,"roads":269.298159883004,"buildings":48923,"edits":63495,"latest":"2017-09-18T11:50:06.000Z"},"geometry":{"type":"Point","coordinates":[39.2911329352229,-6.85999146469818]}},{"type":"Feature","properties":{"id":3903,"title":"PEPFAR TANZANIA: GEITA DC","status":"PUBLISHED","created":"2017","lastUpdated":"2018","lastActive":"no","area":4738.968040349855,"changesets":5705,"mappers":275,"roads":3185.90199833963,"buildings":61057,"edits":85259,"latest":"2018-11-18T06:22:39.000Z"},"geometry":{"type":"Point","coordinates":[32.1742010245843,-2.86754820690531]}},{"type":"Feature","properties":{"id":1903,"title":"Peace Corps Tanzania -- Lushoto","status":"PUBLISHED","created":"2016","lastUpdated":"2017","lastActive":"no","area":69.21165370312055,"changesets":640,"mappers":88,"roads":126.39665147357,"buildings":9101,"edits":10836,"latest":"2017-07-28T23:41:56.000Z"},"geometry":{"type":"Point","coordinates":[38.3007954725319,-4.81163810650237]}},{"type":"Feature","properties":{"id":4424,"title":"Tunduru, Ruvuma, Tanzania Mini Grids Project 02","status":"PUBLISHED","created":"2018","lastUpdated":"2018","lastActive":"no","area":1549.6766515243964,"changesets":855,"mappers":63,"roads":0.0711115935309787,"buildings":21117,"edits":21136,"latest":"2018-05-07T07:56:42.000Z"},"geometry":{"type":"Point","coordinates":[37.1622341886943,-11.3445956375813]}},{"type":"Feature","properties":{"id":834,"title":"Serengeti National Park","status":"PUBLISHED","created":"2015","lastUpdated":"2017","lastActive":"no","area":13370.038280033767,"changesets":165,"mappers":19,"roads":648.970986560487,"buildings":336,"edits":1752,"latest":"2017-10-23T10:50:06.000Z"},"geometry":{"type":"Point","coordinates":[34.781220904536,-2.33150605571682]}},{"type":"Feature","properties":{"id":4509,"title":"Central Singida, Singida, Tanzania Mini Grids Project 01 East","status":"PUBLISHED","created":"2018","lastUpdated":"2018","lastActive":"no","area":1475.3604875927692,"changesets":937,"mappers":67,"roads":0.0165898988823745,"buildings":11972,"edits":11978,"latest":"2018-06-28T10:08:59.000Z"},"geometry":{"type":"Point","coordinates":[34.1286284936251,-5.08363727457584]}},{"type":"Feature","properties":{"id":3666,"title":"Zanzibar Roads - Unguja Island - 02","status":"PUBLISHED","created":"2017","lastUpdated":"2017","lastActive":"no","area":467.0999763333136,"changesets":182,"mappers":13,"roads":1127.1061948184,"buildings":5,"edits":6570,"latest":"2017-10-04T08:29:26.000Z"},"geometry":{"type":"Point","coordinates":[39.2879567596863,-5.91889676940709]}},{"type":"Feature","properties":{"id":2125,"title":"Missing Maps: Dar es Salaam - Ramani Huria 7","status":"PUBLISHED","created":"2016","lastUpdated":"2017","lastActive":"no","area":15.59172030179052,"changesets":681,"mappers":54,"roads":23.3546858581493,"buildings":15759,"edits":16703,"latest":"2017-12-11T17:19:19.000Z"},"geometry":{"type":"Point","coordinates":[39.2272702302774,-6.72482139604585]}},{"type":"Feature","properties":{"id":3159,"title":"Tanzania Development Trust: Singida district community mapping project ","status":"PUBLISHED","created":"2017","lastUpdated":"2018","lastActive":"no","area":746.5381861519145,"changesets":8157,"mappers":372,"roads":10510.3568767361,"buildings":97698,"edits":203274,"latest":"2018-12-21T04:00:51.000Z"},"geometry":{"type":"Point","coordinates":[34.973843496759,-4.67540763811596]}},{"type":"Feature","properties":{"id":3670,"title":"Zanzibar Roads - Unguja Island - 03","status":"PUBLISHED","created":"2017","lastUpdated":"2018","lastActive":"no","area":891.0473088683418,"changesets":412,"mappers":18,"roads":2063.39671273259,"buildings":162,"edits":11431,"latest":"2018-09-29T05:14:47.000Z"},"geometry":{"type":"Point","coordinates":[39.4232119996911,-6.23876844212124]}},{"type":"Feature","properties":{"id":4034,"title":"RiftValley Energy houses count","status":"PUBLISHED","created":"2018","lastUpdated":"2018","lastActive":"no","area":3182.0339068213334,"changesets":1196,"mappers":18,"roads":2.25560241095201,"buildings":73824,"edits":74303,"latest":"2018-02-13T09:48:18.000Z"},"geometry":{"type":"Point","coordinates":[35.6106991071965,-8.43031266072661]}},{"type":"Feature","properties":{"id":1904,"title":"Peace Corps Tanzania -- Mnavira","status":"ARCHIVED","created":"2016","lastUpdated":"2016","lastActive":"no","area":2.392296820488899,"changesets":67,"mappers":12,"roads":34.4734407565492,"buildings":1089,"edits":1629,"latest":"2016-07-19T15:50:21.000Z"},"geometry":{"type":"Point","coordinates":[39.2554909570247,-11.0739917532281]}},{"type":"Feature","properties":{"id":3971,"title":"Tanzania Development Trust: 2nd Mtwara Community Mapping Project","status":"ARCHIVED","created":"2018","lastUpdated":"2018","lastActive":"no","area":98.24692106163043,"changesets":687,"mappers":24,"roads":511.802625732125,"buildings":11183,"edits":19631,"latest":"2018-06-22T19:53:56.000Z"},"geometry":{"type":"Point","coordinates":[39.428959871461,-10.8447995271352]}},{"type":"Feature","properties":{"id":4080,"title":"Kagera_2","status":"PUBLISHED","created":"2018","lastUpdated":"2018","lastActive":"no","area":4.132236731942467,"changesets":0,"mappers":0,"roads":0,"buildings":0,"edits":0,"latest":null},"geometry":{"type":"Point","coordinates":[32.1201287375201,-1.47002070001865]}},{"type":"Feature","properties":{"id":4089,"title":"Kigoma_8","status":"PUBLISHED","created":"2018","lastUpdated":"2018","lastActive":"no","area":3.170194931843662,"changesets":175,"mappers":7,"roads":0.00164720947993757,"buildings":5558,"edits":5558,"latest":"2018-02-15T13:52:57.000Z"},"geometry":{"type":"Point","coordinates":[29.7797396119648,-6.00710814066057]}},{"type":"Feature","properties":{"id":4069,"title":"Mwanza_sengerema","status":"PUBLISHED","created":"2018","lastUpdated":"2018","lastActive":"no","area":126.12964780900826,"changesets":1,"mappers":1,"roads":0,"buildings":0,"edits":0,"latest":"2018-01-27T16:55:51.000Z"},"geometry":{"type":"Point","coordinates":[32.0146901070511,-2.29756141820935]}},{"type":"Feature","properties":{"id":4071,"title":"kagera_2","status":"PUBLISHED","created":"2018","lastUpdated":"2018","lastActive":"no","area":3.850874321865156,"changesets":0,"mappers":0,"roads":0,"buildings":0,"edits":0,"latest":null},"geometry":{"type":"Point","coordinates":[32.1200972473445,-1.47063756855484]}},{"type":"Feature","properties":{"id":4085,"title":"KIgoma_4","status":"PUBLISHED","created":"2018","lastUpdated":"2018","lastActive":"no","area":2.399888577348453,"changesets":108,"mappers":6,"roads":1.32334526648593,"buildings":3032,"edits":3050,"latest":"2018-02-01T08:56:12.000Z"},"geometry":{"type":"Point","coordinates":[30.0424214657337,-6.45975202845021]}},{"type":"Feature","properties":{"id":5613,"title":"Tanzania Mbeya Missing Highways","status":"PUBLISHED","created":"2018","lastUpdated":"2018","lastActive":"no","area":322.07731681096374,"changesets":20,"mappers":2,"roads":136.162835374417,"buildings":10,"edits":67,"latest":"2018-12-22T00:27:24.000Z"},"geometry":{"type":"Point","coordinates":[33.1571146316758,-7.79404877174866]}},{"type":"Feature","properties":{"id":5474,"title":"Tanzania missing buildings Harang District, Manyara Region","status":"PUBLISHED","created":"2018","lastUpdated":"2018","lastActive":"no","area":310.80393427101467,"changesets":822,"mappers":90,"roads":32.463450597918,"buildings":3412,"edits":3652,"latest":"2018-12-09T15:47:56.000Z"},"geometry":{"type":"Point","coordinates":[35.3330397028835,-4.60695096355219]}},{"type":"Feature","properties":{"id":4105,"title":"Kigoma_17","status":"PUBLISHED","created":"2018","lastUpdated":"2018","lastActive":"no","area":4.227050493859274,"changesets":84,"mappers":8,"roads":0.193564177598396,"buildings":1322,"edits":1325,"latest":"2018-02-22T12:12:21.000Z"},"geometry":{"type":"Point","coordinates":[29.9287252179311,-5.73757948308089]}},{"type":"Feature","properties":{"id":4289,"title":"Mbozi, Mbeya, Tanzania Mini Grids Project 03","status":"PUBLISHED","created":"2018","lastUpdated":"2018","lastActive":"no","area":1303.883290131881,"changesets":2723,"mappers":78,"roads":1712.56467120964,"buildings":64564,"edits":69636,"latest":"2018-06-29T13:53:40.000Z"},"geometry":{"type":"Point","coordinates":[32.6733402584994,-8.98142081120725]}},{"type":"Feature","properties":{"id":4378,"title":"Tunduru, Ruvuma, Tanzania Mini Grids Project 03","status":"PUBLISHED","created":"2018","lastUpdated":"2018","lastActive":"no","area":1369.2568876847938,"changesets":1018,"mappers":60,"roads":0.263537837490913,"buildings":23394,"edits":23430,"latest":"2018-05-03T13:14:28.000Z"},"geometry":{"type":"Point","coordinates":[37.4088345476761,-11.1598554676675]}},{"type":"Feature","properties":{"id":4036,"title":"TZ IFC Mini-grids house count test-2","status":"PUBLISHED","created":"2018","lastUpdated":"2018","lastActive":"no","area":481.70619678590833,"changesets":2181,"mappers":13,"roads":36.3868917119351,"buildings":181981,"edits":182647,"latest":"2018-02-23T15:15:42.000Z"},"geometry":{"type":"Point","coordinates":[33.965651545629,-6.53613031653059]}},{"type":"Feature","properties":{"id":4411,"title":"Tunduru, Ruvuma, Tanzania Mini Grids Project 05","status":"PUBLISHED","created":"2018","lastUpdated":"2018","lastActive":"no","area":1479.9129003136538,"changesets":1947,"mappers":62,"roads":3.59696148842831,"buildings":30085,"edits":30123,"latest":"2018-05-17T04:42:41.000Z"},"geometry":{"type":"Point","coordinates":[37.4466069429557,-10.8885669665714]}},{"type":"Feature","properties":{"id":4401,"title":"Kipili Ward, Rukwa, Tanzania Mini Grids Project 01","status":"PUBLISHED","created":"2018","lastUpdated":"2018","lastActive":"no","area":180.26824654575853,"changesets":455,"mappers":51,"roads":0.000599220796289046,"buildings":9512,"edits":9513,"latest":"2018-05-08T10:13:16.000Z"},"geometry":{"type":"Point","coordinates":[30.6487933655884,-7.46688534597107]}},{"type":"Feature","properties":{"id":4436,"title":"Mbulu Center Village, Tanzania Mini Grids Project 01","status":"PUBLISHED","created":"2018","lastUpdated":"2018","lastActive":"no","area":12.606083526364179,"changesets":134,"mappers":33,"roads":0.0184481585815086,"buildings":1409,"edits":1446,"latest":"2018-04-20T09:10:43.000Z"},"geometry":{"type":"Point","coordinates":[33.0464779854459,-8.95939155015172]}},{"type":"Feature","properties":{"id":4386,"title":"Igalula Ward, Kigoma, Tanzania Mini Grids Project 01","status":"PUBLISHED","created":"2018","lastUpdated":"2018","lastActive":"no","area":1169.7270185651328,"changesets":912,"mappers":37,"roads":0.00817977234302703,"buildings":9782,"edits":9783,"latest":"2018-04-17T14:00:26.000Z"},"geometry":{"type":"Point","coordinates":[30.1160375593605,-6.04163687332309]}},{"type":"Feature","properties":{"id":4419,"title":"Mpwapwa, Dodoma, Tanzania Mini Grids Project 06","status":"PUBLISHED","created":"2018","lastUpdated":"2018","lastActive":"no","area":1290.5067497887903,"changesets":2176,"mappers":91,"roads":10.7518575631284,"buildings":54733,"edits":54794,"latest":"2018-06-30T12:14:33.000Z"},"geometry":{"type":"Point","coordinates":[36.516398356325,-6.30752944180002]}},{"type":"Feature","properties":{"id":4499,"title":"Lindi, Lindi, Tanzania Mini Grids Project 05","status":"PUBLISHED","created":"2018","lastUpdated":"2018","lastActive":"no","area":1350.3603655694978,"changesets":1100,"mappers":66,"roads":1.12477553899274,"buildings":28479,"edits":28638,"latest":"2018-06-29T06:31:34.000Z"},"geometry":{"type":"Point","coordinates":[39.5947553137122,-9.74965390209154]}},{"type":"Feature","properties":{"id":4585,"title":"Tabora, Tabora, Tanzania Mini Grids Project 03","status":"PUBLISHED","created":"2018","lastUpdated":"2018","lastActive":"no","area":1693.3910497782038,"changesets":1678,"mappers":65,"roads":5.09675418876548,"buildings":25872,"edits":26598,"latest":"2018-05-30T13:54:08.000Z"},"geometry":{"type":"Point","coordinates":[32.6289834190743,-5.08439195561257]}},{"type":"Feature","properties":{"id":4620,"title":"Misungwi, Mwanza, Tanzania Mini Grids Project 01","status":"PUBLISHED","created":"2018","lastUpdated":"2018","lastActive":"no","area":1505.6277470567059,"changesets":2108,"mappers":68,"roads":13.4694336037439,"buildings":52916,"edits":53379,"latest":"2018-07-27T10:35:50.000Z"},"geometry":{"type":"Point","coordinates":[32.9858926670162,-3.06285488354204]}},{"type":"Feature","properties":{"id":4721,"title":"Songea Rural, Ruvuma, Tanzania Mini Grids Project 07","status":"PUBLISHED","created":"2018","lastUpdated":"2018","lastActive":"no","area":2150.916415219976,"changesets":529,"mappers":56,"roads":0.110758162123934,"buildings":9687,"edits":9700,"latest":"2018-08-16T06:38:13.000Z"},"geometry":{"type":"Point","coordinates":[35.5937322600906,-11.359078653805]}},{"type":"Feature","properties":{"id":4637,"title":"Mkakatih Village, Tanzania Mini Grids Project","status":"PUBLISHED","created":"2018","lastUpdated":"2018","lastActive":"no","area":33.36735469325082,"changesets":73,"mappers":32,"roads":0.0531955537922062,"buildings":1062,"edits":1067,"latest":"2018-06-03T11:19:19.000Z"},"geometry":{"type":"Point","coordinates":[35.361299461125,-5.90004952122001]}},{"type":"Feature","properties":{"id":4654,"title":"Chemba and Bahi Districts, Tanzania Mini Grids Project 03","status":"PUBLISHED","created":"2018","lastUpdated":"2018","lastActive":"no","area":1954.525377556312,"changesets":1245,"mappers":41,"roads":0.106920348528221,"buildings":20636,"edits":20657,"latest":"2018-06-05T14:25:23.000Z"},"geometry":{"type":"Point","coordinates":[35.5847311116868,-5.42682995375007]}},{"type":"Feature","properties":{"id":4716,"title":"Buigiri, Tanzania Mini Grids Project","status":"PUBLISHED","created":"2018","lastUpdated":"2018","lastActive":"no","area":70.76658506869626,"changesets":35,"mappers":19,"roads":0,"buildings":1370,"edits":1370,"latest":"2018-06-11T06:47:36.000Z"},"geometry":{"type":"Point","coordinates":[36.0912871642792,-6.16102193778322]}},{"type":"Feature","properties":{"id":3427,"title":"Missing Maps: Dar es Salaam - Ramani Huria 2.0 - 30","status":"PUBLISHED","created":"2017","lastUpdated":"2018","lastActive":"no","area":324.58461584384474,"changesets":736,"mappers":55,"roads":997.252274559555,"buildings":82,"edits":5864,"latest":"2017-08-24T07:24:28.000Z"},"geometry":{"type":"Point","coordinates":[39.4586452875521,-7.09171770901867]}},{"type":"Feature","properties":{"id":4719,"title":"Songea Rural, Ruvuma, Tanzania Mini Grids Project 05","status":"PUBLISHED","created":"2018","lastUpdated":"2018","lastActive":"no","area":2073.141928637436,"changesets":1420,"mappers":54,"roads":0.925980022800688,"buildings":30459,"edits":30541,"latest":"2018-06-12T10:58:13.000Z"},"geometry":{"type":"Point","coordinates":[35.4782949633589,-10.7224020173536]}},{"type":"Feature","properties":{"id":4806,"title":"Tanzania Development Trust: Salesforce Manyara FGM 1","status":"ARCHIVED","created":"2018","lastUpdated":"2018","lastActive":"no","area":4622.432534591587,"changesets":0,"mappers":0,"roads":0,"buildings":0,"edits":0,"latest":null},"geometry":{"type":"Point","coordinates":[36.6099230731213,-5.44490485431505]}},{"type":"Feature","properties":{"id":4778,"title":"Chato District Villages, Geita Region, Tanzania Mini Grids Project","status":"PUBLISHED","created":"2018","lastUpdated":"2018","lastActive":"no","area":4421.105608459506,"changesets":4930,"mappers":59,"roads":55.2059060410998,"buildings":266071,"edits":266569,"latest":"2018-08-02T09:44:15.000Z"},"geometry":{"type":"Point","coordinates":[32.0397914259504,-2.93095561585775]}},{"type":"Feature","properties":{"id":3372,"title":"Missing Maps: Dar es Salaam - Ramani Huria 2.0 - 17","status":"ARCHIVED","created":"2017","lastUpdated":"2017","lastActive":"no","area":69.65587897048133,"changesets":620,"mappers":59,"roads":326.07234769034,"buildings":735,"edits":5445,"latest":"2017-08-22T12:02:56.000Z"},"geometry":{"type":"Point","coordinates":[39.1283057323213,-6.89210398958084]}},{"type":"Feature","properties":{"id":3455,"title":"Missing Maps: Dar es Salaam - Ramani Huria 2.0 - 33","status":"PUBLISHED","created":"2017","lastUpdated":"2018","lastActive":"no","area":156.72153831900792,"changesets":2954,"mappers":102,"roads":579.977370621099,"buildings":21094,"edits":39085,"latest":"2017-10-29T15:21:56.000Z"},"geometry":{"type":"Point","coordinates":[39.1237350888545,-6.75759979671739]}},{"type":"Feature","properties":{"id":3331,"title":"Missing Maps: Dar es Salaam - Ramani Huria 2.0 - 01","status":"ARCHIVED","created":"2017","lastUpdated":"2017","lastActive":"no","area":21.198059977554916,"changesets":1016,"mappers":59,"roads":3.20397694021402,"buildings":11745,"edits":12359,"latest":"2017-09-13T06:44:46.000Z"},"geometry":{"type":"Point","coordinates":[39.1533126101187,-6.63201450487923]}},{"type":"Feature","properties":{"id":3370,"title":"Missing Maps: Dar es Salaam - Ramani Huria 2.0 - 15","status":"ARCHIVED","created":"2017","lastUpdated":"2017","lastActive":"no","area":63.29172462574548,"changesets":1134,"mappers":57,"roads":8.02147770662194,"buildings":19173,"edits":19696,"latest":"2017-08-10T07:17:24.000Z"},"geometry":{"type":"Point","coordinates":[39.11766640955,-6.60449427493299]}},{"type":"Feature","properties":{"id":3452,"title":"Missing Maps: Dar es Salaam - Ramani Huria 2.0 - 31","status":"PUBLISHED","created":"2017","lastUpdated":"2018","lastActive":"no","area":122.32342510735991,"changesets":2509,"mappers":42,"roads":423.609994409643,"buildings":6830,"edits":24947,"latest":"2017-11-07T07:20:37.000Z"},"geometry":{"type":"Point","coordinates":[39.1193941639637,-6.62298853184651]}},{"type":"Feature","properties":{"id":3458,"title":"Tanzania Development Trust: Kahororo Community Mapping Project","status":"ARCHIVED","created":"2017","lastUpdated":"2018","lastActive":"no","area":15.218926174396286,"changesets":1023,"mappers":105,"roads":161.327485031549,"buildings":4806,"edits":10061,"latest":"2018-06-21T17:38:07.000Z"},"geometry":{"type":"Point","coordinates":[31.8368334027644,-1.30114812693389]}},{"type":"Feature","properties":{"id":4256,"title":"Manyara","status":"ARCHIVED","created":"2018","lastUpdated":"2018","lastActive":"no","area":63.093260840318564,"changesets":0,"mappers":0,"roads":0,"buildings":0,"edits":0,"latest":null},"geometry":{"type":"Point","coordinates":[35.3368133697752,-4.30430004427207]}},{"type":"Feature","properties":{"id":5376,"title":"Tanzania Isolated Tertiary Highway Tags","status":"ARCHIVED","created":"2018","lastUpdated":"2018","lastActive":"no","area":2974.7878575458826,"changesets":487,"mappers":16,"roads":2309.05064140338,"buildings":2063,"edits":12201,"latest":"2018-12-06T00:35:56.000Z"},"geometry":{"type":"Point","coordinates":[34.6409452084005,-5.50791412422014]}},{"type":"Feature","properties":{"id":4991,"title":"Data Zetu Hotsports_Mbeya","status":"PUBLISHED","created":"2018","lastUpdated":"2018","lastActive":"no","area":16.90944585735463,"changesets":1032,"mappers":30,"roads":0.570750636793558,"buildings":19667,"edits":19935,"latest":"2018-08-14T07:22:14.000Z"},"geometry":{"type":"Point","coordinates":[33.4961424334101,-8.92572377814541]}},{"type":"Feature","properties":{"id":4896,"title":"Tanzania Development Trust:  Manyara FGM 3","status":"PUBLISHED","created":"2018","lastUpdated":"2018","lastActive":"no","area":2283.4732623040454,"changesets":1771,"mappers":168,"roads":225.333231420998,"buildings":15423,"edits":15979,"latest":"2018-10-24T12:40:31.000Z"},"geometry":{"type":"Point","coordinates":[37.0771755450608,-5.56656722298389]}},{"type":"Feature","properties":{"id":2095,"title":"MSD & JSI/USAID Tanzania Road Import - Mara region","status":"PUBLISHED","created":"2016","lastUpdated":"2016","lastActive":"no","area":18583.120612545095,"changesets":412,"mappers":12,"roads":2664.66783599299,"buildings":2995,"edits":11152,"latest":"2016-12-02T22:57:06.000Z"},"geometry":{"type":"Point","coordinates":[34.2964225881828,-1.80037216405206]}},{"type":"Feature","properties":{"id":2111,"title":"MSD & JSI/USAID Tanzania Road Import - Mbeya region","status":"PUBLISHED","created":"2016","lastUpdated":"2016","lastActive":"no","area":19769.484038509396,"changesets":79,"mappers":5,"roads":2211.37645137462,"buildings":3314,"edits":7568,"latest":"2016-10-05T18:18:41.000Z"},"geometry":{"type":"Point","coordinates":[33.156706012806,-8.77001626949037]}}],"totalArea":2402899176.0071387,"Democratic Republic of the Congo":[{"type":"Feature","properties":{"id":5601,"title":"2018 Ebola Revision Butembo, Nord-Kivu, DRC","status":"PUBLISHED","created":"2018","lastUpdated":"2018","lastActive":"yes","area":68.95770835438297,"changesets":1501,"mappers":71,"roads":388.079716761845,"buildings":46352,"edits":54222,"latest":"2018-12-23T04:28:43.000Z"},"geometry":{"type":"Point","coordinates":[29.3063860354814,0.1197880362425]}},{"type":"Feature","properties":{"id":4690,"title":"2018 Ebola #50, road Mbandaka - Bikoro 1, DRC","status":"ARCHIVED","created":"2018","lastUpdated":"2018","lastActive":"no","area":2.904104562850074,"changesets":308,"mappers":53,"roads":1.74626237526988,"buildings":3089,"edits":3114,"latest":"2018-06-07T09:28:41.000Z"},"geometry":{"type":"Point","coordinates":[18.2899421417415,-0.462946111197856]}},{"type":"Feature","properties":{"id":4598,"title":"2018 Ebola #38, North East Kiri, DRC","status":"ARCHIVED","created":"2018","lastUpdated":"2018","lastActive":"no","area":1283.2519077000459,"changesets":165,"mappers":25,"roads":249.232658050597,"buildings":794,"edits":1157,"latest":"2018-05-30T15:28:59.000Z"},"geometry":{"type":"Point","coordinates":[19.195746304154,-1.21794730344669]}},{"type":"Feature","properties":{"id":5507,"title":"2018 Ebola, Butembo, Nord-Kivu, DRC (part 2)","status":"ARCHIVED","created":"2018","lastUpdated":"2018","lastActive":"no","area":23.71643744901061,"changesets":2549,"mappers":282,"roads":79.3150633883818,"buildings":32605,"edits":35661,"latest":"2018-12-02T23:23:35.000Z"},"geometry":{"type":"Point","coordinates":[29.3264594410266,0.145867634088447]}},{"type":"Feature","properties":{"id":5487,"title":"2018 Ebola, Butembo, Nord-Kivu, DRC (part 3)","status":"ARCHIVED","created":"2018","lastUpdated":"2018","lastActive":"no","area":160.09082851641614,"changesets":1501,"mappers":107,"roads":175.225662631913,"buildings":23644,"edits":25231,"latest":"2018-12-13T22:59:30.000Z"},"geometry":{"type":"Point","coordinates":[29.2716903725817,0.201284939138608]}},{"type":"Feature","properties":{"id":4755,"title":"2018 Ebola #54, South west of Ingende, DRC","status":"ARCHIVED","created":"2018","lastUpdated":"2018","lastActive":"no","area":5.001448446383952,"changesets":153,"mappers":35,"roads":8.6624487197095,"buildings":1193,"edits":1236,"latest":"2018-06-15T14:00:58.000Z"},"geometry":{"type":"Point","coordinates":[18.7705122947346,-0.413055560240571]}},{"type":"Feature","properties":{"id":4589,"title":"2018 Ebola #32, South East of Lukolela, DRC","status":"ARCHIVED","created":"2018","lastUpdated":"2018","lastActive":"no","area":2013.6766261336995,"changesets":147,"mappers":30,"roads":30.5295281337406,"buildings":391,"edits":502,"latest":"2018-05-26T10:54:44.000Z"},"geometry":{"type":"Point","coordinates":[17.3327174947974,-1.43249211776356]}},{"type":"Feature","properties":{"id":4631,"title":"2018 Ebola #48, Lac Tumba south 1, DRC","status":"ARCHIVED","created":"2018","lastUpdated":"2018","lastActive":"no","area":3.421247831543412,"changesets":270,"mappers":51,"roads":1.00576233326209,"buildings":2410,"edits":2437,"latest":"2018-06-01T03:35:01.000Z"},"geometry":{"type":"Point","coordinates":[17.944906060793,-0.826875903158574]}},{"type":"Feature","properties":{"id":4591,"title":"2018 Ebola #34, Inongo, DRC","status":"ARCHIVED","created":"2018","lastUpdated":"2018","lastActive":"no","area":1786.9351967145803,"changesets":267,"mappers":54,"roads":250.021479974604,"buildings":1238,"edits":1928,"latest":"2018-05-28T18:18:21.000Z"},"geometry":{"type":"Point","coordinates":[18.4438176099286,-1.94603531516757]}},{"type":"Feature","properties":{"id":4600,"title":"2018 Ebola #40, Lokoro, DRC","status":"ARCHIVED","created":"2018","lastUpdated":"2018","lastActive":"no","area":1811.4420156220588,"changesets":110,"mappers":18,"roads":11.6382589941515,"buildings":9,"edits":140,"latest":"2018-05-30T23:31:32.000Z"},"geometry":{"type":"Point","coordinates":[19.1231202546398,-2.02937688669494]}},{"type":"Feature","properties":{"id":4594,"title":"2018 Ebola #36, Kiri, DRC","status":"ARCHIVED","created":"2018","lastUpdated":"2018","lastActive":"no","area":1491.896303277133,"changesets":224,"mappers":32,"roads":20.876668939593,"buildings":817,"edits":1095,"latest":"2018-05-26T21:06:50.000Z"},"geometry":{"type":"Point","coordinates":[18.815575644476,-1.57981435593016]}},{"type":"Feature","properties":{"id":4587,"title":"2018 Ebola #30, North-West of Lake Mai-Ndombe, DRC","status":"ARCHIVED","created":"2018","lastUpdated":"2018","lastActive":"no","area":1790.1436915205766,"changesets":142,"mappers":20,"roads":143.416618123546,"buildings":422,"edits":749,"latest":"2018-05-25T14:48:46.000Z"},"geometry":{"type":"Point","coordinates":[18.0642466460537,-1.43046680835656]}},{"type":"Feature","properties":{"id":4565,"title":"2018 Ebola #22, North of Mampoko, DRC","status":"ARCHIVED","created":"2018","lastUpdated":"2018","lastActive":"no","area":2523.4962851992523,"changesets":341,"mappers":58,"roads":27.523744240196,"buildings":1110,"edits":1351,"latest":"2018-05-24T14:01:31.000Z"},"geometry":{"type":"Point","coordinates":[18.7590983487615,1.06215397641751]}},{"type":"Feature","properties":{"id":4567,"title":"2018 Ebola #24, Makanza, DRC","status":"ARCHIVED","created":"2018","lastUpdated":"2018","lastActive":"no","area":1696.9493444553755,"changesets":380,"mappers":63,"roads":30.5127793559269,"buildings":1124,"edits":1620,"latest":"2018-05-24T20:49:22.000Z"},"geometry":{"type":"Point","coordinates":[19.0909235714459,1.61806216248831]}},{"type":"Feature","properties":{"id":4554,"title":"2018 Ebola #16, East of Ingende, DRC","status":"ARCHIVED","created":"2018","lastUpdated":"2018","lastActive":"no","area":1134.0328311752671,"changesets":131,"mappers":22,"roads":154.316473840062,"buildings":986,"edits":1247,"latest":"2018-05-25T05:08:33.000Z"},"geometry":{"type":"Point","coordinates":[19.0763837731612,-0.308677159822863]}},{"type":"Feature","properties":{"id":4525,"title":"2018 Ebola #8, Mbandaka (E Av. Revolution), DRC","status":"ARCHIVED","created":"2018","lastUpdated":"2018","lastActive":"no","area":11.214682390257893,"changesets":701,"mappers":82,"roads":26.8790814005482,"buildings":13967,"edits":14312,"latest":"2018-05-17T14:38:01.000Z"},"geometry":{"type":"Point","coordinates":[18.2789789858524,0.04126200032361]}},{"type":"Feature","properties":{"id":5176,"title":"2018 Ebola, North-West of Beni, Nord-Kivu, DRC","status":"ARCHIVED","created":"2018","lastUpdated":"2018","lastActive":"no","area":210.61101334569332,"changesets":319,"mappers":48,"roads":109.065594100484,"buildings":5859,"edits":6279,"latest":"2018-09-12T09:59:08.000Z"},"geometry":{"type":"Point","coordinates":[29.1630430370293,0.631378590717463]}},{"type":"Feature","properties":{"id":4754,"title":"2018 Ebola #53, Bolaka, DRC","status":"ARCHIVED","created":"2018","lastUpdated":"2018","lastActive":"no","area":1.4466281290536755,"changesets":76,"mappers":7,"roads":2.8131136745933,"buildings":894,"edits":903,"latest":"2018-06-14T20:48:13.000Z"},"geometry":{"type":"Point","coordinates":[18.5172506708689,-0.365034922374921]}},{"type":"Feature","properties":{"id":4558,"title":"2018 Ebola #17, West of Lake Tumba, DRC","status":"ARCHIVED","created":"2018","lastUpdated":"2018","lastActive":"no","area":1900.856631269421,"changesets":289,"mappers":35,"roads":59.442334527405,"buildings":1360,"edits":1709,"latest":"2018-05-21T15:22:52.000Z"},"geometry":{"type":"Point","coordinates":[17.8103299067143,-0.889247773483224]}},{"type":"Feature","properties":{"id":4561,"title":"2018 Ebola #20, North of Mbandaka, DRC","status":"ARCHIVED","created":"2018","lastUpdated":"2018","lastActive":"no","area":1444.823543377266,"changesets":250,"mappers":35,"roads":44.1763446725115,"buildings":2255,"edits":2516,"latest":"2018-05-22T13:24:52.000Z"},"geometry":{"type":"Point","coordinates":[18.386118626577,0.323834089601862]}},{"type":"Feature","properties":{"id":4550,"title":"2018 Ebola #12, South of Ingende, DRC","status":"ARCHIVED","created":"2018","lastUpdated":"2018","lastActive":"no","area":1463.595825961868,"changesets":157,"mappers":29,"roads":85.4011627306656,"buildings":1954,"edits":2135,"latest":"2018-05-19T09:30:56.000Z"},"geometry":{"type":"Point","coordinates":[18.7677302882419,-0.459362708279654]}},{"type":"Feature","properties":{"id":4581,"title":"2018 Ebola #28, North of Lake Mai-Ndombe, DRC","status":"ARCHIVED","created":"2018","lastUpdated":"2018","lastActive":"no","area":1790.5828286605806,"changesets":182,"mappers":60,"roads":84.3476608453994,"buildings":561,"edits":795,"latest":"2018-05-25T11:14:51.000Z"},"geometry":{"type":"Point","coordinates":[18.4157526431121,-1.43131260916133]}},{"type":"Feature","properties":{"id":4629,"title":"2018 Ebola #46, west of Kiri, DRC","status":"ARCHIVED","created":"2018","lastUpdated":"2018","lastActive":"no","area":11.260378892701459,"changesets":339,"mappers":47,"roads":8.91969579441992,"buildings":5296,"edits":5371,"latest":"2018-06-07T08:02:44.000Z"},"geometry":{"type":"Point","coordinates":[18.5380972044585,-1.43500248166916]}},{"type":"Feature","properties":{"id":4575,"title":"2018 Ebola #26, East of Itipo, DRC","status":"ARCHIVED","created":"2018","lastUpdated":"2018","lastActive":"no","area":3.570335237938049,"changesets":296,"mappers":47,"roads":74.5426339824222,"buildings":4031,"edits":4082,"latest":"2018-05-24T03:14:43.000Z"},"geometry":{"type":"Point","coordinates":[18.6799148931041,-0.849378204803166]}},{"type":"Feature","properties":{"id":4552,"title":"2018 Ebola #14, Ruki river to Ingende, DRC","status":"ARCHIVED","created":"2018","lastUpdated":"2018","lastActive":"no","area":1750.6684174589489,"changesets":177,"mappers":24,"roads":139.21483542089,"buildings":1870,"edits":2131,"latest":"2018-05-20T16:25:55.000Z"},"geometry":{"type":"Point","coordinates":[18.6918488065037,-0.167204266941964]}},{"type":"Feature","properties":{"id":4608,"title":"2018 Ebola #42, around Iboko, DRC","status":"ARCHIVED","created":"2018","lastUpdated":"2018","lastActive":"no","area":8.46464006943003,"changesets":523,"mappers":67,"roads":8.41276105593732,"buildings":12150,"edits":12333,"latest":"2018-05-31T15:49:44.000Z"},"geometry":{"type":"Point","coordinates":[18.5726655021791,-1.05884914759738]}},{"type":"Feature","properties":{"id":4506,"title":"2018 Ebola, Itipo surroundings, DRC","status":"ARCHIVED","created":"2018","lastUpdated":"2018","lastActive":"no","area":1407.0216203176126,"changesets":143,"mappers":22,"roads":114.79647306197,"buildings":506,"edits":650,"latest":"2018-05-10T17:56:17.000Z"},"geometry":{"type":"Point","coordinates":[18.6701159438654,-0.836325942226073]}},{"type":"Feature","properties":{"id":4543,"title":"2018 Ebola #10, Irebu, DRC","status":"ARCHIVED","created":"2018","lastUpdated":"2018","lastActive":"no","area":93.75149139241934,"changesets":185,"mappers":29,"roads":20.228517976925,"buildings":2033,"edits":2125,"latest":"2018-05-18T06:30:55.000Z"},"geometry":{"type":"Point","coordinates":[17.7985190306168,-0.60658220043042]}},{"type":"Feature","properties":{"id":5262,"title":"2018 Ebola, North of Lubero, Nord-Kivu, DRC","status":"PUBLISHED","created":"2018","lastUpdated":"2018","lastActive":"no","area":215.43178332972897,"changesets":189,"mappers":17,"roads":75.1865268106078,"buildings":3049,"edits":3440,"latest":"2018-12-22T11:01:23.000Z"},"geometry":{"type":"Point","coordinates":[29.24045545578,-0.034332073180003]}},{"type":"Feature","properties":{"id":2475,"title":"Burundi. Refugees in DRC, Lusenda, South-Kivu.","status":"ARCHIVED","created":"2017","lastUpdated":"2017","lastActive":"no","area":1.6232618970478532,"changesets":114,"mappers":9,"roads":103.444292370084,"buildings":6533,"edits":7943,"latest":"2017-02-08T08:59:56.000Z"},"geometry":{"type":"Point","coordinates":[29.0943346169064,-3.88545080764692]}},{"type":"Feature","properties":{"id":4958,"title":"Ebola2018, Beni, Nord-Kivu, DRC","status":"ARCHIVED","created":"2018","lastUpdated":"2018","lastActive":"no","area":82.65651415308375,"changesets":2403,"mappers":190,"roads":327.340473766896,"buildings":43010,"edits":46339,"latest":"2018-08-24T18:11:36.000Z"},"geometry":{"type":"Point","coordinates":[29.459962322097,0.497868139306192]}},{"type":"Feature","properties":{"id":5307,"title":"DRC/Bundibugyo District Border Mapping","status":"PUBLISHED","created":"2018","lastUpdated":"2018","lastActive":"no","area":334.59591531698646,"changesets":654,"mappers":89,"roads":919.567844406328,"buildings":4541,"edits":8554,"latest":"2018-12-20T14:50:07.000Z"},"geometry":{"type":"Point","coordinates":[29.9023571310443,0.650051053822993]}},{"type":"Feature","properties":{"id":5485,"title":"2018 Ebola, Butembo, Nord-Kivu, DRC (part 1)","status":"ARCHIVED","created":"2018","lastUpdated":"2018","lastActive":"no","area":160.092650141117,"changesets":2405,"mappers":342,"roads":931.333477784562,"buildings":54701,"edits":64482,"latest":"2018-12-15T09:00:39.000Z"},"geometry":{"type":"Point","coordinates":[29.3418998608621,0.05623155827539]}},{"type":"Feature","properties":{"id":4523,"title":"Ebola #6 2018, Mbandaka (NO de Av. Revolution), RDC","status":"ARCHIVED","created":"2018","lastUpdated":"2018","lastActive":"no","area":8.703722637020713,"changesets":983,"mappers":70,"roads":59.2473575070839,"buildings":15949,"edits":16303,"latest":"2018-05-16T23:16:14.000Z"},"geometry":{"type":"Point","coordinates":[18.2547794540417,0.048372248656735]}},{"type":"Feature","properties":{"id":5160,"title":"2018 Ebola, North-West of Beni, Nord-Kivu, DRC","status":"ARCHIVED","created":"2018","lastUpdated":"2018","lastActive":"no","area":211.1809692726596,"changesets":178,"mappers":35,"roads":57.1272132871228,"buildings":879,"edits":1222,"latest":"2018-09-06T14:56:26.000Z"},"geometry":{"type":"Point","coordinates":[29.3062631770409,0.631593962576439]}},{"type":"Feature","properties":{"id":4505,"title":"2018 Ebola, Lukanga - Mpangi area, DRC","status":"ARCHIVED","created":"2018","lastUpdated":"2018","lastActive":"no","area":1584.9953765025734,"changesets":319,"mappers":38,"roads":225.46894714731,"buildings":657,"edits":979,"latest":"2018-05-11T14:03:04.000Z"},"geometry":{"type":"Point","coordinates":[18.3376275929732,-0.988373976365813]}},{"type":"Feature","properties":{"id":4784,"title":"2018 Ebola #58, Along the Congo river 2, DRC","status":"ARCHIVED","created":"2018","lastUpdated":"2018","lastActive":"no","area":2.096867339292593,"changesets":178,"mappers":22,"roads":0.586125615676571,"buildings":2654,"edits":2662,"latest":"2018-07-03T07:17:42.000Z"},"geometry":{"type":"Point","coordinates":[18.2155357232769,0.095667094655171]}},{"type":"Feature","properties":{"id":4947,"title":"2018 Ebola, Mangina, Nord-Kivu, DRC","status":"ARCHIVED","created":"2018","lastUpdated":"2018","lastActive":"no","area":177.96556480899602,"changesets":1199,"mappers":99,"roads":292.212861506913,"buildings":20046,"edits":21041,"latest":"2018-08-10T13:45:32.000Z"},"geometry":{"type":"Point","coordinates":[29.3091212818356,0.633273460405425]}},{"type":"Feature","properties":{"id":4782,"title":"2018 Ebola #56, South east of Mbandaka, DRC","status":"ARCHIVED","created":"2018","lastUpdated":"2018","lastActive":"no","area":6.283821755800421,"changesets":332,"mappers":24,"roads":7.10407595421281,"buildings":2908,"edits":2949,"latest":"2018-07-01T15:49:01.000Z"},"geometry":{"type":"Point","coordinates":[18.3784524045596,-0.085669870987342]}},{"type":"Feature","properties":{"id":2047,"title":"Missing Maps: Biyela, Kinshasa, Democratic Republic of Congo (Road networks and residential areas) part 1","status":"ARCHIVED","created":"2016","lastUpdated":"2016","lastActive":"no","area":71.74190917285709,"changesets":216,"mappers":31,"roads":383.786854341193,"buildings":1531,"edits":4918,"latest":"2016-08-16T19:49:28.000Z"},"geometry":{"type":"Point","coordinates":[15.3966088336376,-4.50641093738646]}},{"type":"Feature","properties":{"id":2045,"title":"Missing Maps: Kikimi, Kinshasa, Democratic Republic of Congo (Road networks and residential areas) part 1","status":"ARCHIVED","created":"2016","lastUpdated":"2016","lastActive":"no","area":112.87251192316259,"changesets":338,"mappers":51,"roads":558.480495887597,"buildings":526,"edits":3740,"latest":"2016-08-05T07:34:52.000Z"},"geometry":{"type":"Point","coordinates":[15.4851051892922,-4.5496481719706]}},{"type":"Feature","properties":{"id":3245,"title":"Missing Maps: Map South Kivu, Democratic Republic of Congo (Project 21: Roads and residential areas)","status":"ARCHIVED","created":"2017","lastUpdated":"2018","lastActive":"no","area":178.50731322970077,"changesets":104,"mappers":22,"roads":436.308277189034,"buildings":243,"edits":2239,"latest":"2017-08-30T08:16:46.000Z"},"geometry":{"type":"Point","coordinates":[28.6857113218868,-4.44742628736164]}},{"type":"Feature","properties":{"id":3268,"title":"Missing Maps: Map South Kivu, Democratic Republic of Congo (Project 23: Buildings)","status":"ARCHIVED","created":"2017","lastUpdated":"2018","lastActive":"no","area":110.119725914713,"changesets":261,"mappers":43,"roads":75.8566614788438,"buildings":9432,"edits":9949,"latest":"2017-08-01T06:32:39.000Z"},"geometry":{"type":"Point","coordinates":[29.0501030786814,-4.20005248704493]}},{"type":"Feature","properties":{"id":3360,"title":"Mama Nzenze and Kingabwa, Kinshasa, DRC","status":"PUBLISHED","created":"2017","lastUpdated":"2017","lastActive":"no","area":0.4940352502577961,"changesets":143,"mappers":30,"roads":0.690137581293766,"buildings":1411,"edits":1522,"latest":"2018-05-30T20:32:52.000Z"},"geometry":{"type":"Point","coordinates":[15.3528176623676,-4.3439753333598]}},{"type":"Feature","properties":{"id":427,"title":"#mapcongo Dubie","status":"ARCHIVED","created":"2014","lastUpdated":"2016","lastActive":"no","area":194.44330860236522,"changesets":0,"mappers":0,"roads":0,"buildings":0,"edits":0,"latest":null},"geometry":{"type":"Point","coordinates":[28.5357316319378,-8.58363427722878]}},{"type":"Feature","properties":{"id":3417,"title":"Missing Maps: South Kivu, Democratic Republic of Congo (Project 25: villages)","status":"ARCHIVED","created":"2017","lastUpdated":"2018","lastActive":"no","area":1558.964293104109,"changesets":140,"mappers":11,"roads":14.5120438174085,"buildings":850,"edits":1173,"latest":"2018-01-09T14:33:30.000Z"},"geometry":{"type":"Point","coordinates":[28.9940055821318,-4.27463922772565]}},{"type":"Feature","properties":{"id":4626,"title":"2018 Ebola #44, east of Iboko, DRC","status":"ARCHIVED","created":"2018","lastUpdated":"2018","lastActive":"no","area":8.746543897145571,"changesets":443,"mappers":58,"roads":56.4906910640961,"buildings":14475,"edits":14663,"latest":"2018-05-31T17:03:51.000Z"},"geometry":{"type":"Point","coordinates":[19.0778325910921,-0.944688082095729]}},{"type":"Feature","properties":{"id":3009,"title":"2017 Ebola outbreak in Bas-Uele, DRC - Likati town (proj. 5)","status":"ARCHIVED","created":"2017","lastUpdated":"2017","lastActive":"no","area":7.874478535442227,"changesets":462,"mappers":93,"roads":35.9356756736877,"buildings":8097,"edits":9021,"latest":"2017-06-05T12:09:09.000Z"},"geometry":{"type":"Point","coordinates":[23.8987274399544,3.36735424381593]}},{"type":"Feature","properties":{"id":118,"title":"RD Congo, Sud-Kivu,  Uvira  *** Cholera","status":"ARCHIVED","created":"2012","lastUpdated":"2018","lastActive":"no","area":379.32718130905545,"changesets":201,"mappers":10,"roads":168.243522729028,"buildings":39618,"edits":40622,"latest":"2018-09-30T22:48:20.000Z"},"geometry":{"type":"Point","coordinates":[29.1687491355679,-3.32303164234357]}},{"type":"Feature","properties":{"id":4485,"title":"Flooded Area Ruzizi (RDC)","status":"ARCHIVED","created":"2018","lastUpdated":"2018","lastActive":"no","area":251.22551930092104,"changesets":1051,"mappers":174,"roads":496.12952103037,"buildings":22558,"edits":25199,"latest":"2018-06-09T13:06:24.000Z"},"geometry":{"type":"Point","coordinates":[29.0666984715755,-2.94822608422047]}},{"type":"Feature","properties":{"id":4372,"title":"Missing Maps: Map Tchonka in South Kivu, Democratic Republic of Congo (Project 30)","status":"ARCHIVED","created":"2018","lastUpdated":"2018","lastActive":"no","area":81.95962619883498,"changesets":308,"mappers":62,"roads":24.6071783099488,"buildings":5282,"edits":5595,"latest":"2018-05-16T14:27:13.000Z"},"geometry":{"type":"Point","coordinates":[27.5396433192983,-2.32806750098613]}},{"type":"Feature","properties":{"id":4434,"title":"Missing Maps: Sleeping Sickness in Maniema DR Congo - Tunda","status":"PUBLISHED","created":"2018","lastUpdated":"2018","lastActive":"no","area":9995.56095616409,"changesets":271,"mappers":78,"roads":664.849059721887,"buildings":866,"edits":1647,"latest":"2018-12-19T20:09:40.000Z"},"geometry":{"type":"Point","coordinates":[25.1359241582198,-4.06649327064681]}},{"type":"Feature","properties":{"id":4472,"title":"Missing Maps: Sleeping Sickness in Maniema DR Congo - Samba","status":"PUBLISHED","created":"2018","lastUpdated":"2018","lastActive":"no","area":7333.222635221938,"changesets":515,"mappers":89,"roads":815.107037520284,"buildings":3598,"edits":4986,"latest":"2018-06-13T11:07:01.000Z"},"geometry":{"type":"Point","coordinates":[26.3230162671315,-4.72486851755082]}},{"type":"Feature","properties":{"id":1872,"title":"Mwenge villages (PLEASE DELETE)","status":"ARCHIVED","created":"2016","lastUpdated":"2016","lastActive":"no","area":7.061149210150951,"changesets":0,"mappers":0,"roads":0,"buildings":0,"edits":0,"latest":null},"geometry":{"type":"Point","coordinates":[28.6948060830029,-7.92843885221295]}},{"type":"Feature","properties":{"id":4697,"title":"Mapping for Ebola - Archiving this task - #OSM-DRC is responsible to coordinate these projects and zone already covered - please discuss with #OSM-DRC team on hot list","status":"ARCHIVED","created":"2018","lastUpdated":"2018","lastActive":"no","area":2644.394404002388,"changesets":4,"mappers":3,"roads":2.63084130743054,"buildings":11,"edits":44,"latest":"2018-06-16T17:48:28.000Z"},"geometry":{"type":"Point","coordinates":[18.7325363281888,-0.308788136006049]}},{"type":"Feature","properties":{"id":4726,"title":"Missing Maps: Map Nyangi in South Kivu, Democratic Republic of Congo (Project 33)","status":"ARCHIVED","created":"2018","lastUpdated":"2018","lastActive":"no","area":1.491036847033257,"changesets":461,"mappers":33,"roads":94.8855203345235,"buildings":3301,"edits":4361,"latest":"2018-07-27T13:19:05.000Z"},"geometry":{"type":"Point","coordinates":[28.8386186577951,-5.00259599539927]}},{"type":"Feature","properties":{"id":4031,"title":"Missing Maps: South Kivu, Democratic Republic of Congo (Project 28: health infrastructure)","status":"ARCHIVED","created":"2018","lastUpdated":"2018","lastActive":"no","area":1076.2855731489042,"changesets":0,"mappers":0,"roads":0,"buildings":0,"edits":0,"latest":null},"geometry":{"type":"Point","coordinates":[29.0239485884282,-4.30420426948689]}},{"type":"Feature","properties":{"id":4004,"title":"Missing Maps: Map South Kivu, Democratic Republic of Congo (Project 27: Buildings)","status":"PUBLISHED","created":"2018","lastUpdated":"2018","lastActive":"no","area":16.160413324668365,"changesets":257,"mappers":38,"roads":2.68791114943387,"buildings":3319,"edits":3443,"latest":"2018-03-19T20:42:12.000Z"},"geometry":{"type":"Point","coordinates":[29.1119074899896,-4.31563872317578]}},{"type":"Feature","properties":{"id":1248,"title":"Missing Maps: Map South Kivu, Democratic Republic of Congo (Task 9: Roads and residential areas )","status":"ARCHIVED","created":"2015","lastUpdated":"2016","lastActive":"no","area":908.7161892990985,"changesets":204,"mappers":19,"roads":523.693586677618,"buildings":835,"edits":3525,"latest":"2016-07-14T09:12:11.000Z"},"geometry":{"type":"Point","coordinates":[29.0172187095793,-4.10776798969038]}},{"type":"Feature","properties":{"id":1254,"title":"Missing Maps: Lubumbashi (south), Democratic Republic of Congo (DRC)","status":"ARCHIVED","created":"2015","lastUpdated":"2016","lastActive":"no","area":26.977163396060966,"changesets":4547,"mappers":357,"roads":23.3904344576414,"buildings":48304,"edits":49761,"latest":"2016-04-02T18:34:13.000Z"},"geometry":{"type":"Point","coordinates":[27.4812473472868,-11.7052159583224]}},{"type":"Feature","properties":{"id":1253,"title":"Missing Maps: Lubumbashi (east), Democratic Republic of Congo (DRC)","status":"ARCHIVED","created":"2015","lastUpdated":"2015","lastActive":"no","area":25.020057039327114,"changesets":2808,"mappers":102,"roads":44.7343995341555,"buildings":36615,"edits":39616,"latest":"2015-12-09T12:34:53.000Z"},"geometry":{"type":"Point","coordinates":[27.5486560069219,-11.6691256244952]}},{"type":"Feature","properties":{"id":1250,"title":"Missing Maps: Map South Kivu, DRC (Task 10: Roads and residential areas )","status":"ARCHIVED","created":"2015","lastUpdated":"2016","lastActive":"no","area":1496.666260168272,"changesets":489,"mappers":60,"roads":2506.26749026534,"buildings":1367,"edits":13634,"latest":"2016-12-03T15:53:25.000Z"},"geometry":{"type":"Point","coordinates":[28.7265796087089,-4.19327702640782]}},{"type":"Feature","properties":{"id":1251,"title":"Missing Maps: Map South Kivu, Democratic Republic of Congo (Task 11: Roads and residential areas )","status":"ARCHIVED","created":"2015","lastUpdated":"2017","lastActive":"no","area":496.70077096194547,"changesets":401,"mappers":54,"roads":369.454340890693,"buildings":1502,"edits":4049,"latest":"2016-07-25T16:05:19.000Z"},"geometry":{"type":"Point","coordinates":[28.9084142513084,-4.38111530526132]}},{"type":"Feature","properties":{"id":3420,"title":"Missing Maps: South Kivu, Democratic Republic of Congo (Project 26: points of interest)","status":"ARCHIVED","created":"2017","lastUpdated":"2018","lastActive":"no","area":23.957300445645476,"changesets":312,"mappers":19,"roads":100.972522896295,"buildings":239,"edits":1438,"latest":"2018-06-10T20:04:58.000Z"},"geometry":{"type":"Point","coordinates":[29.0542246290044,-4.29611076489607]}},{"type":"Feature","properties":{"id":1302,"title":"Missing Maps: Map South Kivu, Democratic Republic of Congo  (Task 14: Roads and residential areas )","status":"ARCHIVED","created":"2015","lastUpdated":"2016","lastActive":"no","area":233.05192036532696,"changesets":285,"mappers":35,"roads":192.394859295451,"buildings":1529,"edits":4777,"latest":"2016-02-02T20:55:44.000Z"},"geometry":{"type":"Point","coordinates":[29.1236711711411,-3.45110321154127]}},{"type":"Feature","properties":{"id":1925,"title":"PLEASE DELETE","status":"ARCHIVED","created":"2016","lastUpdated":"2016","lastActive":"no","area":578.7150994317658,"changesets":0,"mappers":0,"roads":0,"buildings":0,"edits":0,"latest":null},"geometry":{"type":"Point","coordinates":[28.8196874904399,-1.40752476578654]}},{"type":"Feature","properties":{"id":1301,"title":"Missing Maps: Map South Kivu, Democratic Republic of Congo  (Task 13: Roads and residential areas )","status":"ARCHIVED","created":"2015","lastUpdated":"2016","lastActive":"no","area":1123.6508460597738,"changesets":1447,"mappers":137,"roads":1712.66088457476,"buildings":4421,"edits":17056,"latest":"2016-02-24T20:42:05.000Z"},"geometry":{"type":"Point","coordinates":[29.1242886534188,-3.14782229383699]}},{"type":"Feature","properties":{"id":1775,"title":"Missing Maps: Idjwi Island, South Kivu, DRC - vaccination campaign (part 1)","status":"ARCHIVED","created":"2016","lastUpdated":"2016","lastActive":"no","area":31.193092806162223,"changesets":368,"mappers":27,"roads":60.9334684062391,"buildings":9218,"edits":9956,"latest":"2016-04-14T22:03:25.000Z"},"geometry":{"type":"Point","coordinates":[29.0820404188302,-2.01014268980854]}},{"type":"Feature","properties":{"id":1472,"title":"Missing Maps: Pweto, Katanga Province, Democratic Republic of Congo (DRC)","status":"ARCHIVED","created":"2016","lastUpdated":"2016","lastActive":"no","area":42.272187503530986,"changesets":1260,"mappers":50,"roads":503.360052042313,"buildings":14644,"edits":31647,"latest":"2016-03-19T12:16:13.000Z"},"geometry":{"type":"Point","coordinates":[28.9253574836638,-8.45973424601834]}},{"type":"Feature","properties":{"id":1779,"title":"Missing Maps: Idjwi Island, South Kivu, DRC - vaccination campaign (part 4)","status":"ARCHIVED","created":"2016","lastUpdated":"2016","lastActive":"no","area":27.118364764442557,"changesets":227,"mappers":59,"roads":11.2858027214691,"buildings":2430,"edits":2577,"latest":"2016-04-18T17:22:31.000Z"},"geometry":{"type":"Point","coordinates":[29.0790370707108,-2.02718092761899]}},