{"totalEdits":44466130,"totalBuildings":37025186,"totalRoads":933309.398847775,"mappersOnline":32,"totalTasksMapped":1765130,"totalMappers":151976,"totalProjects":4288,"Russia":[{"type":"Feature","properties":{"id":5089,"title":"Kabardino-Balkaria, RU - Road Alignment","status":"PUBLISHED","created":"2018","lastUpdated":"2018","lastActive":"no","area":23.622718462797803,"changesets":66,"mappers":1,"roads":24.6938510572666,"buildings":1330,"edits":2024,"latest":"2018-11-23T20:22:29.000Z"},"geometry":{"type":"Point","coordinates":[43.9811521507747,43.5359455756532]}},{"type":"Feature","properties":{"id":5081,"title":"Tambov, RU - Road Alignment","status":"PUBLISHED","created":"2018","lastUpdated":"2018","lastActive":"no","area":26.18715669406076,"changesets":2,"mappers":2,"roads":0.00403649833909725,"buildings":1,"edits":32,"latest":"2018-11-19T18:17:20.000Z"},"geometry":{"type":"Point","coordinates":[41.3729375849855,52.7601922019812]}},{"type":"Feature","properties":{"id":5109,"title":"Khantia-Mansia, RU - Road Alignment","status":"PUBLISHED","created":"2018","lastUpdated":"2018","lastActive":"no","area":30.253087893790546,"changesets":15,"mappers":1,"roads":4.51497994941806,"buildings":10,"edits":99,"latest":"2018-11-06T07:57:43.000Z"},"geometry":{"type":"Point","coordinates":[71.975901037221,61.2624729564418]}},{"type":"Feature","properties":{"id":5040,"title":"Tver, RU - Road Alignment","status":"PUBLISHED","created":"2018","lastUpdated":"2018","lastActive":"no","area":23.79800173254469,"changesets":30,"mappers":1,"roads":4.08514426550506,"buildings":13,"edits":377,"latest":"2018-11-06T18:49:45.000Z"},"geometry":{"type":"Point","coordinates":[34.6891817016017,56.9824041620985]}},{"type":"Feature","properties":{"id":5077,"title":"Ivanovo, RU - Road Alignment","status":"PUBLISHED","created":"2018","lastUpdated":"2018","lastActive":"no","area":13.702294049661324,"changesets":36,"mappers":1,"roads":1.82352967283976,"buildings":5,"edits":214,"latest":"2018-11-20T10:31:06.000Z"},"geometry":{"type":"Point","coordinates":[41.5762520611261,56.9819705148539]}},{"type":"Feature","properties":{"id":5046,"title":"Komi, RU - Road Alignment","status":"PUBLISHED","created":"2018","lastUpdated":"2018","lastActive":"no","area":14.971932687664575,"changesets":1,"mappers":1,"roads":0.00554685444333487,"buildings":0,"edits":3,"latest":"2018-10-09T20:34:56.000Z"},"geometry":{"type":"Point","coordinates":[54.8314035068119,63.1269365587441]}},{"type":"Feature","properties":{"id":5093,"title":"Stavropol, RU - Road Alignment","status":"PUBLISHED","created":"2018","lastUpdated":"2018","lastActive":"no","area":39.278249308473754,"changesets":9,"mappers":1,"roads":0.142855842145348,"buildings":0,"edits":56,"latest":"2018-11-01T06:46:47.000Z"},"geometry":{"type":"Point","coordinates":[42.9341936478082,44.7607848987624]}},{"type":"Feature","properties":{"id":5099,"title":"Samara, RU - Road Alignment","status":"PUBLISHED","created":"2018","lastUpdated":"2018","lastActive":"no","area":30.485075606543912,"changesets":154,"mappers":1,"roads":22.7766838309259,"buildings":611,"edits":2758,"latest":"2018-12-26T14:53:31.000Z"},"geometry":{"type":"Point","coordinates":[50.3445307565892,53.3708217054506]}},{"type":"Feature","properties":{"id":5034,"title":"Leningrad, RU - Road Alignment","status":"PUBLISHED","created":"2018","lastUpdated":"2018","lastActive":"no","area":23.54027298174626,"changesets":2,"mappers":1,"roads":0.0224792879778619,"buildings":0,"edits":6,"latest":"2018-10-28T21:26:36.000Z"},"geometry":{"type":"Point","coordinates":[30.839409774744,60.1248894787618]}},{"type":"Feature","properties":{"id":5101,"title":"Orenburg, RU - Road Alignment","status":"PUBLISHED","created":"2018","lastUpdated":"2018","lastActive":"no","area":62.971849944699215,"changesets":22,"mappers":1,"roads":3.45699288107569,"buildings":53,"edits":181,"latest":"2018-10-24T08:43:40.000Z"},"geometry":{"type":"Point","coordinates":[54.8065548783445,52.0610390047715]}},{"type":"Feature","properties":{"id":5091,"title":"Adygeya, RU - Road Alignment","status":"PUBLISHED","created":"2018","lastUpdated":"2018","lastActive":"no","area":3.5556777849193764,"changesets":13,"mappers":1,"roads":0.34216005800038,"buildings":2,"edits":224,"latest":"2018-10-29T19:34:26.000Z"},"geometry":{"type":"Point","coordinates":[39.6558268279716,44.8484239957608]}},{"type":"Feature","properties":{"id":5087,"title":"Ingushetia, RU - Road Alignment","status":"PUBLISHED","created":"2018","lastUpdated":"2018","lastActive":"no","area":5.5580742626089785,"changesets":2,"mappers":1,"roads":0.037670290924601,"buildings":0,"edits":14,"latest":"2018-10-30T15:42:37.000Z"},"geometry":{"type":"Point","coordinates":[44.9998103358445,43.2859058104622]}},{"type":"Feature","properties":{"id":5107,"title":"Omsk, RU - Road Alignment","status":"PUBLISHED","created":"2018","lastUpdated":"2018","lastActive":"no","area":18.92588387234162,"changesets":5,"mappers":1,"roads":0.0915746009074978,"buildings":0,"edits":23,"latest":"2018-10-24T15:05:46.000Z"},"geometry":{"type":"Point","coordinates":[73.1251378094216,55.4331855578523]}},{"type":"Feature","properties":{"id":5095,"title":"Ulianovsk, RU - Road Alignment","status":"PUBLISHED","created":"2018","lastUpdated":"2018","lastActive":"no","area":10.512720117766863,"changesets":13,"mappers":1,"roads":0.19515506828913,"buildings":0,"edits":78,"latest":"2018-11-01T07:42:38.000Z"},"geometry":{"type":"Point","coordinates":[48.0134617931904,53.772705368293]}},{"type":"Feature","properties":{"id":5038,"title":"Novgorod, RU - Road Alignment","status":"PUBLISHED","created":"2018","lastUpdated":"2018","lastActive":"no","area":10.46150373873454,"changesets":0,"mappers":0,"roads":0,"buildings":0,"edits":0,"latest":null},"geometry":{"type":"Point","coordinates":[31.9263050659094,58.2489414609353]}},{"type":"Feature","properties":{"id":5123,"title":"Magadan, RU - Road Alignment","status":"PUBLISHED","created":"2018","lastUpdated":"2018","lastActive":"no","area":5.034648396223297,"changesets":8,"mappers":2,"roads":0.100892516868918,"buildings":0,"edits":39,"latest":"2018-12-22T01:50:43.000Z"},"geometry":{"type":"Point","coordinates":[151.195448468034,60.5667867782767]}},{"type":"Feature","properties":{"id":5044,"title":"Arkhangelsk, RU - Road Alignment","status":"PUBLISHED","created":"2018","lastUpdated":"2018","lastActive":"no","area":12.606328751411732,"changesets":7,"mappers":1,"roads":0.839928983903169,"buildings":6,"edits":251,"latest":"2018-11-06T15:55:43.000Z"},"geometry":{"type":"Point","coordinates":[42.0930614019958,62.114544765511]}},{"type":"Feature","properties":{"id":5103,"title":"Perm, RU - Road Alignment","status":"PUBLISHED","created":"2018","lastUpdated":"2018","lastActive":"no","area":19.050963663499118,"changesets":36,"mappers":2,"roads":1.89355946602952,"buildings":10,"edits":284,"latest":"2018-10-17T18:01:41.000Z"},"geometry":{"type":"Point","coordinates":[55.8676360593071,57.9984261773804]}},{"type":"Feature","properties":{"id":5048,"title":"Bryansk, RU - Road Alignment","status":"PUBLISHED","created":"2018","lastUpdated":"2018","lastActive":"no","area":30.262723825140842,"changesets":8,"mappers":1,"roads":1.09229506192473,"buildings":1,"edits":39,"latest":"2018-10-28T12:49:03.000Z"},"geometry":{"type":"Point","coordinates":[33.4570235672206,53.0043322730238]}},{"type":"Feature","properties":{"id":5115,"title":"Krasnoyarsk, RU - Road Alignment","status":"PUBLISHED","created":"2018","lastUpdated":"2018","lastActive":"no","area":22.824888459707374,"changesets":78,"mappers":1,"roads":15.4802476295007,"buildings":108,"edits":630,"latest":"2018-10-20T05:40:12.000Z"},"geometry":{"type":"Point","coordinates":[93.4116099617817,57.0117959504218]}},{"type":"Feature","properties":{"id":5083,"title":"Saratov, RU - Road Alignment","status":"PUBLISHED","created":"2018","lastUpdated":"2018","lastActive":"no","area":32.40097117720466,"changesets":34,"mappers":1,"roads":0.77353210229752,"buildings":6,"edits":341,"latest":"2018-10-28T13:14:20.000Z"},"geometry":{"type":"Point","coordinates":[46.1811223773877,51.5916763633425]}},{"type":"Feature","properties":{"id":5079,"title":"Nizhny Novgorod, RU - Road Alignment","status":"PUBLISHED","created":"2018","lastUpdated":"2018","lastActive":"no","area":23.49516750453581,"changesets":37,"mappers":2,"roads":6.19314781133766,"buildings":0,"edits":61,"latest":"2018-12-06T06:48:53.000Z"},"geometry":{"type":"Point","coordinates":[44.5683003348931,55.6787726091367]}},{"type":"Feature","properties":{"id":5104,"title":"Sverdlovsk, RU - Road Alignment","status":"PUBLISHED","created":"2018","lastUpdated":"2018","lastActive":"no","area":17.833303273592076,"changesets":82,"mappers":1,"roads":1.41269675484537,"buildings":18,"edits":539,"latest":"2018-10-04T16:03:26.000Z"},"geometry":{"type":"Point","coordinates":[60.7296830055128,57.3551621895813]}},{"type":"Feature","properties":{"id":5119,"title":"Sakha, RU - Road Alignment","status":"PUBLISHED","created":"2018","lastUpdated":"2018","lastActive":"no","area":33.426355275199285,"changesets":0,"mappers":0,"roads":0,"buildings":0,"edits":0,"latest":null},"geometry":{"type":"Point","coordinates":[124.725706215512,61.3401873829566]}},{"type":"Feature","properties":{"id":5045,"title":"Nenetsia, RU - Road Alignment","status":"PUBLISHED","created":"2018","lastUpdated":"2018","lastActive":"no","area":1.271696291426983,"changesets":7,"mappers":2,"roads":8.39223990109274,"buildings":130,"edits":410,"latest":"2018-11-05T20:55:39.000Z"},"geometry":{"type":"Point","coordinates":[56.0799294668555,67.3851766016729]}},{"type":"Feature","properties":{"id":5050,"title":"Moscow, RU - Road Alignment","status":"PUBLISHED","created":"2018","lastUpdated":"2018","lastActive":"yes","area":67.22729165523474,"changesets":792,"mappers":30,"roads":253.417834492145,"buildings":1691,"edits":10917,"latest":"2018-12-26T16:44:19.000Z"},"geometry":{"type":"Point","coordinates":[37.5334085802161,55.6984793925584]}},{"type":"Feature","properties":{"id":5041,"title":"Yaroslavl, RU - Road Alignment","status":"PUBLISHED","created":"2018","lastUpdated":"2018","lastActive":"no","area":4.819215675862653,"changesets":155,"mappers":2,"roads":3.05788891442386,"buildings":74,"edits":691,"latest":"2018-12-02T21:43:27.000Z"},"geometry":{"type":"Point","coordinates":[39.1443497130268,57.5982859823097]}},{"type":"Feature","properties":{"id":5047,"title":"Vologda, RU - Road Alignment","status":"PUBLISHED","created":"2018","lastUpdated":"2018","lastActive":"no","area":35.28516778928109,"changesets":0,"mappers":0,"roads":0,"buildings":0,"edits":0,"latest":null},"geometry":{"type":"Point","coordinates":[40.0393416965148,59.7751178689939]}},{"type":"Feature","properties":{"id":5071,"title":"Belgorad, RU - Road Alignment","status":"PUBLISHED","created":"2018","lastUpdated":"2018","lastActive":"no","area":38.115130732068074,"changesets":51,"mappers":1,"roads":20.7782732699154,"buildings":39,"edits":608,"latest":"2018-11-20T22:22:38.000Z"},"geometry":{"type":"Point","coordinates":[37.4150271811611,50.6657608441237]}},{"type":"Feature","properties":{"id":5114,"title":"Tuva, RU - Road Alignment","status":"PUBLISHED","created":"2018","lastUpdated":"2018","lastActive":"no","area":2.5382251706946253,"changesets":11,"mappers":1,"roads":0.699784508480752,"buildings":20,"edits":104,"latest":"2018-10-19T10:22:55.000Z"},"geometry":{"type":"Point","coordinates":[94.0463114123556,51.781508254766]}},{"type":"Feature","properties":{"id":5118,"title":"Amur, RU - Road Alignment","status":"PUBLISHED","created":"2018","lastUpdated":"2018","lastActive":"no","area":19.385680339287482,"changesets":7,"mappers":1,"roads":5.53178454751479,"buildings":28,"edits":99,"latest":"2018-10-17T10:54:27.000Z"},"geometry":{"type":"Point","coordinates":[127.669291747133,51.1636667407178]}},{"type":"Feature","properties":{"id":5120,"title":"JAO, RU - Road Alignment","status":"PUBLISHED","created":"2018","lastUpdated":"2018","lastActive":"no","area":5.488146548063193,"changesets":4,"mappers":1,"roads":0.0327054624556719,"buildings":1,"edits":20,"latest":"2018-10-24T16:47:52.000Z"},"geometry":{"type":"Point","coordinates":[132.011691687188,48.253714915435]}},{"type":"Feature","properties":{"id":5108,"title":"Novosibirsk, RU - Road Alignment","status":"PUBLISHED","created":"2018","lastUpdated":"2018","lastActive":"no","area":42.469762848735236,"changesets":173,"mappers":2,"roads":3.64613396752743,"buildings":69,"edits":670,"latest":"2018-12-11T02:56:30.000Z"},"geometry":{"type":"Point","coordinates":[80.3670447235961,54.8613031461299]}},{"type":"Feature","properties":{"id":5122,"title":"Khabarovsk, RU - Road Alignment","status":"PUBLISHED","created":"2018","lastUpdated":"2018","lastActive":"no","area":11.161541130978934,"changesets":42,"mappers":1,"roads":24.3213672545452,"buildings":19,"edits":928,"latest":"2018-11-12T19:15:17.000Z"},"geometry":{"type":"Point","coordinates":[138.396774935942,51.8199623333501]}},{"type":"Feature","properties":{"id":5106,"title":"Tyumen, RU - Road Alignment","status":"PUBLISHED","created":"2018","lastUpdated":"2018","lastActive":"no","area":29.90850085590972,"changesets":47,"mappers":1,"roads":2.73852519030308,"buildings":8,"edits":368,"latest":"2018-10-24T15:51:05.000Z"},"geometry":{"type":"Point","coordinates":[68.2637832952442,56.3385442704502]}},{"type":"Feature","properties":{"id":5035,"title":"St. Petersburg, RU - Road Alignment","status":"ARCHIVED","created":"2018","lastUpdated":"2018","lastActive":"no","area":8.561300785249289,"changesets":332,"mappers":1,"roads":19.7571350087767,"buildings":150,"edits":4218,"latest":"2018-11-24T13:02:54.000Z"},"geometry":{"type":"Point","coordinates":[30.23445185656,59.9410578806373]}},{"type":"Feature","properties":{"id":5116,"title":"Buryatia, RU - Road Alignment","status":"PUBLISHED","created":"2018","lastUpdated":"2018","lastActive":"no","area":11.921423464616145,"changesets":7,"mappers":2,"roads":3.08056904568076,"buildings":19,"edits":104,"latest":"2018-10-19T08:54:02.000Z"},"geometry":{"type":"Point","coordinates":[107.505299618937,51.7364622992778]}}],"totalArea":2403851639.567606,"South Sudan":[{"type":"Feature","properties":{"id":739,"title":"Please delete","status":"ARCHIVED","created":"2014","lastUpdated":"2014","lastActive":"no","area":12.914225555426375,"changesets":0,"mappers":0,"roads":0,"buildings":0,"edits":0,"latest":null},"geometry":{"type":"Point","coordinates":[30.0993478082551,8.37008784333707]}},{"type":"Feature","properties":{"id":413,"title":"South Sudan, Upper Nile State, Malakal - NextView-2 imagery December 6, 2013 ","status":"PUBLISHED","created":"2014","lastUpdated":"2018","lastActive":"no","area":64.61008475631807,"changesets":0,"mappers":0,"roads":0,"buildings":0,"edits":0,"latest":null},"geometry":{"type":"Point","coordinates":[31.6713348377633,9.52861821939096]}},{"type":"Feature","properties":{"id":2398,"title":"Missing Maps: Aweil, South Sudan (task 1 - residential areas and buildings)","status":"ARCHIVED","created":"2016","lastUpdated":"2017","lastActive":"no","area":4493.645841530328,"changesets":5907,"mappers":233,"roads":1321.2587035627,"buildings":79871,"edits":92205,"latest":"2017-03-30T16:25:33.000Z"},"geometry":{"type":"Point","coordinates":[27.1177721904317,9.02421630204959]}},{"type":"Feature","properties":{"id":2525,"title":"Missing Maps: Aweil, South Sudan (part 2f - residential areas and buildings)","status":"ARCHIVED","created":"2017","lastUpdated":"2017","lastActive":"no","area":1112.0526456975672,"changesets":4179,"mappers":232,"roads":775.041050787048,"buildings":29578,"edits":34918,"latest":"2017-05-07T12:03:33.000Z"},"geometry":{"type":"Point","coordinates":[27.8221864779065,8.67336502505294]}},{"type":"Feature","properties":{"id":5575,"title":"Missing Maps - South Sudan - Northern Bahr Al Ghazal - Awoda","status":"PUBLISHED","created":"2018","lastUpdated":"2018","lastActive":"no","area":33.509985245828815,"changesets":109,"mappers":22,"roads":6.27842279520641,"buildings":1023,"edits":1063,"latest":"2018-12-19T00:09:58.000Z"},"geometry":{"type":"Point","coordinates":[26.8498279618985,8.07882284693343]}},{"type":"Feature","properties":{"id":1053,"title":"Missing Maps: Unity State, South Sudan","status":"ARCHIVED","created":"2015","lastUpdated":"2016","lastActive":"no","area":4144.709681788291,"changesets":10863,"mappers":394,"roads":152.332126492281,"buildings":99327,"edits":101502,"latest":"2016-03-13T00:03:49.000Z"},"geometry":{"type":"Point","coordinates":[29.7397096863846,9.02773308106541]}},{"type":"Feature","properties":{"id":923,"title":"Missing Maps: Mayendit, South Sudan","status":"ARCHIVED","created":"2015","lastUpdated":"2015","lastActive":"no","area":94.77026614828948,"changesets":140,"mappers":19,"roads":128.956133007674,"buildings":1031,"edits":1667,"latest":"2015-11-29T10:39:33.000Z"},"geometry":{"type":"Point","coordinates":[30.009941046371,8.13535640063566]}},{"type":"Feature","properties":{"id":1121,"title":"Missing Maps: Doro Refugee Camp, South Sudan","status":"ARCHIVED","created":"2015","lastUpdated":"2015","lastActive":"no","area":14.597504404253819,"changesets":652,"mappers":39,"roads":168.43935951483,"buildings":13825,"edits":16657,"latest":"2015-08-26T07:46:49.000Z"},"geometry":{"type":"Point","coordinates":[33.7514403723396,9.98585097589678]}},{"type":"Feature","properties":{"id":938,"title":"Missing Maps: Mayendit region villages, South Sudan","status":"ARCHIVED","created":"2015","lastUpdated":"2016","lastActive":"no","area":200.2179534116658,"changesets":234,"mappers":21,"roads":181.5922188658,"buildings":2007,"edits":3172,"latest":"2015-04-02T11:28:55.000Z"},"geometry":{"type":"Point","coordinates":[30.1187961577049,8.70313198852207]}},{"type":"Feature","properties":{"id":993,"title":"Missing Maps: Unity State, South Sudan","status":"ARCHIVED","created":"2015","lastUpdated":"2016","lastActive":"no","area":35756.018784277345,"changesets":2206,"mappers":89,"roads":2736.37648426648,"buildings":2287,"edits":7013,"latest":"2017-03-24T17:58:32.000Z"},"geometry":{"type":"Point","coordinates":[29.8902868062992,8.94494995856625]}},{"type":"Feature","properties":{"id":1447,"title":"Missing Maps: Jonglei State, South Sudan","status":"PUBLISHED","created":"2016","lastUpdated":"2018","lastActive":"no","area":122992.20885615093,"changesets":2215,"mappers":187,"roads":2123.24096391498,"buildings":10238,"edits":14719,"latest":"2018-10-28T13:52:20.000Z"},"geometry":{"type":"Point","coordinates":[32.327645738219,7.37879285094136]}},{"type":"Feature","properties":{"id":1045,"title":"Rumbek - South Sudan - Loreto","status":"PUBLISHED","created":"2015","lastUpdated":"2018","lastActive":"no","area":118.08292629072737,"changesets":0,"mappers":0,"roads":0,"buildings":0,"edits":0,"latest":null},"geometry":{"type":"Point","coordinates":[29.6797304079093,6.8221895507938]}},{"type":"Feature","properties":{"id":1483,"title":"Missing Maps: Western Equatoria villages, South Sudan","status":"ARCHIVED","created":"2016","lastUpdated":"2016","lastActive":"no","area":9.853736209256303,"changesets":140,"mappers":30,"roads":49.2428717066786,"buildings":2089,"edits":2475,"latest":"2016-02-11T09:24:33.000Z"},"geometry":{"type":"Point","coordinates":[30.0527926807828,5.16657782642667]}},{"type":"Feature","properties":{"id":2653,"title":"Missing Maps: Aweil, South Sudan (part 1a - residential areas and buildings)","status":"ARCHIVED","created":"2017","lastUpdated":"2018","lastActive":"no","area":1001.3480916646093,"changesets":3386,"mappers":161,"roads":1325.1906320835,"buildings":111732,"edits":118713,"latest":"2018-03-03T23:17:41.000Z"},"geometry":{"type":"Point","coordinates":[27.1697621538292,9.28217352168864]}},{"type":"Feature","properties":{"id":715,"title":"Malnutrition and medical support, Leer, South Sudan","status":"ARCHIVED","created":"2014","lastUpdated":"2014","lastActive":"no","area":8.736893787202979,"changesets":0,"mappers":0,"roads":0,"buildings":0,"edits":0,"latest":null},"geometry":{"type":"Point","coordinates":[30.1399909166749,8.30128320688027]}},{"type":"Feature","properties":{"id":738,"title":"please delete","status":"ARCHIVED","created":"2014","lastUpdated":"2014","lastActive":"no","area":168.7694892743895,"changesets":0,"mappers":0,"roads":0,"buildings":0,"edits":0,"latest":null},"geometry":{"type":"Point","coordinates":[30.107529861913,8.39037000499958]}},{"type":"Feature","properties":{"id":3624,"title":"Missing Maps: Malakal, South Sudan (Buildings and roads)","status":"PUBLISHED","created":"2017","lastUpdated":"2018","lastActive":"no","area":722.7253359424985,"changesets":1766,"mappers":158,"roads":1195.7743673706,"buildings":16710,"edits":23822,"latest":"2018-12-03T11:41:03.000Z"},"geometry":{"type":"Point","coordinates":[31.8305434787959,9.68479232119759]}},{"type":"Feature","properties":{"id":2351,"title":"Humanitarian Contingency Planning.","status":"PUBLISHED","created":"2016","lastUpdated":"2017","lastActive":"no","area":97.390088646247,"changesets":78,"mappers":15,"roads":37.6352563041895,"buildings":462,"edits":1045,"latest":"2018-12-06T17:14:59.000Z"},"geometry":{"type":"Point","coordinates":[31.5812870236292,4.85521532217151]}},{"type":"Feature","properties":{"id":2393,"title":"Missing Maps: Aweil, South Sudan (task 1 - residential areas and buildings)","status":"ARCHIVED","created":"2016","lastUpdated":"2017","lastActive":"no","area":3717.3638408593797,"changesets":1557,"mappers":103,"roads":151.228972446187,"buildings":15661,"edits":17173,"latest":"2017-02-06T15:20:12.000Z"},"geometry":{"type":"Point","coordinates":[27.123702340495,9.03486280162733]}},{"type":"Feature","properties":{"id":2520,"title":"Missing Maps: Aweil, South Sudan (part 2a - residential areas and buildings)","status":"ARCHIVED","created":"2017","lastUpdated":"2018","lastActive":"no","area":982.1022110735039,"changesets":3939,"mappers":253,"roads":255.109450551959,"buildings":22161,"edits":24009,"latest":"2018-01-27T20:18:39.000Z"},"geometry":{"type":"Point","coordinates":[27.5766854725649,9.31490456620068]}},{"type":"Feature","properties":{"id":2522,"title":"Missing Maps: Aweil, South Sudan (part 2c - residential areas and buildings)","status":"ARCHIVED","created":"2017","lastUpdated":"2018","lastActive":"no","area":842.7910298095254,"changesets":4081,"mappers":340,"roads":151.621270814046,"buildings":36990,"edits":38482,"latest":"2017-05-20T17:28:41.000Z"},"geometry":{"type":"Point","coordinates":[27.6748979813156,9.05936442024307]}},{"type":"Feature","properties":{"id":2524,"title":"Missing Maps: Aweil, South Sudan (part 2e - residential areas and buildings)","status":"ARCHIVED","created":"2017","lastUpdated":"2018","lastActive":"no","area":987.211933749271,"changesets":3810,"mappers":224,"roads":262.336186170847,"buildings":25208,"edits":26720,"latest":"2017-05-14T02:11:51.000Z"},"geometry":{"type":"Point","coordinates":[27.8258349790104,8.84254089128961]}},{"type":"Feature","properties":{"id":2655,"title":"Missing Maps: Aweil, South Sudan (part 1c - residential areas and buildings)","status":"ARCHIVED","created":"2017","lastUpdated":"2018","lastActive":"no","area":1039.7978657088447,"changesets":2633,"mappers":270,"roads":1018.36982701006,"buildings":77149,"edits":85882,"latest":"2018-02-25T12:15:19.000Z"},"geometry":{"type":"Point","coordinates":[27.1092124577983,9.01420889243512]}},{"type":"Feature","properties":{"id":1049,"title":"Missing Maps: ACC, Unity State, South Sudan - Task 1","status":"ARCHIVED","created":"2015","lastUpdated":"2015","lastActive":"no","area":2116.899958643865,"changesets":0,"mappers":0,"roads":0,"buildings":0,"edits":0,"latest":null},"geometry":{"type":"Point","coordinates":[29.835547003451,9.00301969339811]}},{"type":"Feature","properties":{"id":1167,"title":"Boma, South Sudan","status":"ARCHIVED","created":"2015","lastUpdated":"2018","lastActive":"no","area":1598.3854223096148,"changesets":291,"mappers":26,"roads":1649.29771020989,"buildings":1281,"edits":2569,"latest":"2015-09-17T13:33:44.000Z"},"geometry":{"type":"Point","coordinates":[34.3678990490511,6.1722416024222]}}],"Tanzania":[{"type":"Feature","properties":{"id":4422,"title":"S. Monduli, Simanjiro, Tanzania Mini Grids - MapSwipe Project 01","status":"PUBLISHED","created":"2018","lastUpdated":"2018","lastActive":"no","area":918.2087603729018,"changesets":4703,"mappers":86,"roads":7.83174281046291,"buildings":50610,"edits":50723,"latest":"2018-05-11T06:32:20.000Z"},"geometry":{"type":"Point","coordinates":[36.6076107426083,-3.61838637677281]}},{"type":"Feature","properties":{"id":2049,"title":"MSD & JSI/USAID Tanzania Road Import - Shinyaga region","status":"PUBLISHED","created":"2016","lastUpdated":"2016","lastActive":"no","area":35039.611042625445,"changesets":268,"mappers":7,"roads":4897.99621570253,"buildings":77,"edits":6791,"latest":"2016-08-17T10:20:21.000Z"},"geometry":{"type":"Point","coordinates":[33.2883880100143,-3.4515869184952]}},{"type":"Feature","properties":{"id":5557,"title":"Lamaiti","status":"PUBLISHED","created":"2018","lastUpdated":"2018","lastActive":"no","area":326.2386225078726,"changesets":1,"mappers":1,"roads":0,"buildings":1,"edits":1,"latest":"2018-12-07T10:59:51.000Z"},"geometry":{"type":"Point","coordinates":[35.5037148641028,-5.76552887192817]}},{"type":"Feature","properties":{"id":5553,"title":"Ibihwa","status":"PUBLISHED","created":"2018","lastUpdated":"2018","lastActive":"no","area":209.9917674853979,"changesets":174,"mappers":15,"roads":0.00554910726118807,"buildings":374,"edits":380,"latest":"2018-11-23T11:23:13.000Z"},"geometry":{"type":"Point","coordinates":[35.4403328490389,-5.96240219007883]}},{"type":"Feature","properties":{"id":5532,"title":"Bahi_Pilot","status":"PUBLISHED","created":"2018","lastUpdated":"2018","lastActive":"no","area":332.82676510382277,"changesets":1,"mappers":1,"roads":159.338500420196,"buildings":0,"edits":2,"latest":"2018-11-22T18:13:15.000Z"},"geometry":{"type":"Point","coordinates":[35.8282202770526,-5.78331947358886]}},{"type":"Feature","properties":{"id":5549,"title":"Chibelela","status":"PUBLISHED","created":"2018","lastUpdated":"2018","lastActive":"no","area":116.30561855464316,"changesets":0,"mappers":0,"roads":0,"buildings":0,"edits":0,"latest":null},"geometry":{"type":"Point","coordinates":[35.677159098994,-6.39138296668424]}},{"type":"Feature","properties":{"id":5540,"title":"Mundemu_pilot","status":"PUBLISHED","created":"2018","lastUpdated":"2018","lastActive":"no","area":130.61456919995516,"changesets":0,"mappers":0,"roads":0,"buildings":0,"edits":0,"latest":null},"geometry":{"type":"Point","coordinates":[35.6606462889206,-5.92424987379376]}},{"type":"Feature","properties":{"id":5405,"title":"keko magurumbasi_METEOR","status":"PUBLISHED","created":"2018","lastUpdated":"2018","lastActive":"no","area":0.03630974064275755,"changesets":62,"mappers":8,"roads":0.307114787463726,"buildings":204,"edits":378,"latest":"2018-10-29T07:08:01.000Z"},"geometry":{"type":"Point","coordinates":[39.2738899567246,-6.83651914744131]}},{"type":"Feature","properties":{"id":5466,"title":"Makongo","status":"PUBLISHED","created":"2018","lastUpdated":"2018","lastActive":"no","area":18.298105774811496,"changesets":15,"mappers":7,"roads":0.686712931545164,"buildings":68,"edits":90,"latest":"2018-11-19T12:55:00.000Z"},"geometry":{"type":"Point","coordinates":[39.195804874665,-6.75981768277186]}},{"type":"Feature","properties":{"id":5395,"title":"Pwani 2_METEOR","status":"PUBLISHED","created":"2018","lastUpdated":"2018","lastActive":"no","area":0.3697493857621717,"changesets":0,"mappers":0,"roads":0,"buildings":0,"edits":0,"latest":null},"geometry":{"type":"Point","coordinates":[39.0994490443233,-6.90247043542125]}},{"type":"Feature","properties":{"id":4235,"title":"Tanzania Development Trust: Biharamulo Community Mapping Project","status":"ARCHIVED","created":"2018","lastUpdated":"2018","lastActive":"no","area":6.039818387380115,"changesets":765,"mappers":51,"roads":284.739876449328,"buildings":4189,"edits":5785,"latest":"2018-06-24T19:09:43.000Z"},"geometry":{"type":"Point","coordinates":[31.311664443878,-2.63422509905993]}},{"type":"Feature","properties":{"id":2261,"title":"Tanzania Development Trust: Serengeti district mapping project part 2","status":"PUBLISHED","created":"2016","lastUpdated":"2018","lastActive":"no","area":11207.631576365555,"changesets":34033,"mappers":1632,"roads":29673.050656943,"buildings":605343,"edits":921722,"latest":"2018-12-21T19:10:20.000Z"},"geometry":{"type":"Point","coordinates":[33.6631417496372,-1.71314326443619]}},{"type":"Feature","properties":{"id":4210,"title":"Tanzania Development Trust: Rubya Muleba Community Mapping Project","status":"ARCHIVED","created":"2018","lastUpdated":"2018","lastActive":"no","area":3.8004410986879655,"changesets":883,"mappers":30,"roads":76.7339517069804,"buildings":1681,"edits":2914,"latest":"2018-03-04T15:40:41.000Z"},"geometry":{"type":"Point","coordinates":[31.6199206128424,-1.75212343213756]}},{"type":"Feature","properties":{"id":5441,"title":"Kinondoni","status":"PUBLISHED","created":"2018","lastUpdated":"2018","lastActive":"no","area":1.9111633153129555,"changesets":723,"mappers":19,"roads":0.51286613158573,"buildings":5979,"edits":6448,"latest":"2018-11-09T12:51:55.000Z"},"geometry":{"type":"Point","coordinates":[39.270133890838,-6.78485592342873]}},{"type":"Feature","properties":{"id":5422,"title":"Tanzania Mbinga Test","status":"ARCHIVED","created":"2018","lastUpdated":"2018","lastActive":"no","area":0.09678392301278596,"changesets":0,"mappers":0,"roads":0,"buildings":0,"edits":0,"latest":null},"geometry":{"type":"Point","coordinates":[35.0530360761986,-10.9293321539577]}},{"type":"Feature","properties":{"id":5389,"title":"Karakata_METEOR","status":"PUBLISHED","created":"2018","lastUpdated":"2018","lastActive":"no","area":0.06278618638144412,"changesets":169,"mappers":16,"roads":0.00354592966511319,"buildings":653,"edits":657,"latest":"2018-10-29T08:18:50.000Z"},"geometry":{"type":"Point","coordinates":[39.2067495928809,-6.8487382427679]}},{"type":"Feature","properties":{"id":5518,"title":"Majaribio","status":"PUBLISHED","created":"2018","lastUpdated":"2018","lastActive":"no","area":4.830280472666473,"changesets":38,"mappers":2,"roads":0,"buildings":863,"edits":863,"latest":"2018-11-21T09:46:22.000Z"},"geometry":{"type":"Point","coordinates":[38.4798327296194,-10.3722929709165]}},{"type":"Feature","properties":{"id":5391,"title":"Kivule_METEOR","status":"PUBLISHED","created":"2018","lastUpdated":"2018","lastActive":"no","area":0.5583741907798839,"changesets":105,"mappers":10,"roads":1.83379910834756,"buildings":757,"edits":834,"latest":"2018-10-31T08:17:39.000Z"},"geometry":{"type":"Point","coordinates":[39.169724511382,-6.9352240012431]}},{"type":"Feature","properties":{"id":5223,"title":"Upanga magharibi 2","status":"PUBLISHED","created":"2018","lastUpdated":"2018","lastActive":"no","area":1.9683936895380227,"changesets":244,"mappers":21,"roads":0.182942871925768,"buildings":1988,"edits":2138,"latest":"2018-10-30T14:15:45.000Z"},"geometry":{"type":"Point","coordinates":[39.2743824403815,-6.80448984469261]}},{"type":"Feature","properties":{"id":3352,"title":"Missing Maps: Dar es Salaam - Ramani Huria 2.0 - 07","status":"ARCHIVED","created":"2017","lastUpdated":"2017","lastActive":"no","area":43.602163515930684,"changesets":1015,"mappers":62,"roads":384.282174733634,"buildings":221,"edits":8861,"latest":"2017-08-04T07:19:27.000Z"},"geometry":{"type":"Point","coordinates":[39.1225445864321,-6.72392047199685]}},{"type":"Feature","properties":{"id":5318,"title":"Tandale","status":"PUBLISHED","created":"2018","lastUpdated":"2018","lastActive":"no","area":1.1670695349839497,"changesets":675,"mappers":19,"roads":1.999609349464,"buildings":5503,"edits":7596,"latest":"2018-10-22T11:33:48.000Z"},"geometry":{"type":"Point","coordinates":[39.2424390073453,-6.79411458257302]}},{"type":"Feature","properties":{"id":5551,"title":"Chipanga","status":"PUBLISHED","created":"2018","lastUpdated":"2018","lastActive":"no","area":198.24189193587776,"changesets":0,"mappers":0,"roads":0,"buildings":0,"edits":0,"latest":null},"geometry":{"type":"Point","coordinates":[35.3809548797818,-6.2699217899786]}},{"type":"Feature","properties":{"id":2989,"title":"Tanzania Development Trust: Kulimi district community mapping project ","status":"ARCHIVED","created":"2017","lastUpdated":"2018","lastActive":"no","area":784.6955092821192,"changesets":3119,"mappers":217,"roads":4374.97116450954,"buildings":43569,"edits":81648,"latest":"2018-06-24T13:27:51.000Z"},"geometry":{"type":"Point","coordinates":[33.5876973557944,-3.17822476086651]}},{"type":"Feature","properties":{"id":5534,"title":"Nondwa","status":"PUBLISHED","created":"2018","lastUpdated":"2018","lastActive":"no","area":1008.4644905302546,"changesets":187,"mappers":17,"roads":0.00247989935987292,"buildings":670,"edits":674,"latest":"2018-11-23T12:38:29.000Z"},"geometry":{"type":"Point","coordinates":[35.326350963294,-6.53971625781216]}},{"type":"Feature","properties":{"id":3430,"title":"Tanzania Development Trust: Kamachumu Community Mapping Project","status":"ARCHIVED","created":"2017","lastUpdated":"2018","lastActive":"no","area":46.24964449397239,"changesets":1628,"mappers":108,"roads":714.34611932829,"buildings":7600,"edits":26515,"latest":"2018-06-19T13:57:44.000Z"},"geometry":{"type":"Point","coordinates":[31.6206229724663,-1.60520444319064]}},{"type":"Feature","properties":{"id":5559,"title":"Mpalanga","status":"PUBLISHED","created":"2018","lastUpdated":"2018","lastActive":"no","area":169.7571439071226,"changesets":1,"mappers":1,"roads":0,"buildings":7,"edits":7,"latest":"2018-11-28T20:07:01.000Z"},"geometry":{"type":"Point","coordinates":[35.4848551883275,-6.2923504082537]}},{"type":"Feature","properties":{"id":5397,"title":"TPDC_METEOR","status":"PUBLISHED","created":"2018","lastUpdated":"2018","lastActive":"no","area":0.11797338733636886,"changesets":94,"mappers":18,"roads":0.266615772031029,"buildings":517,"edits":536,"latest":"2018-11-01T12:33:09.000Z"},"geometry":{"type":"Point","coordinates":[39.2441458818339,-6.76148596392833]}},{"type":"Feature","properties":{"id":4283,"title":"Tanzania Development Trust: Kashenge Community Mapping Project","status":"ARCHIVED","created":"2018","lastUpdated":"2018","lastActive":"no","area":16.271801267146635,"changesets":316,"mappers":27,"roads":117.504567662701,"buildings":856,"edits":1867,"latest":"2018-05-01T11:36:25.000Z"},"geometry":{"type":"Point","coordinates":[31.65773305698,-1.69517523871843]}},{"type":"Feature","properties":{"id":5202,"title":"Mbagala","status":"PUBLISHED","created":"2018","lastUpdated":"2018","lastActive":"no","area":3.357497597645662,"changesets":614,"mappers":22,"roads":0.550372073861051,"buildings":3452,"edits":3769,"latest":"2018-10-23T14:01:26.000Z"},"geometry":{"type":"Point","coordinates":[39.2642484046761,-6.89854569609534]}},{"type":"Feature","properties":{"id":2343,"title":"Tanzania Development Trust - Shinyanga District","status":"ARCHIVED","created":"2016","lastUpdated":"2017","lastActive":"no","area":3427.959635629754,"changesets":242,"mappers":17,"roads":361.927248485148,"buildings":10209,"edits":12652,"latest":"2017-03-03T22:08:46.000Z"},"geometry":{"type":"Point","coordinates":[33.4638429794363,-3.57935372837378]}},{"type":"Feature","properties":{"id":2138,"title":"MSD & JSI/USAID Tanzania Road Import - Mwanza region","status":"PUBLISHED","created":"2016","lastUpdated":"2017","lastActive":"no","area":18452.858077930265,"changesets":149,"mappers":15,"roads":3770.57157796073,"buildings":105,"edits":5447,"latest":"2016-11-14T12:29:58.000Z"},"geometry":{"type":"Point","coordinates":[32.8094293934558,-2.76285550770699]}},{"type":"Feature","properties":{"id":4258,"title":"Lindi_minigrids","status":"ARCHIVED","created":"2018","lastUpdated":"2018","lastActive":"no","area":399.008958691099,"changesets":0,"mappers":0,"roads":0,"buildings":0,"edits":0,"latest":null},"geometry":{"type":"Point","coordinates":[39.206344562057,-10.7886215078052]}},{"type":"Feature","properties":{"id":2177,"title":"Earthquake in Uganda and Tanzania, 10/09/2016 - SE of Epicenter Buildings Mapping","status":"ARCHIVED","created":"2016","lastUpdated":"2016","lastActive":"no","area":40.23315767364361,"changesets":615,"mappers":44,"roads":80.1324630799427,"buildings":4510,"edits":6507,"latest":"2016-09-29T09:44:41.000Z"},"geometry":{"type":"Point","coordinates":[31.6705138437158,-1.26898587395043]}},{"type":"Feature","properties":{"id":5215,"title":"Ndugumbi","status":"PUBLISHED","created":"2018","lastUpdated":"2018","lastActive":"no","area":1.3231030262596133,"changesets":840,"mappers":18,"roads":9.43928187389174,"buildings":5114,"edits":6358,"latest":"2018-11-08T09:45:15.000Z"},"geometry":{"type":"Point","coordinates":[39.2482813559023,-6.80125797617356]}},{"type":"Feature","properties":{"id":3177,"title":"Tanzania Development Trust: Simiyu district mapping project part 1 - Updated Imagery","status":"PUBLISHED","created":"2017","lastUpdated":"2018","lastActive":"no","area":1361.7036746910928,"changesets":3403,"mappers":231,"roads":2532.63772099731,"buildings":54092,"edits":74404,"latest":"2018-08-03T08:31:49.000Z"},"geometry":{"type":"Point","coordinates":[34.2552244698097,-2.5523894645034]}},{"type":"Feature","properties":{"id":5587,"title":"Tanzania missing buildings Babati Urban District","status":"PUBLISHED","created":"2018","lastUpdated":"2018","lastActive":"yes","area":325.6568772393911,"changesets":352,"mappers":51,"roads":31.395357636901,"buildings":2441,"edits":2707,"latest":"2018-12-26T20:26:33.000Z"},"geometry":{"type":"Point","coordinates":[35.7408340563966,-4.19602650417695]}},{"type":"Feature","properties":{"id":4368,"title":"Tanzania Development Trust: Morogoro Community Mapping Project","status":"ARCHIVED","created":"2018","lastUpdated":"2018","lastActive":"no","area":6.725652855463129,"changesets":1281,"mappers":89,"roads":81.8895955188457,"buildings":19328,"edits":20942,"latest":"2018-07-08T14:32:19.000Z"},"geometry":{"type":"Point","coordinates":[37.6521283051778,-6.82130428335325]}},{"type":"Feature","properties":{"id":4336,"title":"Tanzania Development Trust: Mingoyo Community Mapping Project","status":"ARCHIVED","created":"2018","lastUpdated":"2018","lastActive":"no","area":6.093244915676354,"changesets":452,"mappers":71,"roads":108.978266720093,"buildings":3373,"edits":5105,"latest":"2018-03-25T17:50:56.000Z"},"geometry":{"type":"Point","coordinates":[39.6150235515117,-10.1073176624119]}},{"type":"Feature","properties":{"id":4334,"title":"Tanzania Development Trust: Ihemi Iringa Community Mapping Project","status":"ARCHIVED","created":"2018","lastUpdated":"2018","lastActive":"no","area":17.979652120471023,"changesets":138,"mappers":17,"roads":162.956597880068,"buildings":1531,"edits":2481,"latest":"2018-03-20T18:15:43.000Z"},"geometry":{"type":"Point","coordinates":[35.5059379677161,-8.01149565167227]}},{"type":"Feature","properties":{"id":4440,"title":"Tanzania Development Trust: Kihurio Community Mapping Project","status":"ARCHIVED","created":"2018","lastUpdated":"2018","lastActive":"no","area":25.149218397883203,"changesets":424,"mappers":67,"roads":255.735874916018,"buildings":3520,"edits":4623,"latest":"2018-04-21T23:10:25.000Z"},"geometry":{"type":"Point","coordinates":[38.0710346364441,-4.47694510234758]}},{"type":"Feature","properties":{"id":4324,"title":"Tanzania Development Trust: Nyakaiga Karagwe Community Mapping Project","status":"ARCHIVED","created":"2018","lastUpdated":"2018","lastActive":"no","area":12.111231176337705,"changesets":103,"mappers":12,"roads":99.5600341898669,"buildings":1190,"edits":1678,"latest":"2018-03-18T16:20:36.000Z"},"geometry":{"type":"Point","coordinates":[30.9630721040928,-1.72913994836662]}},{"type":"Feature","properties":{"id":4405,"title":"Tanzania Development Trust: Rushwa Community Mapping Project","status":"ARCHIVED","created":"2018","lastUpdated":"2018","lastActive":"no","area":28.44762453258442,"changesets":298,"mappers":40,"roads":300.470888123495,"buildings":1582,"edits":3500,"latest":"2018-04-12T05:58:16.000Z"},"geometry":{"type":"Point","coordinates":[31.4939209647812,-1.78766119268283]}},{"type":"Feature","properties":{"id":4326,"title":"Tanzania Development Trust: Chamchuzi Karagwe Community Mapping Project","status":"ARCHIVED","created":"2018","lastUpdated":"2018","lastActive":"no","area":14.620352225319428,"changesets":96,"mappers":13,"roads":118.753544967722,"buildings":625,"edits":1031,"latest":"2018-03-18T21:53:31.000Z"},"geometry":{"type":"Point","coordinates":[30.8657918691606,-1.79784583007795]}},{"type":"Feature","properties":{"id":4710,"title":"Tanzania Development Trust: Rubale Community Mapping Project","status":"ARCHIVED","created":"2018","lastUpdated":"2018","lastActive":"no","area":2.8694421907196968,"changesets":223,"mappers":15,"roads":47.6921069447722,"buildings":1026,"edits":1672,"latest":"2018-06-10T20:40:39.000Z"},"geometry":{"type":"Point","coordinates":[31.5198154824657,-1.60317363606181]}},{"type":"Feature","properties":{"id":4294,"title":"Tanzania Development Trust: Mubunda Muleba Community Mapping Project","status":"ARCHIVED","created":"2018","lastUpdated":"2018","lastActive":"no","area":7.587230914571072,"changesets":306,"mappers":43,"roads":177.651635751973,"buildings":1516,"edits":2786,"latest":"2018-03-16T04:45:19.000Z"},"geometry":{"type":"Point","coordinates":[31.5148740880789,-1.94608709963417]}},{"type":"Feature","properties":{"id":4282,"title":"Tanzania Development Trust: Kamishango Community Mapping Project","status":"ARCHIVED","created":"2018","lastUpdated":"2018","lastActive":"no","area":9.427409216356606,"changesets":237,"mappers":26,"roads":63.4951655647916,"buildings":946,"edits":1796,"latest":"2018-03-27T14:29:57.000Z"},"geometry":{"type":"Point","coordinates":[31.6140883568513,-1.8374625035104]}},{"type":"Feature","properties":{"id":4292,"title":"Tanzania Development Trust: Nyaishozi Karagwe Community Mapping Project","status":"ARCHIVED","created":"2018","lastUpdated":"2018","lastActive":"no","area":34.276689435879305,"changesets":399,"mappers":36,"roads":474.815969390101,"buildings":2973,"edits":4948,"latest":"2018-03-18T21:40:04.000Z"},"geometry":{"type":"Point","coordinates":[31.1192616184384,-1.74718623175017]}},{"type":"Feature","properties":{"id":4315,"title":"Tanzania Development Trust: Nshamba Community Mapping Project","status":"ARCHIVED","created":"2018","lastUpdated":"2018","lastActive":"no","area":20.728217465742752,"changesets":502,"mappers":54,"roads":258.414508170386,"buildings":5488,"edits":8174,"latest":"2018-03-18T15:53:19.000Z"},"geometry":{"type":"Point","coordinates":[31.5495323621043,-1.80167815244229]}},{"type":"Feature","properties":{"id":1971,"title":"MSD & JSI/USAID Tanzania Road Import - Arusha region","status":"PUBLISHED","created":"2016","lastUpdated":"2017","lastActive":"no","area":31245.987566415035,"changesets":35,"mappers":2,"roads":4684.0273299004,"buildings":2,"edits":2696,"latest":"2016-06-26T10:45:01.000Z"},"geometry":{"type":"Point","coordinates":[36.012472285039,-2.97438359363947]}},{"type":"Feature","properties":{"id":3459,"title":"Tanzania Development Trust: Nshamba Community Mapping Project","status":"ARCHIVED","created":"2017","lastUpdated":"2017","lastActive":"no","area":46.014908284249266,"changesets":1320,"mappers":99,"roads":645.897463633865,"buildings":7191,"edits":20283,"latest":"2017-09-08T21:24:18.000Z"},"geometry":{"type":"Point","coordinates":[31.5612210026871,-1.7322936400178]}},{"type":"Feature","properties":{"id":4892,"title":"Tanzania Development Trust:  Manyara FGM 1","status":"PUBLISHED","created":"2018","lastUpdated":"2018","lastActive":"no","area":2282.5577295654634,"changesets":3808,"mappers":258,"roads":2036.65879840723,"buildings":26583,"edits":32481,"latest":"2018-12-06T16:50:08.000Z"},"geometry":{"type":"Point","coordinates":[36.6759072253252,-5.56757567856636]}},{"type":"Feature","properties":{"id":1999,"title":"MSD & JSI/USAID Tanzania Road Import - Singida region","status":"PUBLISHED","created":"2016","lastUpdated":"2016","lastActive":"no","area":26074.754451063287,"changesets":89,"mappers":10,"roads":4051.32827761662,"buildings":1,"edits":3084,"latest":"2016-08-23T09:44:36.000Z"},"geometry":{"type":"Point","coordinates":[34.7271332055842,-5.31860124964008]}},{"type":"Feature","properties":{"id":5529,"title":"Tanzania missing buildings Simanjiro District","status":"PUBLISHED","created":"2018","lastUpdated":"2018","lastActive":"yes","area":1446.0821011615285,"changesets":4900,"mappers":349,"roads":357.072582073191,"buildings":33644,"edits":34614,"latest":"2018-12-26T21:04:16.000Z"},"geometry":{"type":"Point","coordinates":[36.977133550602,-4.08798441021924]}},{"type":"Feature","properties":{"id":3387,"title":"Missing Maps: Dar es Salaam - Ramani Huria 2.0 - 20","status":"PUBLISHED","created":"2017","lastUpdated":"2018","lastActive":"no","area":92.06647987703117,"changesets":1407,"mappers":57,"roads":12.7576761938866,"buildings":34483,"edits":36868,"latest":"2017-08-15T08:33:29.000Z"},"geometry":{"type":"Point","coordinates":[39.107002934666,-6.82229799377065]}},{"type":"Feature","properties":{"id":3331,"title":"Missing Maps: Dar es Salaam - Ramani Huria 2.0 - 01","status":"ARCHIVED","created":"2017","lastUpdated":"2017","lastActive":"no","area":21.198059977554916,"changesets":1016,"mappers":59,"roads":3.20397694021402,"buildings":11745,"edits":12359,"latest":"2017-09-13T06:44:46.000Z"},"geometry":{"type":"Point","coordinates":[39.1533126101187,-6.63201450487923]}},{"type":"Feature","properties":{"id":4477,"title":"S. Monduli, Simanjiro, Tanzania Mini Grids - MapSwipe Project 04 - 04","status":"PUBLISHED","created":"2018","lastUpdated":"2018","lastActive":"no","area":139.74141127398454,"changesets":352,"mappers":54,"roads":0,"buildings":4700,"edits":4700,"latest":"2018-05-04T08:40:26.000Z"},"geometry":{"type":"Point","coordinates":[37.9774679014572,-5.07008836053818]}},{"type":"Feature","properties":{"id":3203,"title":"Ikuna Ward Mapping Project","status":"PUBLISHED","created":"2017","lastUpdated":"2018","lastActive":"no","area":224.51296025612464,"changesets":335,"mappers":7,"roads":742.813559438957,"buildings":4401,"edits":9943,"latest":"2017-10-31T12:28:59.000Z"},"geometry":{"type":"Point","coordinates":[34.9321748000936,-9.19082600920363]}},{"type":"Feature","properties":{"id":1083,"title":"Missing Maps: Dar es Salaam","status":"ARCHIVED","created":"2015","lastUpdated":"2017","lastActive":"no","area":7.577120554805036,"changesets":2308,"mappers":166,"roads":94.9385096266719,"buildings":16146,"edits":18530,"latest":"2015-10-29T05:05:40.000Z"},"geometry":{"type":"Point","coordinates":[39.2601087511302,-6.87077348086572]}},{"type":"Feature","properties":{"id":1256,"title":"MSD & JSI/USAID Tanzania Road Import - West Ruvuma region","status":"PUBLISHED","created":"2015","lastUpdated":"2016","lastActive":"no","area":10512.14514732082,"changesets":39,"mappers":4,"roads":5476.97375385643,"buildings":7,"edits":9471,"latest":"2016-04-04T16:27:27.000Z"},"geometry":{"type":"Point","coordinates":[35.4090779040358,-10.7330492383707]}},{"type":"Feature","properties":{"id":4256,"title":"Manyara","status":"ARCHIVED","created":"2018","lastUpdated":"2018","lastActive":"no","area":63.093260840318564,"changesets":0,"mappers":0,"roads":0,"buildings":0,"edits":0,"latest":null},"geometry":{"type":"Point","coordinates":[35.3368133697752,-4.30430004427207]}},{"type":"Feature","properties":{"id":4720,"title":"Songea Rural, Ruvuma, Tanzania Mini Grids Project 06","status":"PUBLISHED","created":"2018","lastUpdated":"2018","lastActive":"no","area":2093.4548563322423,"changesets":1609,"mappers":64,"roads":0.38231113496823,"buildings":15223,"edits":15257,"latest":"2018-08-16T09:02:58.000Z"},"geometry":{"type":"Point","coordinates":[35.5405077869131,-11.013967365302]}},{"type":"Feature","properties":{"id":5539,"title":"mwitirika","status":"PUBLISHED","created":"2018","lastUpdated":"2018","lastActive":"no","area":310.08409917434227,"changesets":0,"mappers":0,"roads":0,"buildings":0,"edits":0,"latest":null},"geometry":{"type":"Point","coordinates":[35.6729879289732,-6.56534479236094]}},{"type":"Feature","properties":{"id":5541,"title":"Babayu","status":"PUBLISHED","created":"2018","lastUpdated":"2018","lastActive":"no","area":291.1572465623741,"changesets":0,"mappers":0,"roads":0,"buildings":0,"edits":0,"latest":null},"geometry":{"type":"Point","coordinates":[35.6844455201668,-5.68286034293222]}},{"type":"Feature","properties":{"id":5533,"title":"zanka_pilot","status":"PUBLISHED","created":"2018","lastUpdated":"2018","lastActive":"no","area":332.82676510382277,"changesets":110,"mappers":17,"roads":0.0208284000809371,"buildings":291,"edits":294,"latest":"2018-11-22T12:32:58.000Z"},"geometry":{"type":"Point","coordinates":[35.8282202770526,-5.78331947358886]}},{"type":"Feature","properties":{"id":5546,"title":"msisi_pilot","status":"PUBLISHED","created":"2018","lastUpdated":"2018","lastActive":"no","area":299.23019148117373,"changesets":0,"mappers":0,"roads":0,"buildings":0,"edits":0,"latest":null},"geometry":{"type":"Point","coordinates":[35.6507594031343,-5.81195430714583]}},{"type":"Feature","properties":{"id":5554,"title":"Ibugule","status":"PUBLISHED","created":"2018","lastUpdated":"2018","lastActive":"no","area":216.3150509902929,"changesets":0,"mappers":0,"roads":0,"buildings":0,"edits":0,"latest":null},"geometry":{"type":"Point","coordinates":[35.5318205113061,-6.39091426956685]}},{"type":"Feature","properties":{"id":5548,"title":"Chali","status":"PUBLISHED","created":"2018","lastUpdated":"2018","lastActive":"no","area":293.026474967643,"changesets":0,"mappers":0,"roads":0,"buildings":0,"edits":0,"latest":null},"geometry":{"type":"Point","coordinates":[35.2630727303968,-6.26212970964754]}},{"type":"Feature","properties":{"id":5544,"title":"mtitaa_pilot","status":"PUBLISHED","created":"2018","lastUpdated":"2018","lastActive":"no","area":184.51184663767475,"changesets":0,"mappers":0,"roads":0,"buildings":0,"edits":0,"latest":null},"geometry":{"type":"Point","coordinates":[35.544978622217,-6.47118101674341]}},{"type":"Feature","properties":{"id":4307,"title":"Tanzania Development Trust: Burungura Community Mapping Project","status":"ARCHIVED","created":"2018","lastUpdated":"2018","lastActive":"no","area":12.132811235880215,"changesets":422,"mappers":60,"roads":224.496584040424,"buildings":934,"edits":2752,"latest":"2018-03-15T22:38:18.000Z"},"geometry":{"type":"Point","coordinates":[31.4863826867625,-1.89364869788793]}},{"type":"Feature","properties":{"id":4281,"title":"Tanzania Development Trust: Muleba Community Mapping Project","status":"ARCHIVED","created":"2018","lastUpdated":"2018","lastActive":"no","area":7.595025994574089,"changesets":807,"mappers":46,"roads":152.380940730158,"buildings":3685,"edits":5608,"latest":"2018-03-14T04:07:41.000Z"},"geometry":{"type":"Point","coordinates":[31.6560461932452,-1.84575729647524]}},{"type":"Feature","properties":{"id":4325,"title":"Tanzania Development Trust: Kakuraijo Karagwe Community Mapping Project","status":"ARCHIVED","created":"2018","lastUpdated":"2018","lastActive":"no","area":26.03432942227103,"changesets":294,"mappers":21,"roads":200.728606871569,"buildings":2268,"edits":3280,"latest":"2018-03-19T17:29:04.000Z"},"geometry":{"type":"Point","coordinates":[30.9998529759753,-1.76362344469638]}},{"type":"Feature","properties":{"id":5550,"title":"Chikola","status":"PUBLISHED","created":"2018","lastUpdated":"2018","lastActive":"no","area":364.54472047107805,"changesets":0,"mappers":0,"roads":0,"buildings":0,"edits":0,"latest":null},"geometry":{"type":"Point","coordinates":[35.3432190143094,-6.13969848411729]}},{"type":"Feature","properties":{"id":5556,"title":"Kigwe","status":"PUBLISHED","created":"2018","lastUpdated":"2018","lastActive":"no","area":162.81242472936432,"changesets":1,"mappers":1,"roads":0,"buildings":2,"edits":2,"latest":"2018-12-06T16:28:42.000Z"},"geometry":{"type":"Point","coordinates":[35.5034119238305,-6.15149765637834]}},{"type":"Feature","properties":{"id":4404,"title":"Tanzania Development Trust: Kiyebe Community Mapping Project","status":"ARCHIVED","created":"2018","lastUpdated":"2018","lastActive":"no","area":14.54425632534702,"changesets":165,"mappers":25,"roads":179.882131248454,"buildings":904,"edits":2112,"latest":"2018-04-12T18:26:16.000Z"},"geometry":{"type":"Point","coordinates":[31.5213611368364,-2.01443774986169]}},{"type":"Feature","properties":{"id":4293,"title":"Tanzania Development Trust: Kibirizi Community Mapping Project","status":"ARCHIVED","created":"2018","lastUpdated":"2018","lastActive":"no","area":75.76463029779623,"changesets":932,"mappers":112,"roads":628.528332051034,"buildings":2461,"edits":8182,"latest":"2018-03-25T15:01:12.000Z"},"geometry":{"type":"Point","coordinates":[31.4031606875565,-1.63216015619948]}},{"type":"Feature","properties":{"id":4335,"title":"Tanzania Development Trust: Urambo Community Mapping Project","status":"ARCHIVED","created":"2018","lastUpdated":"2018","lastActive":"no","area":22.72434812488303,"changesets":539,"mappers":76,"roads":209.42903890829,"buildings":7236,"edits":9333,"latest":"2018-03-25T09:46:55.000Z"},"geometry":{"type":"Point","coordinates":[32.0763834649408,-5.08236418614099]}},{"type":"Feature","properties":{"id":5558,"title":"Makanda","status":"PUBLISHED","created":"2018","lastUpdated":"2018","lastActive":"no","area":303.7760037608982,"changesets":9,"mappers":3,"roads":0,"buildings":22,"edits":28,"latest":"2018-11-29T21:06:37.000Z"},"geometry":{"type":"Point","coordinates":[35.3810498816351,-5.746704775747]}},{"type":"Feature","properties":{"id":3903,"title":"PEPFAR TANZANIA: GEITA DC","status":"PUBLISHED","created":"2017","lastUpdated":"2018","lastActive":"no","area":4738.968040349855,"changesets":5705,"mappers":275,"roads":3185.90199833963,"buildings":61057,"edits":85259,"latest":"2018-11-18T06:22:39.000Z"},"geometry":{"type":"Point","coordinates":[32.1742010245843,-2.86754820690531]}},{"type":"Feature","properties":{"id":3968,"title":"Tanzania Development Trust: Mbozi district community mapping project","status":"PUBLISHED","created":"2017","lastUpdated":"2018","lastActive":"no","area":270.15833206747897,"changesets":2288,"mappers":250,"roads":2547.11002163609,"buildings":13884,"edits":37565,"latest":"2018-12-25T22:28:07.000Z"},"geometry":{"type":"Point","coordinates":[32.7810690177479,-9.02055139563406]}},{"type":"Feature","properties":{"id":4868,"title":"Kasuku Building Import Workflow Test (South))","status":"ARCHIVED","created":"2018","lastUpdated":"2018","lastActive":"no","area":1.6123125790816706,"changesets":18,"mappers":6,"roads":0.534707746129971,"buildings":276,"edits":281,"latest":"2018-10-09T23:04:15.000Z"},"geometry":{"type":"Point","coordinates":[29.741340447652,-4.90496095600047]}},{"type":"Feature","properties":{"id":4479,"title":"S. Monduli, Simanjiro, Tanzania Mini Grids - MapSwipe Project 04 - 02","status":"PUBLISHED","created":"2018","lastUpdated":"2018","lastActive":"no","area":131.2262807333246,"changesets":136,"mappers":50,"roads":0.000165500103078919,"buildings":1412,"edits":1414,"latest":"2018-05-04T09:36:27.000Z"},"geometry":{"type":"Point","coordinates":[37.1526786235933,-4.96896345542438]}},{"type":"Feature","properties":{"id":4489,"title":"Lindi, Lindi, Tanzania Mini Grids Project 03","status":"PUBLISHED","created":"2018","lastUpdated":"2018","lastActive":"no","area":1972.6554027241687,"changesets":1117,"mappers":68,"roads":0.712816430807669,"buildings":37574,"edits":37626,"latest":"2018-07-04T09:33:22.000Z"},"geometry":{"type":"Point","coordinates":[39.2489990334018,-10.1470862126786]}},{"type":"Feature","properties":{"id":4245,"title":"Tanzania Development Trust: Kome Island Community Mapping Project","status":"ARCHIVED","created":"2018","lastUpdated":"2018","lastActive":"no","area":385.79192833306934,"changesets":1556,"mappers":136,"roads":903.993377006293,"buildings":11792,"edits":17458,"latest":"2018-03-23T13:14:21.000Z"},"geometry":{"type":"Point","coordinates":[32.4921971949472,-2.32937991152019]}},{"type":"Feature","properties":{"id":4212,"title":"Tanzania Development Trust: Tunduma, Songwe Community Mapping Project","status":"ARCHIVED","created":"2018","lastUpdated":"2018","lastActive":"no","area":8.348830576332833,"changesets":1309,"mappers":102,"roads":131.172852446918,"buildings":16144,"edits":18573,"latest":"2018-04-16T10:35:52.000Z"},"geometry":{"type":"Point","coordinates":[32.7742526020665,-9.30855990968659]}},{"type":"Feature","properties":{"id":3410,"title":"Missing Maps: Dar es Salaam - Ramani Huria 2.0 - 24","status":"PUBLISHED","created":"2017","lastUpdated":"2018","lastActive":"no","area":178.71077034656207,"changesets":1325,"mappers":49,"roads":0.0922744730575409,"buildings":7624,"edits":7650,"latest":"2017-08-16T00:47:29.000Z"},"geometry":{"type":"Point","coordinates":[39.4916315242413,-6.96378121588068]}},{"type":"Feature","properties":{"id":5444,"title":"Kawe","status":"PUBLISHED","created":"2018","lastUpdated":"2018","lastActive":"no","area":14.787548318407664,"changesets":274,"mappers":20,"roads":0.443529945999423,"buildings":2289,"edits":2364,"latest":"2018-11-29T12:22:28.000Z"},"geometry":{"type":"Point","coordinates":[39.225268225533,-6.72642707641227]}},{"type":"Feature","properties":{"id":1543,"title":"Missing Maps: Dar es Salaam - Ramani Huria4","status":"ARCHIVED","created":"2016","lastUpdated":"2016","lastActive":"no","area":6.586859089516285,"changesets":1158,"mappers":78,"roads":650.511318632513,"buildings":20178,"edits":24608,"latest":"2016-09-01T08:17:43.000Z"},"geometry":{"type":"Point","coordinates":[39.281518958747,-6.90536076240958]}},{"type":"Feature","properties":{"id":3371,"title":"Missing Maps: Dar es Salaam - Ramani Huria 2.0 - 16","status":"ARCHIVED","created":"2017","lastUpdated":"2017","lastActive":"no","area":92.06647987703117,"changesets":643,"mappers":55,"roads":534.034385643581,"buildings":332,"edits":9986,"latest":"2017-08-17T13:11:30.000Z"},"geometry":{"type":"Point","coordinates":[39.107002934666,-6.82229799377065]}},{"type":"Feature","properties":{"id":5398,"title":"Ungindoni_METEOR","status":"PUBLISHED","created":"2018","lastUpdated":"2018","lastActive":"no","area":0.8096558160905647,"changesets":0,"mappers":0,"roads":0,"buildings":0,"edits":0,"latest":null},"geometry":{"type":"Point","coordinates":[39.3545451261367,-6.8745441047526]}},{"type":"Feature","properties":{"id":5132,"title":"Mbeya","status":"PUBLISHED","created":"2018","lastUpdated":"2018","lastActive":"no","area":32.205542095178586,"changesets":1096,"mappers":149,"roads":10.112548747506,"buildings":22237,"edits":23434,"latest":"2018-09-21T09:26:09.000Z"},"geometry":{"type":"Point","coordinates":[33.4905580602805,-8.88468840419366]}},{"type":"Feature","properties":{"id":5147,"title":"Buguruni","status":"PUBLISHED","created":"2018","lastUpdated":"2018","lastActive":"no","area":3.4752018850888398,"changesets":1320,"mappers":39,"roads":4.89305254742563,"buildings":15862,"edits":19963,"latest":"2018-09-11T11:11:16.000Z"},"geometry":{"type":"Point","coordinates":[39.2449507288679,-6.83166163112609]}},{"type":"Feature","properties":{"id":4234,"title":"Tanzania Development Trust: Sigunga Kigoma Community Mapping Project","status":"ARCHIVED","created":"2018","lastUpdated":"2018","lastActive":"no","area":818.7157786819456,"changesets":1881,"mappers":148,"roads":845.753785159552,"buildings":5279,"edits":10353,"latest":"2018-04-11T09:53:47.000Z"},"geometry":{"type":"Point","coordinates":[30.0041057178603,-5.67930749441936]}},{"type":"Feature","properties":{"id":3455,"title":"Missing Maps: Dar es Salaam - Ramani Huria 2.0 - 33","status":"PUBLISHED","created":"2017","lastUpdated":"2018","lastActive":"no","area":156.72153831900792,"changesets":2954,"mappers":102,"roads":579.977370621098,"buildings":21094,"edits":39085,"latest":"2017-10-29T15:21:56.000Z"},"geometry":{"type":"Point","coordinates":[39.1237350888545,-6.75759979671739]}},{"type":"Feature","properties":{"id":4211,"title":"Tanzania Development Trust: Kayanga Karagwe Community Mapping Project","status":"ARCHIVED","created":"2018","lastUpdated":"2018","lastActive":"no","area":9.817134429272661,"changesets":2030,"mappers":111,"roads":257.875156407586,"buildings":6739,"edits":9339,"latest":"2018-06-25T20:44:51.000Z"},"geometry":{"type":"Point","coordinates":[31.1517912801376,-1.53378723172487]}},{"type":"Feature","properties":{"id":4236,"title":"Tanzania Development Trust: Mitwero, Lindi Community Mapping Project","status":"ARCHIVED","created":"2018","lastUpdated":"2018","lastActive":"no","area":80.77775171781835,"changesets":528,"mappers":67,"roads":468.376805254013,"buildings":2230,"edits":4918,"latest":"2018-06-22T20:06:01.000Z"},"geometry":{"type":"Point","coordinates":[39.7342788001324,-9.91500147746219]}},{"type":"Feature","properties":{"id":3395,"title":"Missing Maps: Dar es Salaam - Ramani Huria 2.0 - 23","status":"PUBLISHED","created":"2017","lastUpdated":"2018","lastActive":"no","area":200.39044222285065,"changesets":11931,"mappers":207,"roads":6.40062292346281,"buildings":130739,"edits":132569,"latest":"2017-12-05T17:05:23.000Z"},"geometry":{"type":"Point","coordinates":[39.1952993835025,-6.91753429051324]}},{"type":"Feature","properties":{"id":3411,"title":"Missing Maps: Dar es Salaam - Ramani Huria 2.0 - 25","status":"PUBLISHED","created":"2017","lastUpdated":"2018","lastActive":"no","area":260.81879568766976,"changesets":1755,"mappers":99,"roads":3.25862217409201,"buildings":58641,"edits":59730,"latest":"2017-08-21T09:01:52.000Z"},"geometry":{"type":"Point","coordinates":[39.3808440193565,-6.94279344737865]}},{"type":"Feature","properties":{"id":3375,"title":"Missing Maps: Dar es Salaam - Ramani Huria 2.0 - 18","status":"ARCHIVED","created":"2017","lastUpdated":"2017","lastActive":"no","area":59.53047699316665,"changesets":1623,"mappers":52,"roads":478.223132686343,"buildings":690,"edits":12675,"latest":"2017-08-16T08:11:07.000Z"},"geometry":{"type":"Point","coordinates":[39.0524394635221,-6.77490751585555]}},{"type":"Feature","properties":{"id":3368,"title":"Missing Maps: Dar es Salaam - Ramani Huria 2.0 - 13","status":"ARCHIVED","created":"2017","lastUpdated":"2017","lastActive":"no","area":48.99161431195106,"changesets":4070,"mappers":170,"roads":18.9213194873194,"buildings":32771,"edits":34946,"latest":"2018-03-05T14:07:36.000Z"},"geometry":{"type":"Point","coordinates":[39.1382076039561,-6.75845322372412]}},{"type":"Feature","properties":{"id":3333,"title":"Missing Maps: Dar es Salaam - Ramani Huria 2.0 - 03","status":"ARCHIVED","created":"2017","lastUpdated":"2017","lastActive":"no","area":26.68103348646749,"changesets":949,"mappers":63,"roads":5.59493262404743,"buildings":14795,"edits":15208,"latest":"2017-08-07T13:24:09.000Z"},"geometry":{"type":"Point","coordinates":[39.1885728048629,-6.68648803044929]}},{"type":"Feature","properties":{"id":4978,"title":"Tanzania Development Trust: Magata Karutonga  Community Mapping Project","status":"ARCHIVED","created":"2018","lastUpdated":"2018","lastActive":"no","area":34.0634342157299,"changesets":760,"mappers":56,"roads":433.264175834421,"buildings":3163,"edits":6211,"latest":"2018-08-19T16:59:22.000Z"},"geometry":{"type":"Point","coordinates":[31.6336096442559,-1.87369450984158]}},{"type":"Feature","properties":{"id":5174,"title":"Mbeya_Mbalizi","status":"PUBLISHED","created":"2018","lastUpdated":"2018","lastActive":"no","area":0.31206553705644136,"changesets":208,"mappers":40,"roads":1.60956563124592,"buildings":951,"edits":970,"latest":"2018-09-07T11:27:13.000Z"},"geometry":{"type":"Point","coordinates":[33.35435503872,-8.94534240301126]}},{"type":"Feature","properties":{"id":3372,"title":"Missing Maps: Dar es Salaam - Ramani Huria 2.0 - 17","status":"ARCHIVED","created":"2017","lastUpdated":"2017","lastActive":"no","area":69.65587897048133,"changesets":620,"mappers":59,"roads":326.07234769034,"buildings":735,"edits":5445,"latest":"2017-08-22T12:02:56.000Z"},"geometry":{"type":"Point","coordinates":[39.1283057323213,-6.89210398958084]}},{"type":"Feature","properties":{"id":5493,"title":"Tanzania missing buildings Kiteto District","status":"PUBLISHED","created":"2018","lastUpdated":"2018","lastActive":"no","area":1290.482831031305,"changesets":4945,"mappers":402,"roads":284.299512866384,"buildings":24585,"edits":26178,"latest":"2018-12-21T14:50:42.000Z"},"geometry":{"type":"Point","coordinates":[36.7472050387162,-5.46671531227146]}},{"type":"Feature","properties":{"id":5016,"title":"Kariakoo2","status":"PUBLISHED","created":"2018","lastUpdated":"2018","lastActive":"no","area":0.41684912948919983,"changesets":253,"mappers":36,"roads":0.0279580739560328,"buildings":1324,"edits":2341,"latest":"2018-10-03T16:17:27.000Z"},"geometry":{"type":"Point","coordinates":[39.2756281624855,-6.82026480265793]}},{"type":"Feature","properties":{"id":4801,"title":"Priority Villages, Ruvuma Region, Tanzania Mini Grids Project","status":"PUBLISHED","created":"2018","lastUpdated":"2018","lastActive":"no","area":491.345226887175,"changesets":662,"mappers":36,"roads":3.61080322618974,"buildings":27808,"edits":27829,"latest":"2018-08-23T09:25:41.000Z"},"geometry":{"type":"Point","coordinates":[35.4477861752995,-10.8248962516213]}},{"type":"Feature","properties":{"id":1904,"title":"Peace Corps Tanzania -- Mnavira","status":"ARCHIVED","created":"2016","lastUpdated":"2016","lastActive":"no","area":2.392296820488899,"changesets":67,"mappers":12,"roads":34.4734407565492,"buildings":1089,"edits":1629,"latest":"2016-07-19T15:50:21.000Z"},"geometry":{"type":"Point","coordinates":[39.2554909570247,-11.0739917532281]}},{"type":"Feature","properties":{"id":4852,"title":"Tanzania Development Trust: Morogoro Community Mapping Project","status":"PUBLISHED","created":"2018","lastUpdated":"2018","lastActive":"no","area":11.997049798456361,"changesets":737,"mappers":117,"roads":113.988219575311,"buildings":14602,"edits":16041,"latest":"2018-12-19T04:02:42.000Z"},"geometry":{"type":"Point","coordinates":[37.6844733023174,-6.81089355032121]}},{"type":"Feature","properties":{"id":4976,"title":"Ramani Huria and GreenWaste Colaboration","status":"PUBLISHED","created":"2018","lastUpdated":"2018","lastActive":"no","area":0.8606536928715187,"changesets":452,"mappers":12,"roads":0.303793935716114,"buildings":1699,"edits":2153,"latest":"2018-08-09T09:46:52.000Z"},"geometry":{"type":"Point","coordinates":[39.2825405412206,-6.82300659119486]}},{"type":"Feature","properties":{"id":4495,"title":"Lindi, Lindi, Tanzania Mini Grids Project 04","status":"PUBLISHED","created":"2018","lastUpdated":"2018","lastActive":"no","area":2400.161505147141,"changesets":1774,"mappers":65,"roads":3.81934683994176,"buildings":47301,"edits":47458,"latest":"2018-06-29T06:39:00.000Z"},"geometry":{"type":"Point","coordinates":[39.6414025297716,-10.1822589125545]}},{"type":"Feature","properties":{"id":4584,"title":"Tabora, Tabora, Tanzania Mini Grids Project 02","status":"PUBLISHED","created":"2018","lastUpdated":"2018","lastActive":"no","area":2042.6757607922066,"changesets":1784,"mappers":62,"roads":5.15594602627106,"buildings":37695,"edits":38500,"latest":"2018-06-20T13:55:11.000Z"},"geometry":{"type":"Point","coordinates":[33.388749292109,-4.83616487999496]}},{"type":"Feature","properties":{"id":4955,"title":"Msigani, Dar es Salaam - Ramani Huria 2.0","status":"PUBLISHED","created":"2018","lastUpdated":"2018","lastActive":"no","area":14.732300581422955,"changesets":75,"mappers":19,"roads":0.408947956373816,"buildings":768,"edits":791,"latest":"2018-08-31T08:18:28.000Z"},"geometry":{"type":"Point","coordinates":[39.1166689708451,-6.80285279520175]}},{"type":"Feature","properties":{"id":4569,"title":"Kasulu, Kasulu, Tanzania Mini Grids Project 02","status":"PUBLISHED","created":"2018","lastUpdated":"2018","lastActive":"no","area":1983.2479906601172,"changesets":1354,"mappers":62,"roads":1.61439788714098,"buildings":46289,"edits":46619,"latest":"2018-06-20T13:13:28.000Z"},"geometry":{"type":"Point","coordinates":[30.212024270479,-4.1763726716107]}},{"type":"Feature","properties":{"id":3366,"title":"Missing Maps: Dar es Salaam - Ramani Huria 2.0 - 11","status":"ARCHIVED","created":"2017","lastUpdated":"2017","lastActive":"no","area":46.40941299737609,"changesets":744,"mappers":52,"roads":1.45858369529433,"buildings":4756,"edits":5152,"latest":"2017-08-01T12:47:45.000Z"},"geometry":{"type":"Point","coordinates":[39.0957516639887,-6.69596825590191]}},{"type":"Feature","properties":{"id":3370,"title":"Missing Maps: Dar es Salaam - Ramani Huria 2.0 - 15","status":"ARCHIVED","created":"2017","lastUpdated":"2017","lastActive":"no","area":63.29172462574548,"changesets":1134,"mappers":57,"roads":8.02147770662194,"buildings":19173,"edits":19696,"latest":"2017-08-10T07:17:24.000Z"},"geometry":{"type":"Point","coordinates":[39.11766640955,-6.60449427493299]}},{"type":"Feature","properties":{"id":3826,"title":"Tanzania Development Trust: Ihanda Community Mapping Project","status":"ARCHIVED","created":"2017","lastUpdated":"2018","lastActive":"no","area":84.22986494226826,"changesets":308,"mappers":18,"roads":373.737137847268,"buildings":3803,"edits":6185,"latest":"2018-06-21T20:32:04.000Z"},"geometry":{"type":"Point","coordinates":[31.088492540636,-1.549140845654]}},{"type":"Feature","properties":{"id":5394,"title":"Mtakuja_METEOR","status":"PUBLISHED","created":"2018","lastUpdated":"2018","lastActive":"no","area":0.12654256421525886,"changesets":111,"mappers":10,"roads":0.154747279215324,"buildings":1165,"edits":1365,"latest":"2018-10-26T12:56:08.000Z"},"geometry":{"type":"Point","coordinates":[39.2311664932879,-6.84526241829827]}},{"type":"Feature","properties":{"id":3204,"title":"PEPFAR Tanzania: Kyela (Coast)","status":"PUBLISHED","created":"2017","lastUpdated":"2018","lastActive":"no","area":267.9000890686287,"changesets":2176,"mappers":238,"roads":906.372658541645,"buildings":19971,"edits":29794,"latest":"2018-11-27T23:49:45.000Z"},"geometry":{"type":"Point","coordinates":[33.8624923854606,-9.60932245038593]}},{"type":"Feature","properties":{"id":1233,"title":"MSD & JSI/USAID Tanzania Road Import - Kigoma and Tabora regions","status":"PUBLISHED","created":"2015","lastUpdated":"2017","lastActive":"no","area":55716.44775664574,"changesets":89,"mappers":5,"roads":7164.0075520837,"buildings":137,"edits":14011,"latest":"2015-10-15T16:49:58.000Z"},"geometry":{"type":"Point","coordinates":[31.938951757194,-4.84880832874386]}},{"type":"Feature","properties":{"id":1066,"title":"Missing Maps: Kigoma region towns, Burundi / Tanzania","status":"ARCHIVED","created":"2015","lastUpdated":"2015","lastActive":"no","area":213.63718639264667,"changesets":2,"mappers":1,"roads":1.68154796651448,"buildings":231,"edits":245,"latest":"2015-09-27T23:38:29.000Z"},"geometry":{"type":"Point","coordinates":[29.6664188192449,-4.72722002716652]}},{"type":"Feature","properties":{"id":3993,"title":"Tanzania Development Trust:  Mwanza East","status":"PUBLISHED","created":"2018","lastUpdated":"2018","lastActive":"no","area":6942.748601206665,"changesets":9901,"mappers":441,"roads":11172.6279733069,"buildings":173653,"edits":237086,"latest":"2018-12-23T17:43:30.000Z"},"geometry":{"type":"Point","coordinates":[33.1460082996701,-2.93920908459836]}},{"type":"Feature","properties":{"id":3332,"title":"Missing Maps: Dar es Salaam - Ramani Huria 2.0 - 02","status":"ARCHIVED","created":"2017","lastUpdated":"2017","lastActive":"no","area":22.918002471745922,"changesets":2022,"mappers":67,"roads":2.30023874900871,"buildings":16203,"edits":16555,"latest":"2017-08-14T13:58:26.000Z"},"geometry":{"type":"Point","coordinates":[39.1749360182797,-6.6577888275312]}},{"type":"Feature","properties":{"id":4358,"title":"Tanzania Development Trust: Mwanza West Community Mapping Project","status":"PUBLISHED","created":"2018","lastUpdated":"2018","lastActive":"no","area":1290.9455273129195,"changesets":20244,"mappers":1236,"roads":9856.70818765765,"buildings":173259,"edits":240094,"latest":"2018-12-20T08:30:22.000Z"},"geometry":{"type":"Point","coordinates":[32.539528576888,-2.61529690008607]}},{"type":"Feature","properties":{"id":4555,"title":"Manyoni, Singida, Tanzania Mini Grids Project 05","status":"PUBLISHED","created":"2018","lastUpdated":"2018","lastActive":"no","area":2172.2334385231957,"changesets":1476,"mappers":57,"roads":0.354646008845444,"buildings":32058,"edits":32104,"latest":"2018-05-24T13:46:32.000Z"},"geometry":{"type":"Point","coordinates":[34.8967568144049,-6.27611532228966]}},{"type":"Feature","properties":{"id":4392,"title":"Rungwe, Mbeya, Tanzania Mini Grids Project 01","status":"PUBLISHED","created":"2018","lastUpdated":"2018","lastActive":"no","area":1330.3320402972577,"changesets":2885,"mappers":74,"roads":21.3821929149524,"buildings":119621,"edits":120470,"latest":"2018-05-30T06:51:18.000Z"},"geometry":{"type":"Point","coordinates":[33.5980998902635,-9.19753847018188]}},{"type":"Feature","properties":{"id":4387,"title":"Heru Shingo Ward, Kigoma, Tanzania Mini Grids Project 01","status":"PUBLISHED","created":"2018","lastUpdated":"2018","lastActive":"no","area":789.0955168862893,"changesets":1455,"mappers":37,"roads":4.58334806253399,"buildings":33003,"edits":33301,"latest":"2018-06-01T13:26:31.000Z"},"geometry":{"type":"Point","coordinates":[30.2968792423321,-4.12596556962405]}},{"type":"Feature","properties":{"id":3458,"title":"Tanzania Development Trust: Kahororo Community Mapping Project","status":"ARCHIVED","created":"2017","lastUpdated":"2018","lastActive":"no","area":15.218926174396286,"changesets":1023,"mappers":105,"roads":161.327485031549,"buildings":4806,"edits":10061,"latest":"2018-06-21T17:38:07.000Z"},"geometry":{"type":"Point","coordinates":[31.8368334027644,-1.30114812693389]}},{"type":"Feature","properties":{"id":3456,"title":"Missing Maps: Dar es Salaam - Ramani Huria 2.0 - 34","status":"PUBLISHED","created":"2017","lastUpdated":"2018","lastActive":"no","area":196.89167630800463,"changesets":3676,"mappers":139,"roads":587.388974612296,"buildings":20987,"edits":38292,"latest":"2017-11-13T11:24:48.000Z"},"geometry":{"type":"Point","coordinates":[39.1288689759637,-6.84699584132868]}},{"type":"Feature","properties":{"id":4377,"title":"Urambo, Tabora, Tanzania Mini Grids Project 09-10","status":"PUBLISHED","created":"2018","lastUpdated":"2018","lastActive":"no","area":1677.5206088742302,"changesets":1703,"mappers":67,"roads":0.363745706229784,"buildings":26610,"edits":26624,"latest":"2018-05-21T13:49:44.000Z"},"geometry":{"type":"Point","coordinates":[32.1987393372539,-4.49824794936506]}},{"type":"Feature","properties":{"id":1068,"title":"Missing Maps: Nyarugusu Refugee Camp","status":"ARCHIVED","created":"2015","lastUpdated":"2016","lastActive":"no","area":30.6380293127976,"changesets":1829,"mappers":28,"roads":137.084034918248,"buildings":9461,"edits":10370,"latest":"2016-02-01T22:20:10.000Z"},"geometry":{"type":"Point","coordinates":[30.3869401669017,-4.21942756911438]}},{"type":"Feature","properties":{"id":3454,"title":"Missing Maps: Dar es Salaam - Ramani Huria 2.0 - 32","status":"ARCHIVED","created":"2017","lastUpdated":"2017","lastActive":"no","area":148.77453796641805,"changesets":2812,"mappers":53,"roads":500.637012890815,"buildings":23079,"edits":38338,"latest":"2017-10-17T04:22:49.000Z"},"geometry":{"type":"Point","coordinates":[39.1340184011576,-6.6957405723263]}},{"type":"Feature","properties":{"id":3489,"title":"Missing Maps: Dar es Salaam - Ramani Huria 2.0 - 37","status":"PUBLISHED","created":"2017","lastUpdated":"2017","lastActive":"no","area":417.09462410666663,"changesets":822,"mappers":61,"roads":562.998240273241,"buildings":1882,"edits":10391,"latest":"2017-11-09T12:33:34.000Z"},"geometry":{"type":"Point","coordinates":[39.4732760819387,-7.07035250724075]}},{"type":"Feature","properties":{"id":4352,"title":"Urambo, Tabora, Tanzania Mini Grids Project 05","status":"PUBLISHED","created":"2018","lastUpdated":"2018","lastActive":"no","area":1522.3866868404682,"changesets":1812,"mappers":63,"roads":47.1194316793102,"buildings":61111,"edits":61203,"latest":"2018-07-02T05:53:02.000Z"},"geometry":{"type":"Point","coordinates":[31.8042353832352,-5.02258852707333]}},{"type":"Feature","properties":{"id":4354,"title":"Urambo, Tabora, Tanzania Mini Grids Project 07","status":"PUBLISHED","created":"2018","lastUpdated":"2018","lastActive":"no","area":1417.644733786158,"changesets":1438,"mappers":66,"roads":0.235986987394966,"buildings":40728,"edits":40743,"latest":"2018-07-02T08:15:16.000Z"},"geometry":{"type":"Point","coordinates":[31.9202678045656,-4.79835296039164]}},{"type":"Feature","properties":{"id":4366,"title":"Urambo, Tabora, Tanzania Mini Grids Project 04","status":"PUBLISHED","created":"2018","lastUpdated":"2018","lastActive":"no","area":1540.7875686482291,"changesets":1920,"mappers":73,"roads":6.26198278193171,"buildings":42229,"edits":42283,"latest":"2018-04-23T12:45:52.000Z"},"geometry":{"type":"Point","coordinates":[31.8054731800531,-5.12467103545177]}},{"type":"Feature","properties":{"id":4418,"title":"Mpwapwa, Dodoma, Tanzania Mini Grids Project 08","status":"PUBLISHED","created":"2018","lastUpdated":"2018","lastActive":"no","area":69.68255741962724,"changesets":1926,"mappers":103,"roads":18.7990415103299,"buildings":25541,"edits":25683,"latest":"2018-05-19T20:41:29.000Z"},"geometry":{"type":"Point","coordinates":[36.4532594329466,-5.95045585855322]}},{"type":"Feature","properties":{"id":4072,"title":"kagera_3","status":"PUBLISHED","created":"2018","lastUpdated":"2018","lastActive":"no","area":5.425110699350517,"changesets":66,"mappers":4,"roads":0,"buildings":1436,"edits":1436,"latest":"2018-01-30T06:14:28.000Z"},"geometry":{"type":"Point","coordinates":[31.7868173826187,-1.9820906918101]}},{"type":"Feature","properties":{"id":5392,"title":"Miembeni_METEOR","status":"PUBLISHED","created":"2018","lastUpdated":"2018","lastActive":"no","area":0.6398735476823335,"changesets":38,"mappers":6,"roads":0.812261387339561,"buildings":332,"edits":416,"latest":"2018-10-26T09:57:26.000Z"},"geometry":{"type":"Point","coordinates":[39.2311523544842,-6.84980246580113]}},{"type":"Feature","properties":{"id":2556,"title":"PEPFAR Tanzania: Mbeya CC","status":"PUBLISHED","created":"2017","lastUpdated":"2018","lastActive":"no","area":256.08947868821076,"changesets":3674,"mappers":263,"roads":1309.65000981764,"buildings":21914,"edits":54339,"latest":"2018-05-15T06:12:15.000Z"},"geometry":{"type":"Point","coordinates":[33.4732048006568,-8.89830150489546]}},{"type":"Feature","properties":{"id":5325,"title":"Mwananyamala","status":"PUBLISHED","created":"2018","lastUpdated":"2018","lastActive":"no","area":2.49542175237576,"changesets":336,"mappers":20,"roads":0.154280978731387,"buildings":1714,"edits":2074,"latest":"2018-10-09T13:18:30.000Z"},"geometry":{"type":"Point","coordinates":[39.2586298839167,-6.78686342634381]}},{"type":"Feature","properties":{"id":5320,"title":"Mburahati","status":"PUBLISHED","created":"2018","lastUpdated":"2018","lastActive":"no","area":1.1212118323428015,"changesets":15,"mappers":2,"roads":0.0911120604846218,"buildings":12,"edits":16,"latest":"2018-10-10T03:09:39.000Z"},"geometry":{"type":"Point","coordinates":[39.242086920805,-6.81266527325492]}},{"type":"Feature","properties":{"id":5370,"title":"Pwani_METEOR","status":"PUBLISHED","created":"2018","lastUpdated":"2018","lastActive":"no","area":1.857301592423365,"changesets":150,"mappers":19,"roads":26.9283625898123,"buildings":740,"edits":1247,"latest":"2018-10-31T08:49:13.000Z"},"geometry":{"type":"Point","coordinates":[39.3251033855678,-6.98577812479199]}},{"type":"Feature","properties":{"id":2095,"title":"MSD & JSI/USAID Tanzania Road Import - Mara region","status":"PUBLISHED","created":"2016","lastUpdated":"2016","lastActive":"no","area":18583.120612545095,"changesets":412,"mappers":12,"roads":2664.66783599299,"buildings":2995,"edits":11152,"latest":"2016-12-02T22:57:06.000Z"},"geometry":{"type":"Point","coordinates":[34.2964225881828,-1.80037216405206]}},{"type":"Feature","properties":{"id":5338,"title":"Tabata_Msimbazi","status":"PUBLISHED","created":"2018","lastUpdated":"2018","lastActive":"no","area":2.7361327645312596,"changesets":598,"mappers":22,"roads":1.52976158880248,"buildings":5381,"edits":5750,"latest":"2018-10-29T18:04:45.000Z"},"geometry":{"type":"Point","coordinates":[39.2210232072559,-6.83783297253043]}},{"type":"Feature","properties":{"id":5322,"title":"Gerezani","status":"PUBLISHED","created":"2018","lastUpdated":"2018","lastActive":"no","area":0.6617969975738225,"changesets":244,"mappers":19,"roads":0.0429388379459798,"buildings":959,"edits":1687,"latest":"2018-10-05T09:50:57.000Z"},"geometry":{"type":"Point","coordinates":[39.2751643416466,-6.82552891846113]}},{"type":"Feature","properties":{"id":5386,"title":"Gerezani_METEOR","status":"PUBLISHED","created":"2018","lastUpdated":"2018","lastActive":"no","area":0.31545538866072964,"changesets":208,"mappers":20,"roads":5.17559823813131,"buildings":366,"edits":844,"latest":"2018-10-25T08:50:20.000Z"},"geometry":{"type":"Point","coordinates":[39.2753213377704,-6.82192478353065]}},{"type":"Feature","properties":{"id":5356,"title":"Kimanga","status":"PUBLISHED","created":"2018","lastUpdated":"2018","lastActive":"no","area":9.377792323494011,"changesets":1,"mappers":1,"roads":0,"buildings":2,"edits":2,"latest":"2018-10-16T13:25:26.000Z"},"geometry":{"type":"Point","coordinates":[39.1889734397382,-6.82488295475237]}},{"type":"Feature","properties":{"id":5390,"title":"Kisutu_METEOR","status":"PUBLISHED","created":"2018","lastUpdated":"2018","lastActive":"no","area":0.30002608748587883,"changesets":75,"mappers":13,"roads":0.336096943618833,"buildings":286,"edits":453,"latest":"2018-10-25T14:59:01.000Z"},"geometry":{"type":"Point","coordinates":[39.287876425417,-6.81640921080609]}},{"type":"Feature","properties":{"id":5396,"title":"Sinza_METEOR","status":"PUBLISHED","created":"2018","lastUpdated":"2018","lastActive":"no","area":0.11495287086645402,"changesets":65,"mappers":15,"roads":0.115200681951529,"buildings":130,"edits":194,"latest":"2018-11-01T13:14:45.000Z"},"geometry":{"type":"Point","coordinates":[39.2245824861265,-6.7834148800241]}},{"type":"Feature","properties":{"id":5022,"title":"Mchikichini","status":"PUBLISHED","created":"2018","lastUpdated":"2018","lastActive":"no","area":1.696085516193505,"changesets":668,"mappers":38,"roads":2.21692032106359,"buildings":7214,"edits":8160,"latest":"2018-08-24T13:48:26.000Z"},"geometry":{"type":"Point","coordinates":[39.2653533791413,-6.81925346992819]}},{"type":"Feature","properties":{"id":5028,"title":"Keko","status":"PUBLISHED","created":"2018","lastUpdated":"2018","lastActive":"no","area":1.4649293626540205,"changesets":1033,"mappers":36,"roads":3.96567970367937,"buildings":8564,"edits":10636,"latest":"2018-08-29T12:46:37.000Z"},"geometry":{"type":"Point","coordinates":[39.275538576061,-6.83599209301762]}},{"type":"Feature","properties":{"id":5030,"title":"Mzimuni","status":"PUBLISHED","created":"2018","lastUpdated":"2018","lastActive":"no","area":1.2272442307232991,"changesets":716,"mappers":28,"roads":1.03965932616205,"buildings":6152,"edits":7023,"latest":"2018-08-31T11:15:01.000Z"},"geometry":{"type":"Point","coordinates":[39.2573050529511,-6.81085336649721]}},{"type":"Feature","properties":{"id":5374,"title":"Tanzania Road Tagging","status":"ARCHIVED","created":"2018","lastUpdated":"2018","lastActive":"no","area":1889.8991523484578,"changesets":121,"mappers":4,"roads":354.382916393981,"buildings":195,"edits":1625,"latest":"2018-10-28T21:36:35.000Z"},"geometry":{"type":"Point","coordinates":[34.9857072597691,-7.28466264372828]}},{"type":"Feature","properties":{"id":5154,"title":"Tabata","status":"PUBLISHED","created":"2018","lastUpdated":"2018","lastActive":"no","area":4.474362552715539,"changesets":1339,"mappers":40,"roads":3.34133572011008,"buildings":16310,"edits":18457,"latest":"2018-09-18T12:54:13.000Z"},"geometry":{"type":"Point","coordinates":[39.2250548605046,-6.82841398190697]}},{"type":"Feature","properties":{"id":5149,"title":"Makurumla","status":"PUBLISHED","created":"2018","lastUpdated":"2018","lastActive":"no","area":1.5565034409898066,"changesets":6,"mappers":3,"roads":0.155136909614126,"buildings":44,"edits":51,"latest":"2018-09-27T08:15:11.000Z"},"geometry":{"type":"Point","coordinates":[39.2425747094317,-6.80590884032526]}},{"type":"Feature","properties":{"id":5156,"title":"Sombetini","status":"PUBLISHED","created":"2018","lastUpdated":"2018","lastActive":"no","area":2.158067893428719,"changesets":293,"mappers":79,"roads":0.414735952058103,"buildings":8073,"edits":8138,"latest":"2018-09-07T20:15:20.000Z"},"geometry":{"type":"Point","coordinates":[36.6679931001053,-3.38106582367836]}},{"type":"Feature","properties":{"id":5191,"title":"Arusha Urban","status":"PUBLISHED","created":"2018","lastUpdated":"2018","lastActive":"no","area":21.060253845499485,"changesets":417,"mappers":40,"roads":6.50091898417892,"buildings":9367,"edits":9585,"latest":"2018-12-06T09:25:22.000Z"},"geometry":{"type":"Point","coordinates":[36.6801067826224,-3.35473835249449]}},{"type":"Feature","properties":{"id":5194,"title":"Hananasifu","status":"PUBLISHED","created":"2018","lastUpdated":"2018","lastActive":"no","area":1.8382439011755702,"changesets":775,"mappers":19,"roads":3.34109193738527,"buildings":6357,"edits":7943,"latest":"2018-10-03T07:37:03.000Z"},"geometry":{"type":"Point","coordinates":[39.2696283358805,-6.79609178054355]}},{"type":"Feature","properties":{"id":5201,"title":"Mbagala Kuu","status":"PUBLISHED","created":"2018","lastUpdated":"2018","lastActive":"no","area":6.586352566704119,"changesets":696,"mappers":18,"roads":2.03386537084955,"buildings":7935,"edits":8531,"latest":"2018-10-18T10:59:16.000Z"},"geometry":{"type":"Point","coordinates":[39.2823935446052,-6.90745859327607]}},{"type":"Feature","properties":{"id":4896,"title":"Tanzania Development Trust:  Manyara FGM 3","status":"PUBLISHED","created":"2018","lastUpdated":"2018","lastActive":"no","area":2283.4732623040454,"changesets":1771,"mappers":168,"roads":225.333231420998,"buildings":15423,"edits":15979,"latest":"2018-10-24T12:40:31.000Z"},"geometry":{"type":"Point","coordinates":[37.0771755450608,-5.56656722298389]}},{"type":"Feature","properties":{"id":5467,"title":"Makuburi","status":"PUBLISHED","created":"2018","lastUpdated":"2018","lastActive":"no","area":7.6743988229254745,"changesets":65,"mappers":9,"roads":7.63816287996377e-10,"buildings":236,"edits":240,"latest":"2018-12-13T16:28:00.000Z"},"geometry":{"type":"Point","coordinates":[39.2000761299092,-6.80869248275905]}},{"type":"Feature","properties":{"id":4636,"title":"Lamaiti Village, Tanzania Mini Grids Project","status":"PUBLISHED","created":"2018","lastUpdated":"2018","lastActive":"no","area":287.18127360801236,"changesets":510,"mappers":69,"roads":0.067806508631528,"buildings":6540,"edits":6550,"latest":"2018-06-04T09:04:54.000Z"},"geometry":{"type":"Point","coordinates":[35.4794601168636,-5.8012762719866]}},{"type":"Feature","properties":{"id":4657,"title":"Chemba and Bahi Districts, Tanzania Mini Grids Project 06","status":"PUBLISHED","created":"2018","lastUpdated":"2018","lastActive":"no","area":1954.498784623165,"changesets":1739,"mappers":67,"roads":0.0871877791220345,"buildings":23455,"edits":23473,"latest":"2018-06-15T19:15:22.000Z"},"geometry":{"type":"Point","coordinates":[35.5692607565132,-5.7156015662123]}},{"type":"Feature","properties":{"id":5218,"title":"Vingunguti","status":"PUBLISHED","created":"2018","lastUpdated":"2018","lastActive":"no","area":4.5147969243730985,"changesets":1476,"mappers":25,"roads":5.76973550436218,"buildings":14462,"edits":17891,"latest":"2018-11-09T13:30:13.000Z"},"geometry":{"type":"Point","coordinates":[39.2283271509236,-6.845412414447]}},{"type":"Feature","properties":{"id":4722,"title":"Njombe Region, Tanzania Mini Grids Project 01","status":"PUBLISHED","created":"2018","lastUpdated":"2018","lastActive":"no","area":1960.7678476372357,"changesets":1187,"mappers":61,"roads":1.07364951171986,"buildings":57724,"edits":57843,"latest":"2018-06-14T13:57:46.000Z"},"geometry":{"type":"Point","coordinates":[34.6300177951371,-8.83922964032332]}},{"type":"Feature","properties":{"id":5204,"title":"Makumbusho","status":"PUBLISHED","created":"2018","lastUpdated":"2018","lastActive":"no","area":1.7495807696096894,"changesets":1019,"mappers":20,"roads":5.8505806882872,"buildings":7506,"edits":9235,"latest":"2018-11-07T13:50:16.000Z"},"geometry":{"type":"Point","coordinates":[39.2508110711774,-6.78966677791311]}},{"type":"Feature","properties":{"id":4700,"title":"Songea Rural, Ruvuma, Tanzania Mini Grids Project 02","status":"PUBLISHED","created":"2018","lastUpdated":"2018","lastActive":"no","area":2220.7880799927716,"changesets":626,"mappers":55,"roads":0.0918395441376388,"buildings":12459,"edits":12476,"latest":"2018-06-11T08:13:36.000Z"},"geometry":{"type":"Point","coordinates":[35.4739876463384,-9.76106243057685]}},{"type":"Feature","properties":{"id":4724,"title":"Njombe Region, Tanzania Mini Grids Project 03","status":"PUBLISHED","created":"2018","lastUpdated":"2018","lastActive":"no","area":2136.028082871833,"changesets":1147,"mappers":62,"roads":0.108975939233081,"buildings":37781,"edits":37805,"latest":"2018-07-20T14:13:03.000Z"},"geometry":{"type":"Point","coordinates":[34.6733502170824,-9.09889819240757]}},{"type":"Feature","properties":{"id":5291,"title":"Bububu Zanzibar Mapping","status":"PUBLISHED","created":"2018","lastUpdated":"2018","lastActive":"no","area":9.349523279823226,"changesets":185,"mappers":72,"roads":24.7842441338549,"buildings":2762,"edits":3176,"latest":"2018-11-05T21:11:38.000Z"},"geometry":{"type":"Point","coordinates":[39.2207064718988,-6.09133977311896]}},{"type":"Feature","properties":{"id":5317,"title":"Kijitonyama","status":"PUBLISHED","created":"2018","lastUpdated":"2018","lastActive":"no","area":3.944334462943499,"changesets":984,"mappers":24,"roads":1.36938792486868,"buildings":12348,"edits":13618,"latest":"2018-11-02T12:54:37.000Z"},"geometry":{"type":"Point","coordinates":[39.2362348265782,-6.77781749264387]}},{"type":"Feature","properties":{"id":1462,"title":"MSD & JSI/USAID Tanzania Road Import - Rukwa and Katavi regions","status":"PUBLISHED","created":"2016","lastUpdated":"2016","lastActive":"no","area":23601.174016426638,"changesets":46,"mappers":13,"roads":2965.50978720348,"buildings":26,"edits":3295,"latest":"2016-11-09T18:57:31.000Z"},"geometry":{"type":"Point","coordinates":[31.386548500474,-7.66185013891424]}},{"type":"Feature","properties":{"id":2125,"title":"Missing Maps: Dar es Salaam - Ramani Huria 7","status":"PUBLISHED","created":"2016","lastUpdated":"2017","lastActive":"no","area":15.59172030179052,"changesets":681,"mappers":54,"roads":23.3546858581493,"buildings":15759,"edits":16703,"latest":"2017-12-11T17:19:19.000Z"},"geometry":{"type":"Point","coordinates":[39.2272702302774,-6.72482139604585]}},{"type":"Feature","properties":{"id":4894,"title":"Tanzania Development Trust: Manyara FGM 2","status":"PUBLISHED","created":"2018","lastUpdated":"2018","lastActive":"no","area":2355.6428351187137,"changesets":3864,"mappers":326,"roads":1035.67397496495,"buildings":32606,"edits":35318,"latest":"2018-11-06T12:44:19.000Z"},"geometry":{"type":"Point","coordinates":[36.5477142150534,-5.33552036818312]}},{"type":"Feature","properties":{"id":2111,"title":"MSD & JSI/USAID Tanzania Road Import - Mbeya region","status":"PUBLISHED","created":"2016","lastUpdated":"2016","lastActive":"no","area":19769.484038509396,"changesets":79,"mappers":5,"roads":2211.37645137462,"buildings":3314,"edits":7568,"latest":"2016-10-05T18:18:41.000Z"},"geometry":{"type":"Point","coordinates":[33.156706012806,-8.77001626949037]}},{"type":"Feature","properties":{"id":5442,"title":"Ukonga","status":"PUBLISHED","created":"2018","lastUpdated":"2018","lastActive":"no","area":9.973212227035186,"changesets":1,"mappers":1,"roads":0.0957173698489048,"buildings":0,"edits":1,"latest":"2018-11-08T18:22:56.000Z"},"geometry":{"type":"Point","coordinates":[39.1716103075864,-6.87643354356797]}},{"type":"Feature","properties":{"id":3425,"title":"Missing Maps: Dar es Salaam - Ramani Huria 2.0 - 28","status":"PUBLISHED","created":"2017","lastUpdated":"2018","lastActive":"no","area":238.90307672725964,"changesets":3337,"mappers":175,"roads":1979.6787463554,"buildings":2573,"edits":35065,"latest":"2017-11-03T04:15:17.000Z"},"geometry":{"type":"Point","coordinates":[39.2720471954653,-6.94362511164942]}},{"type":"Feature","properties":{"id":2149,"title":"Earthquake in Uganda and Tanzania, 10/09/2016 - Bukoba Buildings Mapping","status":"ARCHIVED","created":"2016","lastUpdated":"2016","lastActive":"no","area":31.690178701237453,"changesets":993,"mappers":43,"roads":31.6646699010167,"buildings":26227,"edits":27057,"latest":"2017-01-06T13:44:11.000Z"},"geometry":{"type":"Point","coordinates":[31.8096442169796,-1.32589362270035]}},{"type":"Feature","properties":{"id":4357,"title":"Tanzania Development Trust: Rungwe Kasulu Community Mapping Project","status":"ARCHIVED","created":"2018","lastUpdated":"2018","lastActive":"no","area":1013.1767777919853,"changesets":5552,"mappers":409,"roads":4999.48387166668,"buildings":20822,"edits":49162,"latest":"2018-06-17T14:10:03.000Z"},"geometry":{"type":"Point","coordinates":[30.2493018751241,-4.77015701562809]}},{"type":"Feature","properties":{"id":4329,"title":"Tanzania Development Trust: Chabuhora Karagwe Community Mapping Project","status":"ARCHIVED","created":"2018","lastUpdated":"2018","lastActive":"no","area":29.098942849205926,"changesets":337,"mappers":36,"roads":136.59546293545,"buildings":2260,"edits":3376,"latest":"2018-03-20T08:56:00.000Z"},"geometry":{"type":"Point","coordinates":[30.9793967385239,-1.78282439868476]}},{"type":"Feature","properties":{"id":4406,"title":"Tanzania Development Trust: Kyaibumba Community Mapping Project","status":"ARCHIVED","created":"2018","lastUpdated":"2018","lastActive":"no","area":14.678296379059542,"changesets":158,"mappers":30,"roads":133.357573789262,"buildings":795,"edits":1536,"latest":"2018-04-09T12:26:56.000Z"},"geometry":{"type":"Point","coordinates":[31.4548536327291,-1.9073101465972]}},{"type":"Feature","properties":{"id":4316,"title":"Tanzania Development Trust: Ngara Community Mapping Project","status":"ARCHIVED","created":"2018","lastUpdated":"2018","lastActive":"no","area":5.680090353476652,"changesets":293,"mappers":44,"roads":80.4486420340574,"buildings":3478,"edits":4114,"latest":"2018-03-30T14:34:54.000Z"},"geometry":{"type":"Point","coordinates":[30.6563660461257,-2.51312893241178]}},{"type":"Feature","properties":{"id":4284,"title":"Tanzania Development Trust: Nyakigando Ikimba Community Mapping Project","status":"ARCHIVED","created":"2018","lastUpdated":"2018","lastActive":"no","area":9.041298427344486,"changesets":320,"mappers":21,"roads":159.247797886851,"buildings":1179,"edits":3057,"latest":"2018-03-12T21:12:54.000Z"},"geometry":{"type":"Point","coordinates":[31.5705837031557,-1.51810455931155]}},{"type":"Feature","properties":{"id":2361,"title":"Tanzania Development Trust: Tabora district mapping project","status":"PUBLISHED","created":"2016","lastUpdated":"2018","lastActive":"no","area":11331.719987775972,"changesets":11664,"mappers":420,"roads":28508.3138575684,"buildings":316326,"edits":517728,"latest":"2018-09-05T04:26:28.000Z"},"geometry":{"type":"Point","coordinates":[32.9311624412335,-5.02219301254299]}},{"type":"Feature","properties":{"id":3251,"title":"Tanzania Development Trust: Masasi district, Mtwara Region","status":"PUBLISHED","created":"2017","lastUpdated":"2018","lastActive":"no","area":1622.139093292662,"changesets":2463,"mappers":183,"roads":4785.67042099275,"buildings":85492,"edits":125435,"latest":"2018-11-21T20:33:24.000Z"},"geometry":{"type":"Point","coordinates":[38.7777142279862,-10.7640181242256]}},{"type":"Feature","properties":{"id":4076,"title":"Shinyanga_Tabora_Geita","status":"PUBLISHED","created":"2018","lastUpdated":"2018","lastActive":"no","area":3994.8430365253507,"changesets":50,"mappers":14,"roads":0.000161002645333808,"buildings":2248,"edits":2251,"latest":"2018-08-23T03:54:33.000Z"},"geometry":{"type":"Point","coordinates":[31.8409955510823,-4.30414913053918]}},{"type":"Feature","properties":{"id":3160,"title":"Tanzania Development Trust: Msisi ward community mapping project ","status":"PUBLISHED","created":"2017","lastUpdated":"2018","lastActive":"no","area":81.67279767012198,"changesets":776,"mappers":81,"roads":1109.18991612625,"buildings":3769,"edits":9912,"latest":"2018-12-10T12:04:16.000Z"},"geometry":{"type":"Point","coordinates":[34.6639591437227,-4.61768230807472]}},{"type":"Feature","properties":{"id":3388,"title":"Missing Maps: Dar es Salaam - Ramani Huria 2.0 - 21","status":"PUBLISHED","created":"2017","lastUpdated":"2017","lastActive":"no","area":69.65587897048133,"changesets":1939,"mappers":75,"roads":6.84000186734417,"buildings":36784,"edits":37868,"latest":"2017-08-11T12:28:34.000Z"},"geometry":{"type":"Point","coordinates":[39.1283057323213,-6.89210398958084]}},{"type":"Feature","properties":{"id":3353,"title":"Missing Maps: Dar es Salaam - Ramani Huria 2.0 - 08","status":"ARCHIVED","created":"2017","lastUpdated":"2017","lastActive":"no","area":41.71271249600479,"changesets":1277,"mappers":107,"roads":341.752455858356,"buildings":1180,"edits":8988,"latest":"2017-08-21T10:19:51.000Z"},"geometry":{"type":"Point","coordinates":[39.1368897058541,-6.75873901328791]}},{"type":"Feature","properties":{"id":3351,"title":"Missing Maps: Dar es Salaam - Ramani Huria 2.0 - 06","status":"PUBLISHED","created":"2017","lastUpdated":"2017","lastActive":"no","area":42.09056201926153,"changesets":1060,"mappers":98,"roads":583.340797762564,"buildings":2543,"edits":21480,"latest":"2017-09-18T13:34:28.000Z"},"geometry":{"type":"Point","coordinates":[39.0979103142561,-6.69636185713101]}},{"type":"Feature","properties":{"id":2609,"title":"Tanzania Development Trust: Maswa district mapping project part 2","status":"ARCHIVED","created":"2017","lastUpdated":"2017","lastActive":"no","area":562.8015857815028,"changesets":3334,"mappers":121,"roads":2584.15851997413,"buildings":32479,"edits":61974,"latest":"2017-07-23T02:02:02.000Z"},"geometry":{"type":"Point","coordinates":[33.8216815175903,-3.13671054186429]}},{"type":"Feature","properties":{"id":3078,"title":"Tanzania Development Trust: Ishunju, Ishozi and Gera districts community mapping project ","status":"ARCHIVED","created":"2017","lastUpdated":"2018","lastActive":"no","area":117.52166194056245,"changesets":514,"mappers":48,"roads":167.554220708217,"buildings":5211,"edits":9222,"latest":"2018-07-03T14:55:27.000Z"},"geometry":{"type":"Point","coordinates":[31.7577065704359,-1.19192302980064]}},{"type":"Feature","properties":{"id":3159,"title":"Tanzania Development Trust: Singida district community mapping project ","status":"PUBLISHED","created":"2017","lastUpdated":"2018","lastActive":"no","area":746.5381861519145,"changesets":8157,"mappers":372,"roads":10510.3568767361,"buildings":97698,"edits":203274,"latest":"2018-12-21T04:00:51.000Z"},"geometry":{"type":"Point","coordinates":[34.973843496759,-4.67540763811596]}},{"type":"Feature","properties":{"id":1788,"title":"Tanzania Development Trust: Serengeti district mapping project","status":"ARCHIVED","created":"2016","lastUpdated":"2018","lastActive":"no","area":13584.124479203561,"changesets":22885,"mappers":911,"roads":32070.8722414284,"buildings":416061,"edits":635374,"latest":"2018-10-07T14:50:39.000Z"},"geometry":{"type":"Point","coordinates":[34.6535890667968,-1.94252940124096]}},