{"totalEdits":38769120,"totalBuildings":31741478,"totalRoads":829814.378355938,"mappersOnline":31,"totalTasksMapped":1524979,"totalMappers":127510,"totalProjects":1551,"Tanzania":[{"type":"Feature","properties":{"title":"Kipili Ward, Rukwa, Tanzania Mini Grids Project 01","id":4401,"area":180.26824654575853,"year":"2018","lastUpdated":"2018-05-08T10:13:30.293395","changesets":455,"mappers":51,"roads":0.000599220796289046,"buildings":9512,"edits":9513,"latest":"2018-05-08T10:13:16.000Z"},"geometry":{"type":"Point","coordinates":[30.596896102411772,-7.461640143485554]}},{"type":"Feature","properties":{"title":"Heru Shingo Ward, Kigoma, Tanzania Mini Grids Project 01","id":4387,"area":789.0955168862893,"year":"2018","lastUpdated":"2018-06-27T06:10:33.707732","changesets":1455,"mappers":37,"roads":4.58334806253399,"buildings":33003,"edits":33301,"latest":"2018-06-01T13:26:31.000Z"},"geometry":{"type":"Point","coordinates":[30.310435947907735,-4.113678655615293]}},{"type":"Feature","properties":{"title":"Urambo, Tabora, Tanzania Mini Grids Project 09-10","id":4377,"area":1677.5206088742302,"year":"2018","lastUpdated":"2018-05-21T13:20:07.112179","changesets":1703,"mappers":67,"roads":0.363745706229784,"buildings":26610,"edits":26624,"latest":"2018-05-21T13:49:44.000Z"},"geometry":{"type":"Point","coordinates":[32.006976077428725,-4.486466132072692]}},{"type":"Feature","properties":{"title":"Urambo, Tabora, Tanzania Mini Grids Project 07","id":4354,"area":1417.644733786158,"year":"2018","lastUpdated":"2018-07-02T08:16:09.808700","changesets":1280,"mappers":66,"roads":0.235986987394966,"buildings":39644,"edits":39659,"latest":"2018-04-11T09:46:25.000Z"},"geometry":{"type":"Point","coordinates":[31.960650180526155,-4.799811038966155]}},{"type":"Feature","properties":{"title":"Missing Maps: Dar es Salaam - Ramani Huria 2.0 - 37","id":3489,"area":417.09462410666663,"year":"2017","lastUpdated":"2017-09-18T12:03:21.740199","changesets":822,"mappers":61,"roads":562.998240273241,"buildings":1882,"edits":10391,"latest":"2017-11-09T12:33:34.000Z"},"geometry":{"type":"Point","coordinates":[39.462098843694726,-7.104153352099897]}},{"type":"Feature","properties":{"title":"Missing Maps: Dar es Salaam - Ramani Huria 2.0 - 30","id":3427,"area":324.58461584384474,"year":"2018","lastUpdated":"2018-03-05T15:31:42.602831","changesets":736,"mappers":55,"roads":997.252274559555,"buildings":82,"edits":5864,"latest":"2017-08-24T07:24:28.000Z"},"geometry":{"type":"Point","coordinates":[39.44712098681805,-7.118307308082444]}},{"type":"Feature","properties":{"title":"Missing Maps: Dar es Salaam - Ramani Huria 2.0 - 25","id":3411,"area":260.81879568766976,"year":"2018","lastUpdated":"2018-03-05T15:34:52.492149","changesets":1755,"mappers":99,"roads":3.25862217409201,"buildings":58641,"edits":59730,"latest":"2017-08-21T09:01:52.000Z"},"geometry":{"type":"Point","coordinates":[39.37092792533908,-6.938791309484072]}},{"type":"Feature","properties":{"title":"Tanzania Development Trust: Rusesa, Kwaga and Kigembe districts community mapping project ","id":3134,"area":554.3164257263877,"year":"2017","lastUpdated":"2017-12-12T20:58:40.374306","changesets":0,"mappers":0,"roads":0,"buildings":0,"edits":0,"latest":null},"geometry":{"type":"Point","coordinates":[30.003875680949932,-4.84165310145059]}},{"type":"Feature","properties":{"title":"Tabora, Tabora, Tanzania Mini Grids Project 04","id":4611,"area":1431.5287309262178,"year":"2018","lastUpdated":"2018-06-21T06:43:17.878145","changesets":1289,"mappers":60,"roads":17.4569544106012,"buildings":23456,"edits":24034,"latest":"2018-05-31T10:10:18.000Z"},"geometry":{"type":"Point","coordinates":[32.9989006523097,-5.09063064812292]}},{"type":"Feature","properties":{"title":"Manyoni, Singida, Tanzania Mini Grids Project 05","id":4555,"area":2172.2334385231957,"year":"2018","lastUpdated":"2018-05-24T13:47:51.718614","changesets":1476,"mappers":57,"roads":0.354646008845444,"buildings":32058,"edits":32104,"latest":"2018-05-24T13:46:32.000Z"},"geometry":{"type":"Point","coordinates":[34.89457414391987,-6.337178718154652]}},{"type":"Feature","properties":{"title":"Kasulu, Kasulu, Tanzania Mini Grids Project 05","id":4572,"area":2206.993164418614,"year":"2018","lastUpdated":"2018-06-21T06:47:41.876386","changesets":658,"mappers":53,"roads":0.332538602551102,"buildings":7551,"edits":7643,"latest":"2018-06-06T12:28:35.000Z"},"geometry":{"type":"Point","coordinates":[30.58835132393096,-4.543021986400334]}},{"type":"Feature","properties":{"title":"Lindi, Lindi, Tanzania Mini Grids Project 02","id":4488,"area":1271.4706951916876,"year":"2018","lastUpdated":"2018-07-06T13:28:16.810389","changesets":573,"mappers":60,"roads":0.509649478878156,"buildings":9921,"edits":9949,"latest":"2018-05-10T13:59:37.000Z"},"geometry":{"type":"Point","coordinates":[39.32480989462478,-9.704243210868535]}},{"type":"Feature","properties":{"title":"Central Singida, Singida, Tanzania Mini Grids Project 00 North","id":4508,"area":2138.0235797080213,"year":"2018","lastUpdated":"2018-06-29T06:38:01.506131","changesets":2083,"mappers":64,"roads":1.80693813624998,"buildings":83421,"edits":83643,"latest":"2018-05-15T14:47:17.000Z"},"geometry":{"type":"Point","coordinates":[34.85630752643853,-4.7195257307215375]}},{"type":"Feature","properties":{"title":"Central Singida, Singida, Tanzania Mini Grids Project 05 East","id":4529,"area":1299.832349107584,"year":"2018","lastUpdated":"2018-05-17T09:08:08.102064","changesets":829,"mappers":53,"roads":0.392972178332061,"buildings":16651,"edits":16659,"latest":"2018-05-17T11:23:30.000Z"},"geometry":{"type":"Point","coordinates":[35.19340611670751,-4.901696314033335]}},{"type":"Feature","properties":{"title":"Tunduru, Ruvuma, Tanzania Mini Grids Project 02","id":4424,"area":1549.6766515243964,"year":"2018","lastUpdated":"2018-05-04T08:55:20.079197","changesets":855,"mappers":63,"roads":0.0711115935309787,"buildings":21117,"edits":21136,"latest":"2018-05-07T07:56:42.000Z"},"geometry":{"type":"Point","coordinates":[37.44642487877472,-11.304728564657015]}},{"type":"Feature","properties":{"title":"Igalula Ward, Kigoma, Tanzania Mini Grids Project 01","id":4386,"area":1169.7270185651328,"year":"2018","lastUpdated":"2018-04-17T14:00:20.573026","changesets":912,"mappers":37,"roads":0.00817977234302703,"buildings":9782,"edits":9783,"latest":"2018-04-17T14:00:26.000Z"},"geometry":{"type":"Point","coordinates":[30.054356569129087,-6.011588890040766]}},{"type":"Feature","properties":{"title":"Urambo, Tabora, Tanzania Mini Grids Project 01-02","id":4376,"area":2032.586550505636,"year":"2018","lastUpdated":"2018-06-19T08:37:57.167229","changesets":2151,"mappers":60,"roads":0.977625727876198,"buildings":26596,"edits":26638,"latest":"2018-06-14T12:20:32.000Z"},"geometry":{"type":"Point","coordinates":[31.762362863705164,-5.438836111127685]}},{"type":"Feature","properties":{"title":"Tunduru, Ruvuma, Tanzania Mini Grids Project 03","id":4378,"area":1369.2568876847938,"year":"2018","lastUpdated":"2018-05-03T12:58:11.041494","changesets":1018,"mappers":60,"roads":0.263537837490913,"buildings":23394,"edits":23430,"latest":"2018-05-03T13:14:28.000Z"},"geometry":{"type":"Point","coordinates":[37.28765739124834,-11.152541317436667]}},{"type":"Feature","properties":{"title":"Tanzania Development Trust: Kagera Road Mapping","id":4369,"area":15505.318016681384,"year":"2018","lastUpdated":"2018-06-17T15:44:26.132464","changesets":11,"mappers":3,"roads":12.7479650866356,"buildings":18,"edits":33,"latest":"2018-06-10T18:30:49.000Z"},"geometry":{"type":"Point","coordinates":[31.083802641369388,-1.6037426685457075]}},{"type":"Feature","properties":{"title":"Urambo, Tabora, Tanzania Mini Grids Project 04","id":4366,"area":1540.7875686482291,"year":"2018","lastUpdated":"2018-04-23T12:46:20.979070","changesets":1920,"mappers":73,"roads":6.2619827819317,"buildings":42229,"edits":42283,"latest":"2018-04-23T12:45:52.000Z"},"geometry":{"type":"Point","coordinates":[31.8072741219125,-5.113293963680001]}},{"type":"Feature","properties":{"title":"Urambo, Tabora, Tanzania Mini Grids Project 05","id":4352,"area":1522.3866868404682,"year":"2018","lastUpdated":"2018-06-29T06:39:44.799826","changesets":1420,"mappers":63,"roads":47.0933047252912,"buildings":58498,"edits":58580,"latest":"2018-04-11T09:35:31.000Z"},"geometry":{"type":"Point","coordinates":[31.750896252665452,-5.017669822392724]}},{"type":"Feature","properties":{"title":"Urambo, Tabora, Tanzania Mini Grids Project 08","id":4355,"area":1512.9535222617567,"year":"2018","lastUpdated":"2018-06-29T06:36:14.716443","changesets":1416,"mappers":62,"roads":0.0220781814910548,"buildings":53735,"edits":53737,"latest":"2018-03-29T09:51:14.000Z"},"geometry":{"type":"Point","coordinates":[31.652766553125133,-4.666160203174864]}},{"type":"Feature","properties":{"title":"Lindi - Mini Grids","id":4260,"area":235.67207484051517,"year":"2018","lastUpdated":"2018-04-18T21:53:41.412313","changesets":133,"mappers":23,"roads":23.0772557724216,"buildings":2266,"edits":2684,"latest":"2018-04-18T21:53:28.000Z"},"geometry":{"type":"Point","coordinates":[39.305670260454285,-10.707404745317382]}},{"type":"Feature","properties":{"title":"Urambo, Tabora, Tanzania Mini Grids Project 06","id":4353,"area":1555.7313427834936,"year":"2018","lastUpdated":"2018-06-29T06:38:02.088669","changesets":1535,"mappers":66,"roads":0.0331344994875119,"buildings":54533,"edits":54541,"latest":"2018-04-11T10:57:57.000Z"},"geometry":{"type":"Point","coordinates":[31.85480028894,-4.912515247337495]}},{"type":"Feature","properties":{"title":"Mbozi, Mbeya, Tanzania Mini Grids Project 01","id":4286,"area":1427.754247465411,"year":"2018","lastUpdated":"2018-06-07T08:27:39.601646","changesets":3571,"mappers":68,"roads":3017.76610954661,"buildings":84064,"edits":91962,"latest":"2018-06-14T11:11:25.000Z"},"geometry":{"type":"Point","coordinates":[32.815140600291976,-9.28818806240448]}},{"type":"Feature","properties":{"title":"Mbozi, Mbeya, Tanzania Mini Grids Project 05","id":4291,"area":1217.253471872788,"year":"2018","lastUpdated":"2018-06-28T18:33:30.349701","changesets":1051,"mappers":65,"roads":1098.18198535427,"buildings":16367,"edits":18267,"latest":"2018-04-11T10:37:22.000Z"},"geometry":{"type":"Point","coordinates":[32.832228251564956,-8.77762069709877]}},{"type":"Feature","properties":{"title":"Mahenye-Njombe","id":4178,"area":419.20452177017404,"year":"2018","lastUpdated":"2018-02-28T05:34:07.695778","changesets":557,"mappers":14,"roads":2.81615930013736,"buildings":28307,"edits":28364,"latest":"2018-02-23T12:45:33.000Z"},"geometry":{"type":"Point","coordinates":[34.79358795360073,-9.509275911526554]}},{"type":"Feature","properties":{"title":"Kigoma_16","id":4104,"area":7.541560145038916,"year":"2018","lastUpdated":"2018-02-15T12:46:38.375086","changesets":305,"mappers":9,"roads":1.4295542594309,"buildings":2851,"edits":2870,"latest":"2018-02-15T13:37:15.000Z"},"geometry":{"type":"Point","coordinates":[29.84589719532659,-5.5702642437272685]}},{"type":"Feature","properties":{"title":"Kalobe-Data Zetu","id":4242,"area":5.581452341462152,"year":"2018","lastUpdated":"2018-03-07T09:09:27.180898","changesets":531,"mappers":5,"roads":0.0106237188235286,"buildings":6096,"edits":6109,"latest":"2018-03-07T09:02:49.000Z"},"geometry":{"type":"Point","coordinates":[33.4084716088529,-8.914847386034923]}},{"type":"Feature","properties":{"title":"Mbozi, Mbeya, Tanzania Mini Grids Project 07","id":4350,"area":908.5380955685306,"year":"2018","lastUpdated":"2018-06-29T06:38:11.249834","changesets":907,"mappers":61,"roads":663.399475561412,"buildings":30497,"edits":31563,"latest":"2018-04-11T09:11:04.000Z"},"geometry":{"type":"Point","coordinates":[32.511668384650065,-8.419049370379382]}},{"type":"Feature","properties":{"title":"TZ IFC Mini-grids house count test-1","id":4035,"area":481.70619678590833,"year":"2018","lastUpdated":"2018-02-09T12:39:18.669550","changesets":3,"mappers":3,"roads":0,"buildings":180,"edits":180,"latest":"2018-02-09T12:27:18.000Z"},"geometry":{"type":"Point","coordinates":[34.581446410258884,-7.300716320272623]}},{"type":"Feature","properties":{"title":"Missing Maps: Dar es Salaam - Ramani Huria 2.0 - 20","id":3387,"area":92.06647987703117,"year":"2018","lastUpdated":"2018-03-05T15:38:02.296786","changesets":1407,"mappers":57,"roads":12.7576761938866,"buildings":34483,"edits":36868,"latest":"2017-08-15T08:33:29.000Z"},"geometry":{"type":"Point","coordinates":[39.115395701674714,-6.820271980216828]}},{"type":"Feature","properties":{"title":"Dodoma","id":4075,"area":1376.1461971097149,"year":"2018","lastUpdated":"2018-01-27T16:19:15.755920","changesets":0,"mappers":0,"roads":0,"buildings":0,"edits":0,"latest":null},"geometry":{"type":"Point","coordinates":[35.01502914443591,-7.24110335290576]}},{"type":"Feature","properties":{"title":"Rungwe, Mbeya, Tanzania Mini Grids Project 01","id":4392,"area":1330.3320402972577,"year":"2018","lastUpdated":"2018-05-30T05:59:04.640865","changesets":2885,"mappers":74,"roads":21.3821929149524,"buildings":119621,"edits":120470,"latest":"2018-05-30T06:51:18.000Z"},"geometry":{"type":"Point","coordinates":[33.5756407980469,-9.244759979750832]}},{"type":"Feature","properties":{"title":"Tanzania Development Trust: Mwanza West Community Mapping Project","id":4358,"area":1290.9455273129195,"year":"2018","lastUpdated":"2018-07-08T11:08:33.120433","changesets":8458,"mappers":673,"roads":5049.72480169838,"buildings":87020,"edits":118446,"latest":"2018-06-17T03:51:37.000Z"},"geometry":{"type":"Point","coordinates":[32.548552534014256,-2.6391112035937363]}},{"type":"Feature","properties":{"title":"Kigoma_10","id":4091,"area":4.460415768336148,"year":"2018","lastUpdated":"2018-02-08T09:50:21.431365","changesets":220,"mappers":5,"roads":0.0191951062871919,"buildings":3014,"edits":3016,"latest":"2018-02-08T09:50:17.000Z"},"geometry":{"type":"Point","coordinates":[29.852708915118153,-5.977798075388094]}},{"type":"Feature","properties":{"title":"Priority Villages, Ruvuma Region, Tanzania Mini Grids Project","id":4801,"area":491.345226887175,"year":"2018","lastUpdated":"2018-07-03T15:18:55.293383","changesets":0,"mappers":0,"roads":0,"buildings":0,"edits":0,"latest":null},"geometry":{"type":"Point","coordinates":[35.45485146842986,-10.678797947427933]}},{"type":"Feature","properties":{"title":"Tanzania Development Trust: Shinyanga East community mapping project","id":4166,"area":1007.0589397559861,"year":"2018","lastUpdated":"2018-07-04T12:47:46.906157","changesets":2304,"mappers":323,"roads":1359.78696359832,"buildings":23393,"edits":28852,"latest":"2018-06-16T04:35:02.000Z"},"geometry":{"type":"Point","coordinates":[33.66405700164086,-3.5303866913753184]}},{"type":"Feature","properties":{"title":"Mbozi, Mbeya, Tanzania Mini Grids Project 02","id":4287,"area":1464.4147850208826,"year":"2018","lastUpdated":"2018-03-28T14:39:26.288008","changesets":3239,"mappers":63,"roads":3419.72220762667,"buildings":69891,"edits":79035,"latest":"2018-03-28T14:41:07.000Z"},"geometry":{"type":"Point","coordinates":[32.46601435345758,-9.102106023061891]}},{"type":"Feature","properties":{"title":"Tanzania Development Trust: Sawida District","id":4118,"area":924.6478975466252,"year":"2018","lastUpdated":"2018-07-07T19:31:43.469922","changesets":13023,"mappers":932,"roads":9439.87042063941,"buildings":149153,"edits":217610,"latest":"2018-06-17T10:29:27.000Z"},"geometry":{"type":"Point","coordinates":[33.663075852494615,-2.8525551326607483]}},{"type":"Feature","properties":{"title":"Tanzania Development Trust: Simiyu district mapping project part 1 - Updated Imagery","id":3177,"area":1361.7036746910928,"year":"2018","lastUpdated":"2018-07-04T16:36:22.997795","changesets":0,"mappers":0,"roads":0,"buildings":0,"edits":0,"latest":null},"geometry":{"type":"Point","coordinates":[34.246062786235,-2.4162541152175003]}},{"type":"Feature","properties":{"title":"Tanzania Development Trust: Serengeti district mapping project part 2","id":2261,"area":11207.631576365555,"year":"2018","lastUpdated":"2018-05-22T06:15:57.092496","changesets":33972,"mappers":1624,"roads":29371.8658993649,"buildings":602966,"edits":917459,"latest":"2018-05-22T10:49:25.000Z"},"geometry":{"type":"Point","coordinates":[33.563361167907715,-1.6146094797775092]}},{"type":"Feature","properties":{"title":"MSD & JSI/USAID Tanzania Road Import - Kagera region","id":2000,"area":20054.048144070715,"year":"2017","lastUpdated":"2017-08-17T15:35:09.385364","changesets":0,"mappers":0,"roads":0,"buildings":0,"edits":0,"latest":null},"geometry":{"type":"Point","coordinates":[31.041926812127926,-2.3254413013888326]}},{"type":"Feature","properties":{"title":"MSD & JSI/USAID Tanzania Road Import - West Ruvuma region","id":1256,"area":10512.14514732082,"year":"2016","lastUpdated":"2016-04-04T16:27:39.061397","changesets":0,"mappers":0,"roads":0,"buildings":0,"edits":0,"latest":null},"geometry":{"type":"Point","coordinates":[35.73071423073114,-10.644452430898227]}},{"type":"Feature","properties":{"title":"Ngorongoro Conservation Area","id":1040,"area":8640.922363295951,"year":"2017","lastUpdated":"2017-04-25T12:38:43.230359","changesets":0,"mappers":0,"roads":0,"buildings":0,"edits":0,"latest":null},"geometry":{"type":"Point","coordinates":[35.421957288469606,-3.139810074677604]}},{"type":"Feature","properties":{"title":"Priority Villages, Kigoma Region, Tanzania Mini Grids Project","id":4779,"area":2340.2938543456194,"year":"2018","lastUpdated":"2018-06-27T23:26:21.748956","changesets":0,"mappers":0,"roads":0,"buildings":0,"edits":0,"latest":null},"geometry":{"type":"Point","coordinates":[30.81891173150636,-3.4042847246900707]}},{"type":"Feature","properties":{"title":"Peace Corps Tanzania -- Lushoto","id":1903,"area":69.21165370312055,"year":"2017","lastUpdated":"2017-09-19T04:44:26.195543","changesets":640,"mappers":88,"roads":126.39665147357,"buildings":9101,"edits":10836,"latest":"2017-07-28T23:41:56.000Z"},"geometry":{"type":"Point","coordinates":[38.303773299507476,-4.810238891566513]}},{"type":"Feature","properties":{"title":"MSD & JSI/USAID Tanzania Road Import - Tanga region","id":1921,"area":26453.26230241192,"year":"2016","lastUpdated":"2016-11-26T18:48:48.999774","changesets":0,"mappers":0,"roads":0,"buildings":0,"edits":0,"latest":null},"geometry":{"type":"Point","coordinates":[38.09654675335962,-5.362412457676792]}},{"type":"Feature","properties":{"title":"Lindi, Lindi, Tanzania Mini Grids Project 01","id":4487,"area":2262.000623549842,"year":"2018","lastUpdated":"2018-05-10T05:11:52.452673","changesets":1674,"mappers":68,"roads":0.902342152134417,"buildings":56663,"edits":56749,"latest":"2018-05-14T14:03:37.000Z"},"geometry":{"type":"Point","coordinates":[38.91537784774695,-10.060492523381807]}},{"type":"Feature","properties":{"title":"Priority Villages, Arusha Region, Tanzania Mini Grids Project","id":4799,"area":188.40438855389118,"year":"2018","lastUpdated":"2018-06-27T23:22:29.583572","changesets":0,"mappers":0,"roads":0,"buildings":0,"edits":0,"latest":null},"geometry":{"type":"Point","coordinates":[35.78268792390038,-2.52751411105647]}},{"type":"Feature","properties":{"title":"Mpwapwa, Dodoma, Tanzania Mini Grids Project 06","id":4419,"area":1290.5067497887903,"year":"2018","lastUpdated":"2018-06-30T10:06:16.399635","changesets":1155,"mappers":83,"roads":10.5444328149431,"buildings":44825,"edits":44856,"latest":"2018-05-11T13:20:05.000Z"},"geometry":{"type":"Point","coordinates":[36.618562445229166,-6.32822085806907]}},{"type":"Feature","properties":{"title":"Manyoni, Singida, Tanzania Mini Grids Project 03","id":4533,"area":2145.5742223790444,"year":"2018","lastUpdated":"2018-05-18T07:14:49.538516","changesets":1111,"mappers":60,"roads":11.822358790697,"buildings":20618,"edits":21074,"latest":"2018-05-18T13:10:25.000Z"},"geometry":{"type":"Point","coordinates":[35.212920812232916,-5.7381875379846266]}},{"type":"Feature","properties":{"title":"Karema Ward, Katavi, Tanzania Mini Grids Project 01","id":4402,"area":49.87575499116186,"year":"2018","lastUpdated":"2018-04-12T09:55:34.291247","changesets":83,"mappers":11,"roads":0,"buildings":1985,"edits":1985,"latest":"2018-04-12T09:55:03.000Z"},"geometry":{"type":"Point","coordinates":[30.45028626808132,-6.824839702555798]}},{"type":"Feature","properties":{"title":"Lindi, Lindi, Tanzania Mini Grids Project 03","id":4489,"area":1972.6554027241687,"year":"2018","lastUpdated":"2018-07-04T09:39:41.831448","changesets":876,"mappers":61,"roads":0.323312074015853,"buildings":36624,"edits":36652,"latest":"2018-05-10T11:23:34.000Z"},"geometry":{"type":"Point","coordinates":[39.183662563828705,-10.12342916029111]}},{"type":"Feature","properties":{"title":"Mpwapwa, Dodoma, Tanzania Mini Grids Project 08","id":4418,"area":69.68255741962724,"year":"2018","lastUpdated":"2018-05-19T20:42:24.261907","changesets":1926,"mappers":103,"roads":18.7990415103299,"buildings":25541,"edits":25683,"latest":"2018-05-19T20:41:29.000Z"},"geometry":{"type":"Point","coordinates":[36.46391177601475,-5.9448724542277525]}},{"type":"Feature","properties":{"title":"Kasulu, Kasulu, Tanzania Mini Grids Project 02","id":4569,"area":1983.2479906601172,"year":"2018","lastUpdated":"2018-06-21T06:42:11.871140","changesets":1278,"mappers":61,"roads":1.61390839422847,"buildings":45967,"edits":46297,"latest":"2018-06-14T13:38:32.000Z"},"geometry":{"type":"Point","coordinates":[30.10818888197763,-4.140006794490141]}},{"type":"Feature","properties":{"title":"Unkuku, Tanzania Mini Grids Project","id":4715,"area":61.28019264301011,"year":"2018","lastUpdated":"2018-06-11T10:35:32.819747","changesets":97,"mappers":36,"roads":0.0672879206278469,"buildings":5732,"edits":5741,"latest":"2018-06-11T07:40:02.000Z"},"geometry":{"type":"Point","coordinates":[35.81881696929818,-4.8916621717699]}},{"type":"Feature","properties":{"title":"Didia, Jomu, Singita in Shinyanga District, Tanzania Mini Grids Project","id":4695,"area":633.425618192545,"year":"2018","lastUpdated":"2018-06-07T13:04:55.031560","changesets":1071,"mappers":69,"roads":1.1515270702661,"buildings":35118,"edits":35234,"latest":"2018-06-14T10:23:19.000Z"},"geometry":{"type":"Point","coordinates":[33.189868583679996,-3.852090824045]}},{"type":"Feature","properties":{"title":"Chemba and Bahi Districts, Tanzania Mini Grids Project 01","id":4652,"area":2950.555321557993,"year":"2018","lastUpdated":"2018-06-06T01:12:59.251085","changesets":1731,"mappers":66,"roads":29.3981576364086,"buildings":66133,"edits":66262,"latest":"2018-06-05T14:50:27.000Z"},"geometry":{"type":"Point","coordinates":[35.69208315004388,-5.024101828866096]}},{"type":"Feature","properties":{"title":"Tabora, Tabora, Tanzania Mini Grids Project 03","id":4585,"area":1693.3910497782038,"year":"2018","lastUpdated":"2018-05-31T12:30:55.852006","changesets":1678,"mappers":65,"roads":5.09675418876548,"buildings":25872,"edits":26598,"latest":"2018-05-30T13:54:08.000Z"},"geometry":{"type":"Point","coordinates":[32.49827423592803,-5.097769430191667]}},{"type":"Feature","properties":{"title":"Lindi, Lindi, Tanzania Mini Grids Project 05","id":4499,"area":1350.3603655694978,"year":"2018","lastUpdated":"2018-06-29T06:38:06.752377","changesets":976,"mappers":65,"roads":1.10597043189381,"buildings":27788,"edits":27937,"latest":"2018-05-14T05:44:36.000Z"},"geometry":{"type":"Point","coordinates":[39.68909574499,-9.801786594046861]}},{"type":"Feature","properties":{"title":"S. Monduli, Simanjiro, Tanzania Mini Grids - MapSwipe Project 04 - 02","id":4479,"area":131.2262807333246,"year":"2018","lastUpdated":"2018-05-04T09:42:42.952002","changesets":136,"mappers":50,"roads":0.000165500103078919,"buildings":1412,"edits":1414,"latest":"2018-05-04T09:36:27.000Z"},"geometry":{"type":"Point","coordinates":[37.140374705660484,-4.974450733390372]}},{"type":"Feature","properties":{"title":"Tunduru, Ruvuma, Tanzania Mini Grids Project 05","id":4411,"area":1479.9129003136538,"year":"2018","lastUpdated":"2018-05-17T04:42:53.781681","changesets":1947,"mappers":62,"roads":3.59696148842831,"buildings":30085,"edits":30123,"latest":"2018-05-17T04:42:41.000Z"},"geometry":{"type":"Point","coordinates":[37.235568507342286,-10.889137167904732]}},{"type":"Feature","properties":{"title":"Songea Rural, Ruvuma, Tanzania Mini Grids Project 03","id":4704,"area":2223.7007441409824,"year":"2018","lastUpdated":"2018-06-11T13:01:49.315620","changesets":557,"mappers":52,"roads":0.224895113337331,"buildings":4504,"edits":4528,"latest":"2018-06-12T07:19:20.000Z"},"geometry":{"type":"Point","coordinates":[35.59727510395192,-10.089441618006344]}},{"type":"Feature","properties":{"title":"Njombe Region, Tanzania Mini Grids Project 07","id":4753,"area":2035.3854283933017,"year":"2018","lastUpdated":"2018-07-02T08:04:40.510728","changesets":0,"mappers":0,"roads":0,"buildings":0,"edits":0,"latest":null},"geometry":{"type":"Point","coordinates":[34.51311154966009,-9.51145731750423]}},{"type":"Feature","properties":{"title":"Songea Rural, Ruvuma, Tanzania Mini Grids Project 01","id":4703,"area":1371.4453556338517,"year":"2018","lastUpdated":"2018-06-11T08:41:44.101036","changesets":58,"mappers":25,"roads":0,"buildings":427,"edits":427,"latest":"2018-06-11T08:40:02.000Z"},"geometry":{"type":"Point","coordinates":[35.7822148323556,-9.35501676850386]}},{"type":"Feature","properties":{"title":"Njombe Region, Tanzania Mini Grids Project 04","id":4749,"area":2091.750428289223,"year":"2018","lastUpdated":"2018-06-18T07:46:36.914192","changesets":936,"mappers":55,"roads":0.223430429574353,"buildings":39632,"edits":39669,"latest":"2018-06-14T14:02:28.000Z"},"geometry":{"type":"Point","coordinates":[33.9500057389153,-9.205214087122197]}},{"type":"Feature","properties":{"title":"Missing Maps: Dar es Salaam - Ramani Huria 2.0 - 31","id":3452,"area":122.32342510735991,"year":"2018","lastUpdated":"2018-03-05T15:31:01.812805","changesets":2509,"mappers":42,"roads":423.609994409643,"buildings":6830,"edits":24947,"latest":"2017-11-07T07:20:37.000Z"},"geometry":{"type":"Point","coordinates":[39.138780106334046,-6.615628277176966]}},{"type":"Feature","properties":{"title":"S. Monduli, Simanjiro, Tanzania Mini Grids - MapSwipe Project 04 - 01","id":4480,"area":133.48441769177396,"year":"2018","lastUpdated":"2018-06-29T10:36:33.994267","changesets":391,"mappers":60,"roads":0,"buildings":4266,"edits":4266,"latest":"2018-05-04T13:40:19.000Z"},"geometry":{"type":"Point","coordinates":[36.51598942107269,-5.009138210253439]}},{"type":"Feature","properties":{"title":"Central Singida, Singida, Tanzania Mini Grids Project 02","id":4518,"area":1414.1192851427202,"year":"2018","lastUpdated":"2018-05-17T11:04:47.566760","changesets":882,"mappers":58,"roads":0.0239845493890909,"buildings":17063,"edits":17069,"latest":"2018-05-17T08:50:47.000Z"},"geometry":{"type":"Point","coordinates":[34.41588549629685,-5.109440949915025]}},{"type":"Feature","properties":{"title":"Mwanza","id":4074,"area":121.88924319716057,"year":"2018","lastUpdated":"2018-03-27T15:42:41.221237","changesets":6,"mappers":3,"roads":0.470326699343026,"buildings":24,"edits":42,"latest":"2018-03-27T15:44:50.000Z"},"geometry":{"type":"Point","coordinates":[33.126132567191135,-1.9238324242353735]}},{"type":"Feature","properties":{"title":"Chemba and Bahi Districts, Tanzania Mini Grids Project 02","id":4653,"area":1921.3143960736681,"year":"2018","lastUpdated":"2018-06-06T08:56:05.854973","changesets":1303,"mappers":60,"roads":0.436199179573519,"buildings":33413,"edits":33434,"latest":"2018-06-07T11:55:30.000Z"},"geometry":{"type":"Point","coordinates":[35.47357948199084,-6.541668254164324]}},{"type":"Feature","properties":{"title":"Rufiji, Pwani, Tanzania Mini Grids Project 04","id":4624,"area":1796.0668599205555,"year":"2018","lastUpdated":"2018-06-26T06:14:51.811334","changesets":299,"mappers":39,"roads":0.0542000845535752,"buildings":7308,"edits":7317,"latest":"2018-06-03T06:32:11.000Z"},"geometry":{"type":"Point","coordinates":[38.53147573879938,-7.800372604775588]}},{"type":"Feature","properties":{"title":"Missing Maps: Dar es Salaam - Ramani Huria 2.0 - 34","id":3456,"area":196.89167630800463,"year":"2018","lastUpdated":"2018-03-05T15:30:13.278824","changesets":3676,"mappers":139,"roads":587.388974612295,"buildings":20987,"edits":38292,"latest":"2017-11-13T11:24:48.000Z"},"geometry":{"type":"Point","coordinates":[39.100288211273984,-6.877221494935376]}},{"type":"Feature","properties":{"title":"Lamaiti Village, Tanzania Mini Grids Project","id":4636,"area":287.18127360801236,"year":"2018","lastUpdated":"2018-06-03T23:10:02.617305","changesets":510,"mappers":69,"roads":0.067806508631528,"buildings":6540,"edits":6550,"latest":"2018-06-04T09:04:54.000Z"},"geometry":{"type":"Point","coordinates":[35.4794601137225,-5.801276271989993]}},{"type":"Feature","properties":{"title":"Chato District Villages, Geita Region, Tanzania Mini Grids Project","id":4778,"area":4421.105608459506,"year":"2018","lastUpdated":"2018-06-27T00:16:36.042505","changesets":0,"mappers":0,"roads":0,"buildings":0,"edits":0,"latest":null},"geometry":{"type":"Point","coordinates":[31.98540590093474,-2.8573699057934006]}},{"type":"Feature","properties":{"title":"Zanzibar Roads - Unguja Island - 02","id":3666,"area":467.0999763333136,"year":"2017","lastUpdated":"2017-10-02T18:35:16.494476","changesets":182,"mappers":13,"roads":1127.1061948184,"buildings":5,"edits":6570,"latest":"2017-10-04T08:29:26.000Z"},"geometry":{"type":"Point","coordinates":[39.26414174907967,-5.856335474346869]}},{"type":"Feature","properties":{"title":"Kigoma_9","id":4090,"area":1.722690665551124,"year":"2018","lastUpdated":"2018-02-15T09:43:57.762973","changesets":290,"mappers":6,"roads":0.249339693562493,"buildings":1929,"edits":1941,"latest":"2018-02-15T09:43:50.000Z"},"geometry":{"type":"Point","coordinates":[29.825238216387262,-6.003663870933533]}},{"type":"Feature","properties":{"title":"Chemba and Bahi Districts, Tanzania Mini Grids Project 04","id":4655,"area":1954.7614953958484,"year":"2018","lastUpdated":"2018-06-06T12:45:47.017143","changesets":1237,"mappers":61,"roads":0.0887218633667997,"buildings":40885,"edits":40916,"latest":"2018-06-07T11:54:39.000Z"},"geometry":{"type":"Point","coordinates":[35.46191965125588,-6.090344630316677]}},{"type":"Feature","properties":{"title":"Njombe Region, Tanzania Mini Grids Project 02","id":4723,"area":1983.7355070009462,"year":"2018","lastUpdated":"2018-06-13T09:33:57.429622","changesets":1103,"mappers":56,"roads":0.208227637578225,"buildings":50720,"edits":50749,"latest":"2018-06-13T07:14:52.000Z"},"geometry":{"type":"Point","coordinates":[35.0200613677803,-9.007969824925567]}},{"type":"Feature","properties":{"title":"kagera_2","id":4071,"area":3.850874321865156,"year":"2018","lastUpdated":"2018-01-27T16:40:53.676551","changesets":0,"mappers":0,"roads":0,"buildings":0,"edits":0,"latest":null},"geometry":{"type":"Point","coordinates":[32.119615051499174,-1.4696475246974754]}},{"type":"Feature","properties":{"title":"Kigoma_12","id":4098,"area":3.729917625288736,"year":"2018","lastUpdated":"2018-02-12T06:54:13.338393","changesets":479,"mappers":6,"roads":0.434900266530263,"buildings":2941,"edits":2951,"latest":"2018-02-12T06:53:36.000Z"},"geometry":{"type":"Point","coordinates":[29.9389865678107,-5.924358173879355]}},{"type":"Feature","properties":{"title":"Mara","id":4073,"area":3.087873440053216,"year":"2018","lastUpdated":"2018-01-29T14:51:44.742950","changesets":0,"mappers":0,"roads":0,"buildings":0,"edits":0,"latest":null},"geometry":{"type":"Point","coordinates":[33.70828711361714,-1.4058350861409175]}},{"type":"Feature","properties":{"title":"Muheza malaria","id":4039,"area":580.7567384439337,"year":"2018","lastUpdated":"2018-06-01T20:37:30.159547","changesets":423,"mappers":18,"roads":9.04284919882175,"buildings":24405,"edits":24586,"latest":"2018-06-03T11:25:54.000Z"},"geometry":{"type":"Point","coordinates":[38.769019369140786,-5.149994286049941]}},{"type":"Feature","properties":{"title":"Njombe Region, Tanzania Mini Grids Project 05","id":4751,"area":1958.8180766909427,"year":"2018","lastUpdated":"2018-06-19T09:03:22.694006","changesets":36,"mappers":5,"roads":0.0235275492134219,"buildings":2806,"edits":2816,"latest":"2018-06-14T13:59:48.000Z"},"geometry":{"type":"Point","coordinates":[34.24006954195205,-9.299815802166696]}},{"type":"Feature","properties":{"title":"Songea Rural, Ruvuma, Tanzania Mini Grids Project 04","id":4705,"area":2147.5450650948856,"year":"2018","lastUpdated":"2018-06-11T12:32:37.891253","changesets":969,"mappers":50,"roads":0.278493274043511,"buildings":10699,"edits":10720,"latest":"2018-06-11T13:01:29.000Z"},"geometry":{"type":"Point","coordinates":[35.393237159829305,-10.381420075475273]}},{"type":"Feature","properties":{"title":"Missing Maps: Kyela - Data Zetu","id":3698,"area":251.55720854707542,"year":"2018","lastUpdated":"2018-04-05T07:21:35.195103","changesets":794,"mappers":11,"roads":1.82568061664987,"buildings":29269,"edits":29334,"latest":"2018-04-04T13:51:14.000Z"},"geometry":{"type":"Point","coordinates":[33.84069567931769,-9.544454940746501]}},{"type":"Feature","properties":{"title":"Kigoma_6","id":4087,"area":3.103362564009721,"year":"2018","lastUpdated":"2018-02-15T12:32:16.947516","changesets":201,"mappers":8,"roads":0.0059086431357116,"buildings":3802,"edits":3802,"latest":"2018-02-13T11:37:26.000Z"},"geometry":{"type":"Point","coordinates":[29.957718322358744,-6.483041975356721]}},{"type":"Feature","properties":{"title":"Mbeya minigrids","id":4208,"area":381.3150730146897,"year":"2018","lastUpdated":"2018-04-11T07:15:52.458810","changesets":8229,"mappers":81,"roads":545.472150450804,"buildings":454625,"edits":458780,"latest":"2018-03-29T12:55:24.000Z"},"geometry":{"type":"Point","coordinates":[33.273085375143864,-8.927145320940063]}},{"type":"Feature","properties":{"title":"Missing Maps: Dar es Salaam - Ramani Huria 2.0 - 36","id":3488,"area":375.46340276958506,"year":"2018","lastUpdated":"2018-03-05T15:28:01.583533","changesets":3567,"mappers":92,"roads":484.778915813184,"buildings":27629,"edits":38950,"latest":"2017-09-08T11:51:25.000Z"},"geometry":{"type":"Point","coordinates":[39.342418323976254,-6.900416957671596]}},{"type":"Feature","properties":{"title":"Chemba and Bahi Districts, Tanzania Mini Grids Project 06","id":4657,"area":1954.498784623165,"year":"2018","lastUpdated":"2018-06-14T09:15:54.656575","changesets":1739,"mappers":67,"roads":0.0871877791220345,"buildings":23455,"edits":23473,"latest":"2018-06-15T19:15:22.000Z"},"geometry":{"type":"Point","coordinates":[35.518366503705884,-5.7085387258819065]}},{"type":"Feature","properties":{"title":"Kigoma_2","id":4083,"area":1.965158778543636,"year":"2018","lastUpdated":"2018-01-30T14:05:17.983249","changesets":127,"mappers":2,"roads":0,"buildings":458,"edits":458,"latest":"2018-01-30T14:04:27.000Z"},"geometry":{"type":"Point","coordinates":[30.490210022071953,-6.813742245754607]}},{"type":"Feature","properties":{"title":"Kagera_Goziba","id":4068,"area":1.2825061201820658,"year":"2018","lastUpdated":"2018-01-27T17:08:13.788121","changesets":1,"mappers":1,"roads":0,"buildings":0,"edits":0,"latest":"2018-01-27T17:01:56.000Z"},"geometry":{"type":"Point","coordinates":[32.613511747768825,-1.4704431873747166]}},{"type":"Feature","properties":{"title":"Songea Rural, Ruvuma, Tanzania Mini Grids Project 07","id":4721,"area":2150.916415219976,"year":"2018","lastUpdated":"2018-06-14T07:42:10.260484","changesets":527,"mappers":55,"roads":0.110758162123934,"buildings":9680,"edits":9693,"latest":"2018-06-13T11:23:25.000Z"},"geometry":{"type":"Point","coordinates":[35.565031022546556,-11.40219846168882]}},{"type":"Feature","properties":{"title":"Missing Maps: Dar es Salaam - Ramani Huria 2.0 - 27","id":3424,"area":230.31173426208932,"year":"2018","lastUpdated":"2018-03-05T15:33:58.772352","changesets":2533,"mappers":79,"roads":1585.23523604963,"buildings":328,"edits":20922,"latest":"2017-08-31T08:30:39.000Z"},"geometry":{"type":"Point","coordinates":[39.10027660536416,-7.025038398924583]}},{"type":"Feature","properties":{"title":"Kasulu, Kasulu, Tanzania Mini Grids Project 01","id":4563,"area":1132.117945620699,"year":"2018","lastUpdated":"2018-06-22T13:47:54.809568","changesets":1310,"mappers":61,"roads":4.4589988692498,"buildings":43149,"edits":43451,"latest":"2018-06-14T14:03:31.000Z"},"geometry":{"type":"Point","coordinates":[30.223387298585,-4.60036034805499]}},{"type":"Feature","properties":{"title":"Missing Maps: Temeke - Data Zetu","id":3699,"area":14.051390146474496,"year":"2018","lastUpdated":"2018-03-04T22:52:17.712834","changesets":931,"mappers":30,"roads":58.5254100191776,"buildings":29137,"edits":33372,"latest":"2018-03-09T20:29:21.000Z"},"geometry":{"type":"Point","coordinates":[39.26423919262868,-6.891846441400092]}},{"type":"Feature","properties":{"title":"Mwanza_sengerema","id":4069,"area":126.12964780900826,"year":"2018","lastUpdated":"2018-01-27T16:59:18.497099","changesets":1,"mappers":1,"roads":0,"buildings":0,"edits":0,"latest":"2018-01-27T16:55:51.000Z"},"geometry":{"type":"Point","coordinates":[32.01839321825404,-2.2808662314499273]}},{"type":"Feature","properties":{"title":"Kagera_Goziba","id":4079,"area":1.1395975392255964,"year":"2018","lastUpdated":"2018-01-29T07:04:24.380360","changesets":0,"mappers":0,"roads":0,"buildings":0,"edits":0,"latest":null},"geometry":{"type":"Point","coordinates":[32.61356799061652,-1.4704301698877245]}},{"type":"Feature","properties":{"title":"RiftValley Energy houses count","id":4034,"area":3182.0339068213334,"year":"2018","lastUpdated":"2018-02-13T06:50:28.478981","changesets":1196,"mappers":18,"roads":2.25560241095202,"buildings":73824,"edits":74303,"latest":"2018-02-13T09:48:18.000Z"},"geometry":{"type":"Point","coordinates":[35.64345427782045,-8.381566823262816]}},{"type":"Feature","properties":{"title":"Kigoma_11","id":4097,"area":4.492849273495634,"year":"2018","lastUpdated":"2018-02-09T07:33:00.557116","changesets":215,"mappers":4,"roads":0,"buildings":5705,"edits":5705,"latest":"2018-02-09T07:23:31.000Z"},"geometry":{"type":"Point","coordinates":[29.899492785288036,-5.944963869712221]}},{"type":"Feature","properties":{"title":"Kigoma_14","id":4100,"area":0.8979043606940176,"year":"2018","lastUpdated":"2018-02-16T06:09:02.081829","changesets":179,"mappers":9,"roads":0,"buildings":906,"edits":906,"latest":"2018-02-16T06:08:51.000Z"},"geometry":{"type":"Point","coordinates":[29.64091800036702,-4.624237761570404]}},{"type":"Feature","properties":{"title":"TZ IFC Mini-grids house count test-2","id":4036,"area":481.70619678590833,"year":"2018","lastUpdated":"2018-02-15T13:20:01.029773","changesets":2181,"mappers":13,"roads":36.3868917119351,"buildings":181981,"edits":182647,"latest":"2018-02-23T15:15:42.000Z"},"geometry":{"type":"Point","coordinates":[34.581446410258884,-7.300716320272623]}},{"type":"Feature","properties":{"title":"Itona_Kilosa","id":4179,"area":741.6959938125862,"year":"2018","lastUpdated":"2018-04-11T06:43:22.814485","changesets":409,"mappers":55,"roads":1.35885332610885,"buildings":3691,"edits":3744,"latest":"2018-04-11T07:21:08.000Z"},"geometry":{"type":"Point","coordinates":[35.53547612786605,-8.535150251339573]}},{"type":"Feature","properties":{"title":"Kigoma_5","id":4086,"area":3.7491092848574272,"year":"2018","lastUpdated":"2018-02-09T15:21:14.358247","changesets":156,"mappers":6,"roads":0.459783989828362,"buildings":1942,"edits":1948,"latest":"2018-02-07T11:29:30.000Z"},"geometry":{"type":"Point","coordinates":[30.01864971055042,-6.469512478105855]}},{"type":"Feature","properties":{"title":"Ardhi University: Housing Development - Arusha City","id":3937,"area":28.84666648523269,"year":"2018","lastUpdated":"2018-03-15T09:06:53.133923","changesets":1278,"mappers":35,"roads":22.2386466845665,"buildings":3644,"edits":3818,"latest":"2018-05-11T01:10:09.000Z"},"geometry":{"type":"Point","coordinates":[36.790300973849895,-3.3836324243588614]}},{"type":"Feature","properties":{"title":"TZ IFC Mini-grids house count test","id":3876,"area":481.70619678590833,"year":"2018","lastUpdated":"2018-01-17T09:18:38.631606","changesets":3458,"mappers":35,"roads":5.06366089326074,"buildings":275823,"edits":276862,"latest":"2018-02-20T15:26:25.000Z"},"geometry":{"type":"Point","coordinates":[34.581446410258884,-7.300716320272623]}},{"type":"Feature","properties":{"title":"Tanzania Development Trust: Tabora district mapping project","id":2361,"area":11331.719987775972,"year":"2018","lastUpdated":"2018-06-29T13:15:53.251740","changesets":11628,"mappers":420,"roads":28491.8019961001,"buildings":316261,"edits":517513,"latest":"2018-06-13T09:15:01.000Z"},"geometry":{"type":"Point","coordinates":[32.92552601207387,-4.978413388219568]}},{"type":"Feature","properties":{"title":"Urambo, Tabora, Tanzania Mini Grids Project 03","id":4365,"area":1398.7624508238905,"year":"2018","lastUpdated":"2018-07-04T09:14:48.213836","changesets":1186,"mappers":64,"roads":0.0350233998501786,"buildings":32670,"edits":32678,"latest":"2018-04-13T13:08:47.000Z"},"geometry":{"type":"Point","coordinates":[31.89778350716778,-5.22060588533778]}},{"type":"Feature","properties":{"title":"Bankolo Village, Tanzania Mini Grids Project","id":4649,"area":2.655569135969413,"year":"2018","lastUpdated":"2018-06-03T23:07:59.384606","changesets":23,"mappers":10,"roads":0,"buildings":35,"edits":35,"latest":"2018-06-02T09:43:11.000Z"},"geometry":{"type":"Point","coordinates":[35.452022531029996,-5.83740181330499]}},{"type":"Feature","properties":{"title":"Tanzania Development Trust: Msisi ward community mapping project ","id":3160,"area":81.67279767012198,"year":"2018","lastUpdated":"2018-04-26T00:17:28.085993","changesets":0,"mappers":0,"roads":0,"buildings":0,"edits":0,"latest":null},"geometry":{"type":"Point","coordinates":[34.66563340576518,-4.623019740570436]}},{"type":"Feature","properties":{"title":"Missing Maps: Mbeya - Data Zetu","id":3697,"area":39.48024643275634,"year":"2018","lastUpdated":"2018-03-05T06:16:20.685049","changesets":2340,"mappers":21,"roads":8.22290546014696,"buildings":79467,"edits":79938,"latest":"2018-03-05T10:02:12.000Z"},"geometry":{"type":"Point","coordinates":[33.45143106176986,-8.924156507539553]}},{"type":"Feature","properties":{"title":"Kigoma_1","id":4082,"area":3.220895758602432,"year":"2018","lastUpdated":"2018-01-30T09:22:24.958026","changesets":128,"mappers":5,"roads":0,"buildings":3113,"edits":3113,"latest":"2018-02-19T11:05:31.000Z"},"geometry":{"type":"Point","coordinates":[30.44210254746399,-6.82158989076395]}},{"type":"Feature","properties":{"title":"Mivumoni Village, Pangani District, Tanzania Mini Grids Project","id":4699,"area":0.818188879689272,"year":"2018","lastUpdated":"2018-06-07T14:22:25.703646","changesets":78,"mappers":17,"roads":0.0276900086096642,"buildings":366,"edits":370,"latest":"2018-06-07T14:01:00.000Z"},"geometry":{"type":"Point","coordinates":[38.903763126037596,-5.307186790941633]}},{"type":"Feature","properties":{"title":"Missing Maps: Dar es Salaam - Ramani Huria 2.0 - 22","id":3394,"area":193.3069912960159,"year":"2018","lastUpdated":"2018-03-05T15:37:43.885692","changesets":1930,"mappers":58,"roads":1.39294643325465,"buildings":23844,"edits":24048,"latest":"2017-08-13T19:03:52.000Z"},"geometry":{"type":"Point","coordinates":[39.08408207500271,-7.020948492257043]}},{"type":"Feature","properties":{"title":"Zanzibar Roads - Unguja Island - 01","id":3650,"area":234.75514110431052,"year":"2017","lastUpdated":"2017-10-07T12:29:26.306281","changesets":573,"mappers":18,"roads":1191.68951939582,"buildings":43,"edits":17373,"latest":"2017-10-07T12:28:50.000Z"},"geometry":{"type":"Point","coordinates":[39.248176202742364,-6.1821500381296275]}},{"type":"Feature","properties":{"title":"Missing Maps: Dar es Salaam - Ramani Huria 2.0 - 33","id":3455,"area":156.72153831900792,"year":"2018","lastUpdated":"2018-03-05T15:30:37.208960","changesets":2954,"mappers":102,"roads":579.977370621098,"buildings":21094,"edits":39085,"latest":"2017-10-29T15:21:56.000Z"},"geometry":{"type":"Point","coordinates":[39.06687201276458,-6.7708713265034515]}},{"type":"Feature","properties":{"title":"Missing Maps: Dar es Salaam - Ramani Huria 2.0 - 39","id":3505,"area":96.83711970341507,"year":"2018","lastUpdated":"2018-03-04T23:01:32.143525","changesets":3897,"mappers":79,"roads":269.298159883004,"buildings":48923,"edits":63495,"latest":"2017-09-18T11:50:06.000Z"},"geometry":{"type":"Point","coordinates":[39.305843254526984,-6.840568905719535]}},{"type":"Feature","properties":{"title":"kagera_3","id":4072,"area":5.425110699350517,"year":"2018","lastUpdated":"2018-01-29T13:51:44.560135","changesets":66,"mappers":4,"roads":0,"buildings":1436,"edits":1436,"latest":"2018-01-30T06:14:28.000Z"},"geometry":{"type":"Point","coordinates":[31.78296036744672,-1.9859577129840518]}}],"totalArea":5843070.028922307,"Benin":[{"type":"Feature","properties":{"title":"Map & Jerry","id":4343,"area":317.29186376347053,"year":"2018","lastUpdated":"2018-03-21T10:40:03.241827","changesets":0,"mappers":0,"roads":0,"buildings":0,"edits":0,"latest":null},"geometry":{"type":"Point","coordinates":[1.8034636010098666,6.321751338384097]}},{"type":"Feature","properties":{"title":"Peace Corps Benin - Peonga","id":1117,"area":86.91690202913817,"year":"2016","lastUpdated":"2016-11-22T04:50:10.648180","changesets":300,"mappers":25,"roads":246.345212644103,"buildings":3279,"edits":5160,"latest":"2018-01-27T06:33:14.000Z"},"geometry":{"type":"Point","coordinates":[3.2565606724132197,10.319696947023784]}},{"type":"Feature","properties":{"title":"Cartographie de Parakou - EOF 2013","id":302,"area":22.41710471837181,"year":"2017","lastUpdated":"2017-04-23T12:32:48.996384","changesets":1837,"mappers":8,"roads":121.341340234675,"buildings":11879,"edits":12765,"latest":"2018-04-14T13:25:00.000Z"},"geometry":{"type":"Point","coordinates":[2.6231956478282625,9.340690595601995]}},{"type":"Feature","properties":{"title":"Missing Maps: Dangbo, Benin","id":2037,"area":8.901602462274079,"year":"2018","lastUpdated":"2018-04-08T14:34:10.968052","changesets":338,"mappers":31,"roads":56.9895503678963,"buildings":3437,"edits":4862,"latest":"2018-04-08T14:38:32.000Z"},"geometry":{"type":"Point","coordinates":[2.5524044036865225,6.58779057325721]}},{"type":"Feature","properties":{"title":"Mapping Lassa fever risk areas: Tanguieta (Northwest) Benin","id":4766,"area":8.051325587796072,"year":"2018","lastUpdated":"2018-06-29T23:51:16.628772","changesets":0,"mappers":0,"roads":0,"buildings":0,"edits":0,"latest":null},"geometry":{"type":"Point","coordinates":[1.2693025222996546,10.632902941769824]}}],"Uganda":[{"type":"Feature","properties":{"title":"Salesforce, Uganda Crowd-Sourcing Non-Camp Refugee Data (Urban Mapping) Rubaga Division Part 1, Kampala District","id":4327,"area":8.40126840870032,"year":"2018","lastUpdated":"2018-07-05T08:54:53.734362","changesets":3087,"mappers":184,"roads":3.01395009336934,"buildings":18490,"edits":18585,"latest":"2018-05-29T05:30:41.000Z"},"geometry":{"type":"Point","coordinates":[32.54524653779347,0.3421427883853258]}},{"type":"Feature","properties":{"title":"Uganda Crowd-Sourcing Non-Camp Refugee Data,Rwanzu, Busanza,Nyamagana,Busengo Villages Kisoro District","id":4297,"area":54.61581088784912,"year":"2018","lastUpdated":"2018-05-23T05:39:56.832232","changesets":1018,"mappers":75,"roads":23.0541164186441,"buildings":7173,"edits":7248,"latest":"2018-05-23T05:38:36.000Z"},"geometry":{"type":"Point","coordinates":[29.617397280324827,-1.2450696703101722]}},{"type":"Feature","properties":{"title":"Uganda Crowd-sourcing Non-Camp Refugee Data Nyakabande, Kagoma,Mutolere Villages, Kisoro District Base Mapping","id":4288,"area":49.58167859253421,"year":"2018","lastUpdated":"2018-03-27T18:21:23.444372","changesets":539,"mappers":42,"roads":7.95023042536063,"buildings":6741,"edits":6803,"latest":"2018-03-27T19:25:55.000Z"},"geometry":{"type":"Point","coordinates":[29.747966832204348,-1.3098261507978273]}},{"type":"Feature","properties":{"title":"Uganda Crowdsourcing Non-Camp Refugee Data, Paludar, Padwar Villages, Lamwo District","id":4267,"area":64.49965935741052,"year":"2018","lastUpdated":"2018-03-18T22:47:09.770063","changesets":387,"mappers":46,"roads":200.562108394955,"buildings":15053,"edits":15640,"latest":"2018-04-10T03:36:42.000Z"},"geometry":{"type":"Point","coordinates":[32.47096378217274,3.3937796017558117]}},{"type":"Feature","properties":{"title":"Uganda Crowdsourcing Non-Camp Refugee Data, Rwamwanja Refugee Settlement, Kamwenge District","id":4798,"area":343.59803817321034,"year":"2018","lastUpdated":"2018-07-08T11:40:22.077628","changesets":0,"mappers":0,"roads":0,"buildings":0,"edits":0,"latest":null},"geometry":{"type":"Point","coordinates":[30.67052946158785,0.3056601787846434]}},{"type":"Feature","properties":{"title":"Uganda Crowdsourcing Non-Camp Refugee Data, Oruchinga, Isingiro District","id":4829,"area":362.6687747467698,"year":"2018","lastUpdated":"2018-07-07T00:37:26.795233","changesets":0,"mappers":0,"roads":0,"buildings":0,"edits":0,"latest":null},"geometry":{"type":"Point","coordinates":[30.65006556725022,-0.936229954514776]}},{"type":"Feature","properties":{"title":"Adjumani Town","id":3193,"area":12.19607221223854,"year":"2018","lastUpdated":"2018-03-04T20:23:05.222565","changesets":660,"mappers":41,"roads":139.726730765495,"buildings":12885,"edits":15350,"latest":"2017-09-24T10:56:17.000Z"},"geometry":{"type":"Point","coordinates":[31.787351208518825,3.368821069260979]}},{"type":"Feature","properties":{"title":"MapUganda - Phase 2: Tororo (Butaleja, Namutumba, Bugiri, Namiyango and Busia)","id":1437,"area":5529.26414171349,"year":"2018","lastUpdated":"2018-05-21T15:50:07.552229","changesets":458,"mappers":95,"roads":798.507032670049,"buildings":7900,"edits":12313,"latest":"2018-05-21T15:30:01.000Z"},"geometry":{"type":"Point","coordinates":[33.95315401570563,0.6248404540072142]}},{"type":"Feature","properties":{"title":"Uganda Crowd-sourcing Non-Camp Refugee Data, Offaka, Anyiribu Subcounty, Arua District Base Mapping","id":4314,"area":292.26457151971164,"year":"2018","lastUpdated":"2018-04-03T16:10:44.554351","changesets":1614,"mappers":182,"roads":169.132518589228,"buildings":11036,"edits":12198,"latest":"2018-03-29T15:15:29.000Z"},"geometry":{"type":"Point","coordinates":[31.089419945984925,2.6427265966896725]}},{"type":"Feature","properties":{"title":"Uganda Crowd-sourcing Non-Camp Refugee Data, Rwebisengo, Kahondo, Makondo Villages, Ntoroko District Base Mapping","id":4295,"area":162.10041758428503,"year":"2018","lastUpdated":"2018-05-25T05:31:04.061957","changesets":1286,"mappers":54,"roads":10.4920207350625,"buildings":3532,"edits":3557,"latest":"2018-04-04T00:30:34.000Z"},"geometry":{"type":"Point","coordinates":[30.27564502638289,1.0482015863826952]}},{"type":"Feature","properties":{"title":"Salesforce, Uganda Crowd-Sourcing Non-Camp Refugee Data (Urban Mapping), Rubaga Division Part 2, Kampala District","id":4328,"area":10.441771719335271,"year":"2018","lastUpdated":"2018-04-03T16:09:44.121669","changesets":2540,"mappers":106,"roads":12.5259851096213,"buildings":12470,"edits":12759,"latest":"2018-03-30T13:26:57.000Z"},"geometry":{"type":"Point","coordinates":[32.532463481935196,0.31771719846770996]}},{"type":"Feature","properties":{"title":"Uganda Crowd-sourcing Non-Camp Refugee Data (Urban Mapping), Hoima Municipality, Hoima District","id":4593,"area":40.21494542121517,"year":"2018","lastUpdated":"2018-07-05T19:10:33.534406","changesets":647,"mappers":135,"roads":14.2171444025833,"buildings":7146,"edits":7297,"latest":"2018-06-15T10:53:42.000Z"},"geometry":{"type":"Point","coordinates":[31.345254619743375,1.4316581460231461]}},{"type":"Feature","properties":{"title":"Uganda - Bridges to Prosperity - Bridge AOI Mapping","id":4322,"area":6.405450259715074,"year":"2018","lastUpdated":"2018-04-09T09:23:54.404545","changesets":140,"mappers":11,"roads":52.7012264258264,"buildings":1606,"edits":1975,"latest":"2018-04-09T05:13:11.000Z"},"geometry":{"type":"Point","coordinates":[34.2550464453546,1.1160398032570225]}},{"type":"Feature","properties":{"title":"Uganda Crowd-sourcing Non-Camp Refugee Data,Vurra Subcounty, Arua","id":4686,"area":125.97781211607399,"year":"2018","lastUpdated":"2018-07-06T22:15:51.455605","changesets":428,"mappers":49,"roads":2.55470864636047,"buildings":2717,"edits":2735,"latest":"2018-06-17T08:28:04.000Z"},"geometry":{"type":"Point","coordinates":[30.908277625357083,2.891373568463031]}},{"type":"Feature","properties":{"title":"Uganda Crowdsourcing Non-Camp Refugee Data, Palabek Kal, Lamwo Distrcit","id":4268,"area":84.40290946779128,"year":"2018","lastUpdated":"2018-05-10T14:31:40.842466","changesets":399,"mappers":64,"roads":49.6563847880299,"buildings":6125,"edits":6415,"latest":"2018-03-27T16:26:33.000Z"},"geometry":{"type":"Point","coordinates":[32.56513191674855,3.3711969971804834]}},{"type":"Feature","properties":{"title":"Uganda Crowd-Sourcing Non-Camp Refugee Data,Bunagana, Bwanjebe,Nkanda Villages, Kisoro District","id":4296,"area":75.2889012665682,"year":"2018","lastUpdated":"2018-04-03T16:11:20.829940","changesets":841,"mappers":83,"roads":60.2114211103457,"buildings":12618,"edits":12986,"latest":"2018-03-22T04:32:52.000Z"},"geometry":{"type":"Point","coordinates":[29.623110965844802,-1.3338247671419492]}},{"type":"Feature","properties":{"title":"Uganda Open Mapping - Ggaaba Parish, Kampala City","id":4360,"area":6.9888601486311845,"year":"2018","lastUpdated":"2018-04-06T15:02:52.228020","changesets":637,"mappers":69,"roads":14.4832036693082,"buildings":5657,"edits":5981,"latest":"2018-04-11T10:44:28.000Z"},"geometry":{"type":"Point","coordinates":[32.63390846096743,0.26019887977613626]}},{"type":"Feature","properties":{"title":"Uganda Crowd-sourcing Non-Camp Refugee Data - Roads (GPX Tracks) Mapping Arua District","id":4701,"area":4395.597295670786,"year":"2018","lastUpdated":"2018-07-08T11:01:56.938765","changesets":27,"mappers":6,"roads":322.395536757789,"buildings":754,"edits":1818,"latest":"2018-06-17T09:47:02.000Z"},"geometry":{"type":"Point","coordinates":[31.074578862085442,2.9228176868678046]}},{"type":"Feature","properties":{"title":"Uganda Crowdsourcing Non-Camp Refugee Data (Urban Mapping) Kampala Nakawa Division Part 1","id":4371,"area":27.407181548683663,"year":"2018","lastUpdated":"2018-06-18T17:12:28.543325","changesets":2418,"mappers":383,"roads":67.641466541415,"buildings":56190,"edits":57455,"latest":"2018-06-17T08:15:23.000Z"},"geometry":{"type":"Point","coordinates":[32.64702688918785,0.3114578744389416]}},{"type":"Feature","properties":{"title":"Uganda Crowdsourcing Non-Camp Refugee Data Base Mapping, Kyangwali Area, Hoima, Kagadi District","id":4277,"area":223.49057286073074,"year":"2018","lastUpdated":"2018-06-26T08:53:42.433904","changesets":1363,"mappers":182,"roads":169.046331057569,"buildings":21325,"edits":22452,"latest":"2018-06-13T18:57:27.000Z"},"geometry":{"type":"Point","coordinates":[30.773839361582926,1.1603113359856785]}},{"type":"Feature","properties":{"title":"Salesforce, Uganda Crowd-sourcing Non-Camp Refugee Data (Urban Mapping), Kansanga, Kibuli, Namuwongo","id":4133,"area":5.519847154808274,"year":"2018","lastUpdated":"2018-03-23T08:13:18.528307","changesets":1289,"mappers":114,"roads":1.69459137017284,"buildings":6253,"edits":6365,"latest":"2018-03-14T19:38:14.000Z"},"geometry":{"type":"Point","coordinates":[32.60050128803857,0.30110921276286007]}},{"type":"Feature","properties":{"title":"Salesforce, Uganda Crowd-sourcing Non-Camp Refugee Data (Urban Mapping), Ndeeba, Wankulukuku","id":4135,"area":4.371431618487186,"year":"2018","lastUpdated":"2018-03-27T16:15:22.176595","changesets":1031,"mappers":144,"roads":9.29574392161781,"buildings":10517,"edits":10741,"latest":"2018-04-03T08:49:40.000Z"},"geometry":{"type":"Point","coordinates":[32.55563010348889,0.2863901650888876]}},{"type":"Feature","properties":{"title":"Boroli, Olua, Ayilo Refugee Camps Adjumani Area","id":3169,"area":58.972945959980706,"year":"2018","lastUpdated":"2018-01-09T06:12:06.405415","changesets":579,"mappers":52,"roads":532.999212699442,"buildings":5886,"edits":12023,"latest":"2018-01-09T06:11:28.000Z"},"geometry":{"type":"Point","coordinates":[31.91597197614515,3.297109569335478]}},{"type":"Feature","properties":{"title":"Peace Corps Uganda - Masaka","id":1196,"area":43.130343075892235,"year":"2018","lastUpdated":"2018-04-17T21:06:34.717732","changesets":741,"mappers":102,"roads":231.711531316098,"buildings":15963,"edits":18969,"latest":"2018-04-17T22:43:56.000Z"},"geometry":{"type":"Point","coordinates":[31.744541440691275,-0.3259157183268582]}},{"type":"Feature","properties":{"title":"Bwaise Tracing","id":99,"area":0.8424582471365009,"year":"2016","lastUpdated":"2016-03-02T12:08:00.918169","changesets":3,"mappers":1,"roads":0.0924258716863386,"buildings":0,"edits":3,"latest":"2014-12-16T08:53:26.000Z"},"geometry":{"type":"Point","coordinates":[32.55938243412958,0.3497321340591482]}},{"type":"Feature","properties":{"title":"MapUganda - Phase 1: Mbale (Pallisa, Kaliro, Kibuku and Budaka)","id":1436,"area":2884.303189069722,"year":"2018","lastUpdated":"2018-06-12T12:17:49.895807","changesets":1016,"mappers":108,"roads":738.351789746933,"buildings":9969,"edits":14499,"latest":"2018-06-12T12:16:12.000Z"},"geometry":{"type":"Point","coordinates":[33.791325042282985,1.121642906759647]}},{"type":"Feature","properties":{"title":"Uganda CrowdSourcing Non-Refugee Data, Isingiro District","id":4497,"area":1029.2287197351604,"year":"2018","lastUpdated":"2018-05-23T20:34:53.947108","changesets":2552,"mappers":270,"roads":344.47992231982,"buildings":25805,"edits":26685,"latest":"2018-05-24T11:09:35.000Z"},"geometry":{"type":"Point","coordinates":[31.00773680704972,-0.8648341878436095]}}],"Ghana":[{"type":"Feature","properties":{"title":"Accra Central, Ghana - Yemaapi Ghana - Amenities","id":4246,"area":22.885056272610363,"year":"2018","lastUpdated":"2018-04-24T21:34:40.893170","changesets":14,"mappers":2,"roads":2.05465144407666,"buildings":27,"edits":62,"latest":"2018-04-24T21:33:24.000Z"},"geometry":{"type":"Point","coordinates":[-0.20225953831790586,5.555422659876964]}},{"type":"Feature","properties":{"title":"Colleges of Education  (Ghana) - learn about relations and how to validate them","id":3296,"area":270.8033752270311,"year":"2018","lastUpdated":"2018-01-24T19:23:18.869564","changesets":212,"mappers":19,"roads":82.1060465896964,"buildings":2818,"edits":4591,"latest":"2018-01-24T19:39:28.000Z"},"geometry":{"type":"Point","coordinates":[-0.9084750055668072,7.18968153921742]}},{"type":"Feature","properties":{"title":"Tarkwa, Ghana - Yemaapi Ghana - Amenities","id":4249,"area":28.659723787299637,"year":"2018","lastUpdated":"2018-03-02T04:25:17.686752","changesets":5,"mappers":2,"roads":0,"buildings":54,"edits":54,"latest":"2018-06-07T16:19:32.000Z"},"geometry":{"type":"Point","coordinates":[-1.9910479955371894,5.294347901167613]}},{"type":"Feature","properties":{"title":"Accra University, Ghana - Yemaapi Ghana - Amenities","id":4247,"area":42.09203843894026,"year":"2018","lastUpdated":"2018-03-02T04:26:07.923336","changesets":0,"mappers":0,"roads":0,"buildings":0,"edits":0,"latest":null},"geometry":{"type":"Point","coordinates":[-0.20821913207630852,5.639828746175439]}},{"type":"Feature","properties":{"title":"Kumasi, Ghana","id":4767,"area":505.4883488037384,"year":"2018","lastUpdated":"2018-06-28T16:34:25.561216","changesets":0,"mappers":0,"roads":0,"buildings":0,"edits":0,"latest":null},"geometry":{"type":"Point","coordinates":[-1.612772001818897,6.69798614251772]}},{"type":"Feature","properties":{"title":"Missing Maps: Ghana, Volta River, Kpong Area 3 Floodplain","id":3874,"area":145.03709642120728,"year":"2018","lastUpdated":"2018-02-01T00:29:33.263594","changesets":0,"mappers":0,"roads":0,"buildings":0,"edits":0,"latest":null},"geometry":{"type":"Point","coordinates":[0.38901036512433784,6.080405144510951]}},{"type":"Feature","properties":{"title":"Kumasi, Ghana - Yemaapi Ghana - Amenities","id":4248,"area":43.03637157395998,"year":"2018","lastUpdated":"2018-03-02T04:26:31.637441","changesets":1,"mappers":1,"roads":0.00536883682056749,"buildings":0,"edits":3,"latest":"2018-03-12T07:15:35.000Z"},"geometry":{"type":"Point","coordinates":[-1.595349232125805,6.686407857464747]}}],"Vietnam":[{"type":"Feature","properties":{"title":"Missing Maps: Viet Nam, Can Tho, Bhin Thuy 2","id":4230,"area":10.207076955580114,"year":"2018","lastUpdated":"2018-06-14T17:28:39.204430","changesets":535,"mappers":20,"roads":0.00105022403918742,"buildings":1045,"edits":1084,"latest":"2018-06-14T17:29:13.000Z"},"geometry":{"type":"Point","coordinates":[105.71058748956719,10.087919204625848]}},{"type":"Feature","properties":{"title":"Missing Maps: Viet Nam, Can Tho, Bhin Thuy 5","id":4233,"area":13.25552440463144,"year":"2018","lastUpdated":"2018-06-11T19:34:48.785877","changesets":318,"mappers":60,"roads":0.586709011599009,"buildings":3757,"edits":3787,"latest":"2018-06-11T18:45:15.000Z"},"geometry":{"type":"Point","coordinates":[105.72195515586915,10.023206899068182]}},{"type":"Feature","properties":{"title":"Missing Maps: Viet Nam, Can Tho, Bhin Thuy 1","id":4229,"area":17.220255872830155,"year":"2018","lastUpdated":"2018-06-14T17:24:00.797542","changesets":365,"mappers":37,"roads":0.731634843022613,"buildings":1882,"edits":1939,"latest":"2018-06-14T17:30:17.000Z"},"geometry":{"type":"Point","coordinates":[105.7478608999426,10.065514099191459]}},{"type":"Feature","properties":{"title":"Missing Maps: Hoa Nhon, Da Nang, Viet Nam","id":4595,"area":32.75607542042544,"year":"2018","lastUpdated":"2018-07-04T10:14:05.075018","changesets":494,"mappers":128,"roads":158.992831191405,"buildings":4548,"edits":5741,"latest":"2018-06-16T22:00:51.000Z"},"geometry":{"type":"Point","coordinates":[108.11778095392042,16.016404351515657]}},{"type":"Feature","properties":{"title":"Sentinel Asia Mini-Project: Ha Tinh province, Vietnam","id":747,"area":206.63304319804345,"year":"2017","lastUpdated":"2017-09-23T02:02:22.340470","changesets":59,"mappers":21,"roads":1751.04685485703,"buildings":793,"edits":19402,"latest":"2018-05-31T16:02:42.000Z"},"geometry":{"type":"Point","coordinates":[105.61603546142574,18.596598988171976]}},{"type":"Feature","properties":{"title":"Missing Maps: Viet Nam, Can Tho, Bhin Thuy 3","id":4231,"area":12.159936973857945,"year":"2018","lastUpdated":"2018-06-14T17:28:49.161721","changesets":344,"mappers":29,"roads":2.41565497903031,"buildings":1455,"edits":1481,"latest":"2018-06-14T17:26:40.000Z"},"geometry":{"type":"Point","coordinates":[105.68512976258306,10.069209062099718]}},{"type":"Feature","properties":{"title":"Missing Maps: Hoa Son Ward, Da Nang, Viet Nam","id":4603,"area":24.49102043888296,"year":"2018","lastUpdated":"2018-06-21T04:33:23.034094","changesets":0,"mappers":0,"roads":0,"buildings":0,"edits":0,"latest":null},"geometry":{"type":"Point","coordinates":[108.10966385494815,16.049287720428914]}},{"type":"Feature","properties":{"title":"CanThoExample","id":3896,"area":1309.2214800852612,"year":"2017","lastUpdated":"2017-11-28T08:18:44.057457","changesets":0,"mappers":0,"roads":0,"buildings":0,"edits":0,"latest":null},"geometry":{"type":"Point","coordinates":[105.57141788801466,10.046282108716097]}},{"type":"Feature","properties":{"title":"Can Tho Core City Mapathon Area","id":3895,"area":149.1174397768337,"year":"2018","lastUpdated":"2018-04-27T16:26:46.935925","changesets":484,"mappers":21,"roads":49.8156810371734,"buildings":4694,"edits":6133,"latest":"2018-04-27T16:33:46.000Z"},"geometry":{"type":"Point","coordinates":[105.71904173803547,10.03014896250419]}},{"type":"Feature","properties":{"title":"Missing Maps: Qung Ngi, Vietnam - Part 4","id":2011,"area":93.89389183480233,"year":"2018","lastUpdated":"2018-06-12T19:56:09.285513","changesets":3262,"mappers":296,"roads":447.164801235593,"buildings":22415,"edits":28764,"latest":"2018-06-07T03:34:01.000Z"},"geometry":{"type":"Point","coordinates":[108.77939058546613,15.169048555569235]}},{"type":"Feature","properties":{"title":"Missing Maps: Qung Ngi, Vietnam - Part 2","id":1995,"area":20.98746861836616,"year":"2017","lastUpdated":"2017-10-18T21:49:47.082952","changesets":950,"mappers":86,"roads":69.2180856413933,"buildings":9740,"edits":10252,"latest":"2017-01-18T00:31:35.000Z"},"geometry":{"type":"Point","coordinates":[108.7574973938356,15.119685034025203]}},{"type":"Feature","properties":{"title":"Hanoi Mapathon","id":2385,"area":334.46097353505274,"year":"2017","lastUpdated":"2017-10-09T03:41:58.590580","changesets":387,"mappers":41,"roads":158.591133209883,"buildings":1503,"edits":2559,"latest":"2018-04-27T14:27:29.000Z"},"geometry":{"type":"Point","coordinates":[105.50481072995578,10.239771486514092]}}],"Colombia":[{"type":"Feature","properties":{"title":"San Bernardo del Viento (Playas Del Vie), Cordoba, Colombia","id":3669,"area":17.787992576833208,"year":"2017","lastUpdated":"2017-10-07T20:47:49.206215","changesets":234,"mappers":1,"roads":27.7845701551794,"buildings":2475,"edits":2991,"latest":"2017-10-07T20:47:27.000Z"},"geometry":{"type":"Point","coordinates":[-76.06482267379761,9.328583987041181]}},{"type":"Feature","properties":{"title":"Miramar y Gambia, Buenaventura, Colombia","id":3662,"area":24.425411588105725,"year":"2017","lastUpdated":"2017-10-11T01:59:17.616071","changesets":36,"mappers":5,"roads":2.68141059086121,"buildings":253,"edits":286,"latest":"2017-10-11T02:16:55.000Z"},"geometry":{"type":"Point","coordinates":[-77.03279165683355,3.904580042454559]}},{"type":"Feature","properties":{"title":"Missing Maps - Zipaquira, Colombia","id":3786,"area":10.789092098304573,"year":"2018","lastUpdated":"2018-04-15T00:21:21.901415","changesets":406,"mappers":97,"roads":36.9449687172814,"buildings":6195,"edits":7473,"latest":"2018-05-31T23:34:47.000Z"},"geometry":{"type":"Point","coordinates":[-73.99537652091746,5.022699167137118]}},{"type":"Feature","properties":{"title":"San Bernardo del Viento, Crdoba, Colombia","id":3668,"area":91.2514121447485,"year":"2017","lastUpdated":"2017-11-15T16:56:45.788134","changesets":74,"mappers":3,"roads":24.3619724360995,"buildings":1556,"edits":1851,"latest":"2017-11-15T16:56:40.000Z"},"geometry":{"type":"Point","coordinates":[-75.95151901245117,9.392441552632205]}},{"type":"Feature","properties":{"title":"Missing Maps Usme, Bogot Colombia","id":3842,"area":16.67392211316868,"year":"2018","lastUpdated":"2018-07-04T06:09:30.899089","changesets":387,"mappers":95,"roads":15.3616689768301,"buildings":3971,"edits":5624,"latest":"2018-04-12T18:05:31.000Z"},"geometry":{"type":"Point","coordinates":[-74.108817599051,4.523024592885244]}},{"type":"Feature","properties":{"title":"COASTMAP-URAB // CARTOCOSTA-URAB Turbo, Colombia (Western Side)","id":3312,"area":332.85275618582864,"year":"2017","lastUpdated":"2017-07-30T20:44:47.561256","changesets":16,"mappers":8,"roads":0.808207672888118,"buildings":295,"edits":305,"latest":"2017-07-18T14:52:18.000Z"},"geometry":{"type":"Point","coordinates":[-76.89565173628262,8.089670890367847]}},{"type":"Feature","properties":{"title":"Camarones, La Guajira, Colombia","id":3663,"area":116.46137846578915,"year":"2018","lastUpdated":"2018-03-05T22:20:06.489833","changesets":115,"mappers":4,"roads":13.9399434217693,"buildings":1657,"edits":1818,"latest":"2018-03-05T23:24:20.000Z"},"geometry":{"type":"Point","coordinates":[-73.13468169956465,11.390174652872478]}},{"type":"Feature","properties":{"title":"Honda, Colombia - Nevado del Ruiz Lahar Hazard","id":2602,"area":10.143573654884879,"year":"2018","lastUpdated":"2018-06-21T07:12:02.219999","changesets":0,"mappers":0,"roads":0,"buildings":0,"edits":0,"latest":null},"geometry":{"type":"Point","coordinates":[-74.74143981933594,5.211125132932629]}},{"type":"Feature","properties":{"title":"MAPCOAST-URABA, Turbo, Colombia (Eastern Side)","id":3302,"area":205.92340955355735,"year":"2017","lastUpdated":"2017-10-06T16:38:20.114660","changesets":469,"mappers":27,"roads":197.732662156157,"buildings":9154,"edits":10966,"latest":"2017-08-01T02:28:36.000Z"},"geometry":{"type":"Point","coordinates":[-76.73628486701675,8.078666963856094]}},{"type":"Feature","properties":{"title":"Missing Maps Cha, Colombia","id":3843,"area":80.24575328583315,"year":"2018","lastUpdated":"2018-05-21T14:24:39.547176","changesets":669,"mappers":109,"roads":97.3735764179493,"buildings":33190,"edits":35125,"latest":"2018-05-21T14:21:31.000Z"},"geometry":{"type":"Point","coordinates":[-74.06502720128937,4.872928354104189]}},{"type":"Feature","properties":{"title":"Riohacha, La Guajira, Colombia","id":3664,"area":706.7545854657328,"year":"2017","lastUpdated":"2017-11-18T00:07:57.329036","changesets":163,"mappers":6,"roads":11.4435775851385,"buildings":5171,"edits":5221,"latest":"2017-11-18T00:07:43.000Z"},"geometry":{"type":"Point","coordinates":[-72.99279784318057,11.440059132768244]}},{"type":"Feature","properties":{"title":"CARTOCOSTA-URAB // COASTMAP-URAB, Turbo, Colombia (Turbo urban area)","id":3304,"area":25.20888360057874,"year":"2018","lastUpdated":"2018-03-02T13:27:22.208444","changesets":459,"mappers":53,"roads":16.8092113803972,"buildings":10439,"edits":10802,"latest":"2018-03-02T13:27:04.000Z"},"geometry":{"type":"Point","coordinates":[-76.7297885215835,8.09866496358627]}}],"Nepal":[{"type":"Feature","properties":{"title":"Missing Maps: Nepal, buildings in Saptari district river basins","id":3605,"area":796.7951429797232,"year":"2018","lastUpdated":"2018-07-07T13:27:36.168926","changesets":2509,"mappers":166,"roads":157.254395740668,"buildings":40311,"edits":42241,"latest":"2018-06-15T16:42:35.000Z"},"geometry":{"type":"Point","coordinates":[86.70663241296718,26.589889979674556]}},{"type":"Feature","properties":{"title":" Nepal Earthquake, 2015, IDP camps in Banepa area","id":1010,"area":338.41199215971403,"year":"2016","lastUpdated":"2016-03-10T11:24:27.552357","changesets":96,"mappers":36,"roads":35.0002570613446,"buildings":881,"edits":1641,"latest":"2015-12-11T04:27:16.000Z"},"geometry":{"type":"Point","coordinates":[85.47511009489847,27.6793909390766]}},{"type":"Feature","properties":{"title":"Kathmandu - GWU Mapping Exercise (Area 2)","id":328,"area":14.41967063680349,"year":"2016","lastUpdated":"2016-11-08T18:08:48.228082","changesets":0,"mappers":0,"roads":0,"buildings":0,"edits":0,"latest":null},"geometry":{"type":"Point","coordinates":[85.35882948640639,27.77109059305283]}},{"type":"Feature","properties":{"title":" Nepal Earthquake, 2015, Solukhumbu ( Additional affected district )","id":1043,"area":3367.522654837291,"year":"2018","lastUpdated":"2018-06-07T08:58:00.498382","changesets":2203,"mappers":141,"roads":797.264493316282,"buildings":37667,"edits":43730,"latest":"2018-06-07T08:56:39.000Z"},"geometry":{"type":"Point","coordinates":[86.6990663192365,27.753414127864893]}},{"type":"Feature","properties":{"title":"Kaligandaki Landslide - Baglung (High Alert District)","id":1071,"area":1842.7067486524927,"year":"2017","lastUpdated":"2017-11-02T19:22:45.094788","changesets":2639,"mappers":122,"roads":676.815600565175,"buildings":23227,"edits":28035,"latest":"2018-03-20T17:01:26.000Z"},"geometry":{"type":"Point","coordinates":[83.27352828809576,28.3391278698078]}},{"type":"Feature","properties":{"title":"Missing Maps - Prevent children trafficking (Part 2)","id":4285,"area":314.83322760781954,"year":"2018","lastUpdated":"2018-06-29T12:13:55.373350","changesets":60,"mappers":19,"roads":63.6446533960621,"buildings":855,"edits":1080,"latest":"2018-06-11T09:05:21.000Z"},"geometry":{"type":"Point","coordinates":[81.87636773135003,29.59283899387187]}},{"type":"Feature","properties":{"title":"Mapping Flood Affected Community in Nepal (Bank of East Rapti River)","id":3405,"area":814.4121243749338,"year":"2018","lastUpdated":"2018-07-07T14:26:15.122049","changesets":0,"mappers":0,"roads":0,"buildings":0,"edits":0,"latest":null},"geometry":{"type":"Point","coordinates":[84.77587980382584,27.517333661235245]}},{"type":"Feature","properties":{"title":"Mapping Flood Affected Community in Nepal (Morang District, Biratnagar)","id":3473,"area":1830.0915357323506,"year":"2018","lastUpdated":"2018-07-05T19:13:28.719752","changesets":0,"mappers":0,"roads":0,"buildings":0,"edits":0,"latest":null},"geometry":{"type":"Point","coordinates":[87.41436987053658,26.652046649252412]}},{"type":"Feature","properties":{"title":"Kathmandu - GWU Mapping Exercise (Area 1)","id":327,"area":52.65568249665954,"year":"2016","lastUpdated":"2016-11-11T17:14:07.552782","changesets":55,"mappers":7,"roads":3.43224416941323,"buildings":990,"edits":1197,"latest":"2018-06-08T11:32:49.000Z"},"geometry":{"type":"Point","coordinates":[85.28682745699977,27.69516375230199]}},{"type":"Feature","properties":{"title":"Missing Maps: Kaule, Nuwakot, Nepal","id":1540,"area":65.719858585551,"year":"2017","lastUpdated":"2017-10-18T21:58:46.189273","changesets":0,"mappers":0,"roads":0,"buildings":0,"edits":0,"latest":null},"geometry":{"type":"Point","coordinates":[85.1400089263916,28.002808997963548]}},{"type":"Feature","properties":{"title":"Seti River, Kaski, Kharapani area, Nepal","id":268,"area":188.231336627942,"year":"2018","lastUpdated":"2018-04-14T21:01:23.167441","changesets":62,"mappers":10,"roads":11.0116175322283,"buildings":412,"edits":574,"latest":"2018-04-05T14:19:28.000Z"},"geometry":{"type":"Point","coordinates":[83.92569779181132,28.319588853591895]}},{"type":"Feature","properties":{"title":"Mapping Flooding Areas in Koshi Basin","id":337,"area":76.55912060172346,"year":"2017","lastUpdated":"2017-08-15T21:22:26.833349","changesets":179,"mappers":20,"roads":54.9738023166765,"buildings":2652,"edits":3490,"latest":"2017-08-06T15:58:24.000Z"},"geometry":{"type":"Point","coordinates":[86.93582073789841,26.545448624347145]}},{"type":"Feature","properties":{"title":"Nepal Earthquake Mapping - Langtang Rasuwa  ( Highly Effected Area ) ","id":1016,"area":503.7484641624975,"year":"2017","lastUpdated":"2017-06-21T16:11:58.939976","changesets":109,"mappers":50,"roads":22.8163040777894,"buildings":379,"edits":523,"latest":"2017-02-08T12:45:49.000Z"},"geometry":{"type":"Point","coordinates":[85.64112767224067,28.24863695081381]}},{"type":"Feature","properties":{"title":"Heidelberg Mapping Katahariya-Kalaiya","id":567,"area":59.367251150357625,"year":"2018","lastUpdated":"2018-07-04T13:37:43.018447","changesets":59,"mappers":20,"roads":27.7367400906461,"buildings":191,"edits":505,"latest":"2017-12-26T14:50:50.000Z"},"geometry":{"type":"Point","coordinates":[85.09236542815503,26.919263936528658]}},{"type":"Feature","properties":{"title":"Social Computing: Spring 2014","id":446,"area":61.52093107331884,"year":"2017","lastUpdated":"2017-10-09T17:47:56.430288","changesets":30,"mappers":3,"roads":2.91582885993251,"buildings":76,"edits":154,"latest":"2017-11-13T10:44:19.000Z"},"geometry":{"type":"Point","coordinates":[87.86550317724272,26.661711259714547]}},{"type":"Feature","properties":{"title":"Kaligandaki Landslide - Myagdi (High Alert District)","id":1070,"area":2293.8704385608917,"year":"2018","lastUpdated":"2018-04-04T09:46:42.458317","changesets":1129,"mappers":82,"roads":544.625252164751,"buildings":20426,"edits":25083,"latest":"2018-04-21T23:26:33.000Z"},"geometry":{"type":"Point","coordinates":[83.47527503967287,28.528092649794132]}},{"type":"Feature","properties":{"title":"Parbat Mapping - Sceondary Cities Nepal Project","id":2010,"area":543.4138559388664,"year":"2017","lastUpdated":"2017-08-21T11:03:58.689255","changesets":0,"mappers":0,"roads":0,"buildings":0,"edits":0,"latest":null},"geometry":{"type":"Point","coordinates":[83.6845495639123,28.225737075042147]}},{"type":"Feature","properties":{"title":"Missing Maps: Kailali, Nepal 2","id":3677,"area":740.1613239796205,"year":"2018","lastUpdated":"2018-05-11T09:46:50.668862","changesets":2658,"mappers":204,"roads":844.048136511436,"buildings":27117,"edits":37164,"latest":"2018-05-29T23:40:53.000Z"},"geometry":{"type":"Point","coordinates":[80.70172534393649,28.71396405934408]}},{"type":"Feature","properties":{"title":" Nepal Earthquake, 2015, ( Additional affected districts )","id":1090,"area":2561.440040938251,"year":"2018","lastUpdated":"2018-06-28T17:30:05.717299","changesets":7429,"mappers":747,"roads":4554.02840273072,"buildings":86042,"edits":135420,"latest":"2018-01-24T22:42:05.000Z"},"geometry":{"type":"Point","coordinates":[86.26567083114226,27.177909185060102]}},{"type":"Feature","properties":{"title":"Mapping Flood Affected Community in Nepal (Jhapa District, Bank of KankaiMai River)","id":3406,"area":1610.1168785147927,"year":"2018","lastUpdated":"2018-07-03T15:11:12.381879","changesets":0,"mappers":0,"roads":0,"buildings":0,"edits":0,"latest":null},"geometry":{"type":"Point","coordinates":[87.97951066038503,26.57537728133027]}},{"type":"Feature","properties":{"title":"Missing Maps: Dhangadi, Kailali, Nepal 1","id":3675,"area":232.0368296734693,"year":"2018","lastUpdated":"2018-02-07T17:03:55.902567","changesets":2863,"mappers":214,"roads":481.127489375325,"buildings":26947,"edits":33911,"latest":"2018-02-27T19:18:03.000Z"},"geometry":{"type":"Point","coordinates":[80.67164254188538,28.68466503752603]}},{"type":"Feature","properties":{"title":"Kohalpur Mapping","id":2806,"area":169.77397692416412,"year":"2017","lastUpdated":"2017-11-15T08:38:50.729927","changesets":850,"mappers":30,"roads":266.386981090196,"buildings":13685,"edits":16645,"latest":"2018-01-19T10:08:31.000Z"},"geometry":{"type":"Point","coordinates":[81.71838528469945,28.206692833879785]}},{"type":"Feature","properties":{"title":"Baglung Mapping - 2C Pokhara, GIS Day 2016 Mapathon","id":2324,"area":1840.3258148722687,"year":"2017","lastUpdated":"2017-10-16T10:53:36.378520","changesets":96757,"mappers":3621,"roads":29392.4094332058,"buildings":1709775,"edits":2140791,"latest":"2018-06-17T11:13:31.000Z"},"geometry":{"type":"Point","coordinates":[83.21388465782275,28.41800462490221]}},{"type":"Feature","properties":{"title":"Mapping Flood Affected Community in Nepal (Morang District, Biratnagar)","id":3403,"area":1830.0915357323506,"year":"2017","lastUpdated":"2017-10-19T00:32:51.281462","changesets":0,"mappers":0,"roads":0,"buildings":0,"edits":0,"latest":null},"geometry":{"type":"Point","coordinates":[87.41436987053658,26.652046649252412]}},{"type":"Feature","properties":{"title":"Missing Maps - Prevent children trafficking","id":3787,"area":136.9779956763404,"year":"2018","lastUpdated":"2018-07-02T15:03:00.591434","changesets":200,"mappers":32,"roads":201.276934824281,"buildings":3431,"edits":4591,"latest":"2018-06-15T14:55:01.000Z"},"geometry":{"type":"Point","coordinates":[81.92236329774249,29.82762961552493]}},{"type":"Feature","properties":{"title":"Kaligandaki Landslide - Gulmi (High Alert District)","id":1073,"area":1112.34738546875,"year":"2017","lastUpdated":"2017-09-29T18:20:00.485063","changesets":8464,"mappers":356,"roads":2001.3187979335,"buildings":64162,"edits":79402,"latest":"2017-11-19T22:52:21.000Z"},"geometry":{"type":"Point","coordinates":[83.30952359552255,28.087069216166462]}}],"Argentina":[{"type":"Feature","properties":{"title":"Missing Maps: La Ribera and Villa Lujan, Buenos Aires, Argentina - NASA Mapathon","id":3478,"area":2.4256336130865326,"year":"2018","lastUpdated":"2018-06-20T10:41:09.262933","changesets":103,"mappers":28,"roads":1.57006431311902,"buildings":719,"edits":783,"latest":"2018-04-10T01:06:37.000Z"},"geometry":{"type":"Point","coordinates":[-58.2341393375755,-34.71025203790834]}},{"type":"Feature","properties":{"title":"Los Baados (Sur) - Asuncion, Paraguay -- IADB","id":1685,"area":10.75744428318442,"year":"2018","lastUpdated":"2018-05-22T11:03:01.852390","changesets":225,"mappers":47,"roads":6.54479002709823,"buildings":2979,"edits":3225,"latest":"2018-05-16T21:18:14.000Z"},"geometry":{"type":"Point","coordinates":[-57.65052598200623,-25.3230064607677]}}],"Philippines":[{"type":"Feature","properties":{"title":"UP-NOAH Mapping Campuses (UP Cebu City)","id":3461,"area":3.674962024941641,"year":"2017","lastUpdated":"2017-11-25T07:56:15.435752","changesets":0,"mappers":0,"roads":0,"buildings":0,"edits":0,"latest":null},"geometry":{"type":"Point","coordinates":[123.89678955078128,10.319099143827456]}},{"type":"Feature","properties":{"title":"UP-NOAH Mapping Campuses (UP Manila)","id":3438,"area":1.6100307695151406,"year":"2017","lastUpdated":"2017-11-25T06:16:14.442768","changesets":0,"mappers":0,"roads":0,"buildings":0,"edits":0,"latest":null},"geometry":{"type":"Point","coordinates":[120.98574694465175,14.581946535582672]}},{"type":"Feature","properties":{"title":"NOAH-UNICEF: Mapping Itogon, Benguet","id":2723,"area":438.98478316533635,"year":"2017","lastUpdated":"2017-04-10T08:54:49.667811","changesets":103,"mappers":2,"roads":63.3932891394836,"buildings":11494,"edits":11971,"latest":"2017-04-10T08:40:08.000Z"},"geometry":{"type":"Point","coordinates":[120.67333595353101,16.399841203673162]}},{"type":"Feature","properties":{"title":"Barangay Marasbaras, Tacloban, Leyte - Missing Maps","id":3300,"area":7.807989010258504,"year":"2018","lastUpdated":"2018-06-28T16:24:54.135765","changesets":122,"mappers":8,"roads":4.68267612392508,"buildings":3427,"edits":3757,"latest":"2018-06-11T23:19:11.000Z"},"geometry":{"type":"Point","coordinates":[125.01222282424382,11.203458223071134]}},{"type":"Feature","properties":{"title":"CRS-UP NOAH Building Footprints Mapping - Angono, Rizal","id":4476,"area":14.749809999799018,"year":"2018","lastUpdated":"2018-06-29T07:51:11.470720","changesets":2,"mappers":2,"roads":0,"buildings":28,"edits":28,"latest":"2018-06-08T03:16:27.000Z"},"geometry":{"type":"Point","coordinates":[121.16528400038572,14.535180941214387]}},{"type":"Feature","properties":{"title":"CRS-UP NOAH Building Footprints Mapping - Malabon City","id":3907,"area":15.859280000650813,"year":"2018","lastUpdated":"2018-06-06T07:45:46.150299","changesets":18,"mappers":2,"roads":0.908475572641972,"buildings":67,"edits":74,"latest":"2018-06-06T08:03:26.000Z"},"geometry":{"type":"Point","coordinates":[120.9674154212251,14.667902897859918]}},{"type":"Feature","properties":{"title":"Zamboanga Peninsula, PH - Missing Roads","id":4217,"area":6.634273132943503,"year":"2018","lastUpdated":"2018-07-06T06:26:56.083619","changesets":16941512,"mappers":778190,"roads":11029202.6294279,"buildings":272493430,"edits":351602460,"latest":"2018-06-17T11:30:54.000Z"},"geometry":{"type":"Point","coordinates":[122.907009764677,7.903860363457329]}},{"type":"Feature","properties":{"title":"Cagayan Valley, PH - Missing Roads","id":4219,"area":2.940942559638417,"year":"2018","lastUpdated":"2018-07-06T06:27:32.983505","changesets":16941512,"mappers":778190,"roads":11029202.6294279,"buildings":272493430,"edits":351602460,"latest":"2018-06-17T11:30:54.000Z"},"geometry":{"type":"Point","coordinates":[121.68249184541031,17.195568942139595]}},{"type":"Feature","properties":{"title":"NOAH-UNICEF: Mapping Mapanas, Northern Samar","id":2724,"area":132.45656122565023,"year":"2017","lastUpdated":"2017-04-11T05:01:07.136767","changesets":36,"mappers":2,"roads":0.547703860688767,"buildings":1607,"edits":1629,"latest":"2017-04-11T03:23:10.000Z"},"geometry":{"type":"Point","coordinates":[125.26437313867976,12.485027118499048]}},{"type":"Feature","properties":{"title":"Mayon Volcano USAID & USGS","id":4202,"area":23.191221545963582,"year":"2018","lastUpdated":"2018-06-28T08:11:52.717080","changesets":440,"mappers":92,"roads":30.0360065595488,"buildings":7728,"edits":8051,"latest":"2018-06-14T08:09:46.000Z"},"geometry":{"type":"Point","coordinates":[123.708816541763,13.271475957593504]}},{"type":"Feature","properties":{"title":"DOST-Project NOAH (ISAIAH) Structures Map Up Cavite","id":1636,"area":1236.7930267854183,"year":"2017","lastUpdated":"2017-01-06T03:53:24.366033","changesets":0,"mappers":0,"roads":0,"buildings":0,"edits":0,"latest":null},"geometry":{"type":"Point","coordinates":[120.89029621315147,14.296354336510534]}},{"type":"Feature","properties":{"title":"Mapping in Cavite, Philippines - SA activities","id":378,"area":347.85007544928436,"year":"2018","lastUpdated":"2018-01-31T02:41:47.484533","changesets":1184,"mappers":74,"roads":37.6705904876275,"buildings":9795,"edits":11838,"latest":"2018-05-17T21:48:06.000Z"},"geometry":{"type":"Point","coordinates":[120.95298071824062,14.44782100733958]}},{"type":"Feature","properties":{"title":"Davao City, Philippines","id":505,"area":62.25155048812598,"year":"2017","lastUpdated":"2017-10-05T13:51:10.431250","changesets":480,"mappers":31,"roads":9.3712143789472,"buildings":13535,"edits":14727,"latest":"2018-03-03T13:33:33.000Z"},"geometry":{"type":"Point","coordinates":[125.60980864846091,7.080802619888849]}},{"type":"Feature","properties":{"title":"Philippines: Silvinos Lobos","id":1157,"area":6.207303897148626,"year":"2017","lastUpdated":"2017-07-21T03:12:42.356484","changesets":292,"mappers":16,"roads":26.35312779277,"buildings":544,"edits":804,"latest":"2015-12-16T07:22:58.000Z"},"geometry":{"type":"Point","coordinates":[124.8381827034895,12.32730317863355]}},{"type":"Feature","properties":{"title":"Western Visayas, PH - Missing Roads","id":4224,"area":7.047203961449363,"year":"2018","lastUpdated":"2018-07-06T06:28:20.714832","changesets":16941512,"mappers":778190,"roads":11029202.6294279,"buildings":272493430,"edits":351602460,"latest":"2018-06-17T11:30:54.000Z"},"geometry":{"type":"Point","coordinates":[122.6953061950292,10.934054961778411]}},{"type":"Feature","properties":{"title":"CRS-UP NOAH Building Footprints Mapping - Taytay, Rizal","id":4614,"area":28.563349406234973,"year":"2018","lastUpdated":"2018-07-07T02:17:33.928397","changesets":4,"mappers":2,"roads":0.0110480704256366,"buildings":7,"edits":11,"latest":"2018-06-13T09:21:50.000Z"},"geometry":{"type":"Point","coordinates":[121.12940906356323,14.548432535816845]}},{"type":"Feature","properties":{"title":"DOST-Project NOAH (ISAIAH) Structures Map Up Batangas","id":1886,"area":6798.780760709117,"year":"2017","lastUpdated":"2017-02-28T03:13:35.622830","changesets":0,"mappers":0,"roads":0,"buildings":0,"edits":0,"latest":null},"geometry":{"type":"Point","coordinates":[121.12339725679243,13.989166806792454]}},{"type":"Feature","properties":{"title":"CRS-UP NOAH Building Footprints Mapping - Marilao, Bulacan","id":4474,"area":28.509141928904054,"year":"2018","lastUpdated":"2018-06-18T18:48:42.184656","changesets":613,"mappers":13,"roads":16.077015270515,"buildings":21527,"edits":22316,"latest":"2018-06-15T22:09:45.000Z"},"geometry":{"type":"Point","coordinates":[120.98346576955595,14.773807306456357]}},{"type":"Feature","properties":{"title":"DOST-Project NOAH (ISAIAH) Structures Map Up Misamis Oriental","id":2006,"area":3651.9980002426037,"year":"2017","lastUpdated":"2017-02-27T09:03:13.187468","changesets":0,"mappers":0,"roads":0,"buildings":0,"edits":0,"latest":null},"geometry":{"type":"Point","coordinates":[124.72481164382773,8.558389462115018]}},{"type":"Feature","properties":{"title":"CRS-UP NOAH Building Footprints Mapping - Meycauayan, Bulacan","id":4793,"area":31.969074351640266,"year":"2018","lastUpdated":"2018-07-06T06:58:02.187300","changesets":0,"mappers":0,"roads":0,"buildings":0,"edits":0,"latest":null},"geometry":{"type":"Point","coordinates":[120.97247794046793,14.744349985853276]}},{"type":"Feature","properties":{"title":"Danao, Bohol Island, Philippines OpenRoad project, Part IIII -- MapGive","id":1056,"area":187.61116003075477,"year":"2017","lastUpdated":"2017-10-29T00:50:25.079341","changesets":0,"mappers":0,"roads":0,"buildings":0,"edits":0,"latest":null},"geometry":{"type":"Point","coordinates":[124.20165233660025,9.943714169953921]}},{"type":"Feature","properties":{"title":"Missing Maps: San Jose, Panay Island, Philippines","id":2449,"area":92.17194200794256,"year":"2018","lastUpdated":"2018-03-08T02:22:03.657473","changesets":7079,"mappers":210,"roads":144.04700009821,"buildings":23700,"edits":26904,"latest":"2018-03-08T02:15:30.000Z"},"geometry":{"type":"Point","coordinates":[121.95624289313717,10.761148689531957]}},{"type":"Feature","properties":{"title":"DOST-Project NOAH (ISAIAH) Structures Map Up La Union","id":1885,"area":2912.909394539788,"year":"2018","lastUpdated":"2018-04-16T21:25:19.930509","changesets":0,"mappers":0,"roads":0,"buildings":0,"edits":0,"latest":null},"geometry":{"type":"Point","coordinates":[120.45269986810342,16.621796748275862]}},{"type":"Feature","properties":{"title":"CRS-UP NOAH Building Footprints Mapping - Cainta, Rizal","id":4185,"area":21.097166623656076,"year":"2018","lastUpdated":"2018-07-07T13:11:08.376941","changesets":299,"mappers":13,"roads":2.62318970578196,"buildings":723,"edits":976,"latest":"2018-06-13T05:42:12.000Z"},"geometry":{"type":"Point","coordinates":[121.11694341377957,14.595807431682541]}},{"type":"Feature","properties":{"title":"Cavite, PH - Missing Roads","id":4165,"area":8.147770355865646,"year":"2018","lastUpdated":"2018-07-06T06:26:38.435860","changesets":16941512,"mappers":778190,"roads":11029202.6294279,"buildings":272493430,"edits":351602460,"latest":"2018-06-17T11:30:54.000Z"},"geometry":{"type":"Point","coordinates":[120.95492038001697,14.294231916684815]}},{"type":"Feature","properties":{"title":"DOST-Project NOAH (ISAIAH) Structures Map Up Ilocos Norte","id":1996,"area":5561.793445652042,"year":"2017","lastUpdated":"2017-01-09T04:19:56.530728","changesets":0,"mappers":0,"roads":0,"buildings":0,"edits":0,"latest":null},"geometry":{"type":"Point","coordinates":[120.7548661820388,18.106512497087376]}},{"type":"Feature","properties":{"title":"Bicol, PH - Missing Roads","id":4222,"area":1.7672697508978923,"year":"2018","lastUpdated":"2018-07-06T06:22:30.742937","changesets":16941512,"mappers":778190,"roads":11029202.6294279,"buildings":272493430,"edits":351602460,"latest":"2018-06-17T11:30:54.000Z"},"geometry":{"type":"Point","coordinates":[123.39593163594877,13.44488249297075]}},{"type":"Feature","properties":{"title":"UP-NOAH Mapping Campuses (UP Manila School of Health Sciences in Leyte) ","id":3472,"area":1.400988753814339,"year":"2018","lastUpdated":"2018-06-27T04:56:51.430180","changesets":0,"mappers":0,"roads":0,"buildings":0,"edits":0,"latest":null},"geometry":{"type":"Point","coordinates":[124.99088051332731,11.157825800825774]}},{"type":"Feature","properties":{"title":"Pampanga, PH - Missing Roads","id":4018,"area":7.393817777829668,"year":"2018","lastUpdated":"2018-07-06T06:22:22.732956","changesets":16941512,"mappers":778190,"roads":11029202.6294279,"buildings":272493430,"edits":351602460,"latest":"2018-06-17T11:30:54.000Z"},"geometry":{"type":"Point","coordinates":[120.60901479206947,15.12644299857575]}},{"type":"Feature","properties":{"title":"Soccsksargen, PH - Missing Roads","id":4227,"area":3.1029043042642748,"year":"2018","lastUpdated":"2018-07-06T06:29:12.343135","changesets":16941512,"mappers":778190,"roads":11029202.6294279,"buildings":272493430,"edits":351602460,"latest":"2018-06-17T11:30:54.000Z"},"geometry":{"type":"Point","coordinates":[124.99650831963473,6.287009318987416]}},{"type":"Feature","properties":{"title":"UP-NOAH Mapping Campuses (UP Alabang)","id":3793,"area":2.6954788018399616,"year":"2017","lastUpdated":"2017-11-25T07:02:10.874687","changesets":0,"mappers":0,"roads":0,"buildings":0,"edits":0,"latest":null},"geometry":{"type":"Point","coordinates":[121.012331082343,14.376960362577975]}},{"type":"Feature","properties":{"title":"UP-NOAH Mapping Campuses (UP Open University - Headquarters)","id":3790,"area":1.4776756115042378,"year":"2017","lastUpdated":"2017-11-25T03:27:04.114043","changesets":0,"mappers":0,"roads":0,"buildings":0,"edits":0,"latest":null},"geometry":{"type":"Point","coordinates":[121.26342652548276,14.17487559438485]}},{"type":"Feature","properties":{"title":"CRS-UP NOAH Building Footprints Mapping - Navotas City","id":4044,"area":10.600105663830165,"year":"2018","lastUpdated":"2018-03-08T02:29:27.821773","changesets":1,"mappers":1,"roads":0,"buildings":0,"edits":2,"latest":"2018-03-22T20:25:17.000Z"},"geometry":{"type":"Point","coordinates":[120.93501364287877,14.667356142422948]}},{"type":"Feature","properties":{"title":"Northern Mindanao, PH - Missing Roads","id":4216,"area":3.6160059552083452,"year":"2018","lastUpdated":"2018-07-06T06:27:11.183183","changesets":16941512,"mappers":778190,"roads":11029202.6294279,"buildings":272493430,"edits":351602460,"latest":"2018-06-17T11:30:54.000Z"},"geometry":{"type":"Point","coordinates":[124.49225405560671,8.340059475782704]}},{"type":"Feature","properties":{"title":"Pangasinan, PH - Missing Roads","id":4026,"area":1.1581224982077116,"year":"2018","lastUpdated":"2018-07-06T06:26:14.164470","changesets":16941512,"mappers":778190,"roads":11029202.6294279,"buildings":272493430,"edits":351602460,"latest":"2018-06-17T11:30:54.000Z"},"geometry":{"type":"Point","coordinates":[120.38341801763256,16.007853906949467]}},{"type":"Feature","properties":{"title":"UP-NOAH Mapping Campuses (UP Diliman Extension Programs in Olongapo)","id":3435,"area":4.840046682537817,"year":"2017","lastUpdated":"2017-12-12T09:04:26.153739","changesets":0,"mappers":0,"roads":0,"buildings":0,"edits":0,"latest":null},"geometry":{"type":"Point","coordinates":[120.28256200974987,14.827260483926251]}},{"type":"Feature","properties":{"title":"Batangas, PH - Missing Roads","id":4014,"area":8.747103651711436,"year":"2018","lastUpdated":"2018-07-06T06:20:12.810010","changesets":16941512,"mappers":778190,"roads":11029202.6294279,"buildings":272493430,"edits":351602460,"latest":"2018-06-17T11:30:54.000Z"},"geometry":{"type":"Point","coordinates":[121.11775070085193,13.89842882206987]}},{"type":"Feature","properties":{"title":"UP-NOAH Mapping Campuses (UP Manila School of Health Sciences, Aurora)","id":3794,"area":4.535501398412163,"year":"2018","lastUpdated":"2018-03-11T09:53:01.249203","changesets":0,"mappers":0,"roads":0,"buildings":0,"edits":0,"latest":null},"geometry":{"type":"Point","coordinates":[121.5407588418,15.805618790607875]}},{"type":"Feature","properties":{"title":"UP-NOAH Mapping Campuses (UP Manila School of Health Sciences, South Cotabato)","id":3792,"area":4.3460409669323505,"year":"2017","lastUpdated":"2017-11-25T04:42:36.696361","changesets":0,"mappers":0,"roads":0,"buildings":0,"edits":0,"latest":null},"geometry":{"type":"Point","coordinates":[124.88243261589301,6.447533405730095]}},{"type":"Feature","properties":{"title":"ADB Padre Burgos Base Mapping Workshop","id":2144,"area":209.76542400018755,"year":"2016","lastUpdated":"2016-10-15T16:40:48.147100","changesets":0,"mappers":0,"roads":0,"buildings":0,"edits":0,"latest":null},"geometry":{"type":"Point","coordinates":[121.84800397684072,13.962676352778573]}},{"type":"Feature","properties":{"title":"Missing Maps: Antique, Panay Island, Philippines","id":2464,"area":14.104153175400437,"year":"2018","lastUpdated":"2018-05-03T01:33:25.883023","changesets":1274,"mappers":41,"roads":27.014408546842,"buildings":3586,"edits":4237,"latest":"2018-05-28T02:51:00.000Z"},"geometry":{"type":"Point","coordinates":[121.97024703025825,10.831840611569888]}},{"type":"Feature","properties":{"title":"Ilocos, PH - Missing Roads","id":4218,"area":3.351577108453254,"year":"2018","lastUpdated":"2018-07-06T06:27:21.343267","changesets":16941512,"mappers":778190,"roads":11029202.6294279,"buildings":272493430,"edits":351602460,"latest":"2018-06-17T11:30:54.000Z"},"geometry":{"type":"Point","coordinates":[120.46469931330267,17.425280842293475]}},{"type":"Feature","properties":{"title":"UP-NOAH Mapping Campuses (UP Baguio)","id":3795,"area":1.7552341733864982,"year":"2018","lastUpdated":"2018-06-19T18:12:49.458950","changesets":0,"mappers":0,"roads":0,"buildings":0,"edits":0,"latest":null},"geometry":{"type":"Point","coordinates":[120.59778999174375,16.405859913831677]}},{"type":"Feature","properties":{"title":"DOST-Project NOAH (ISAIAH) Structures Map Up Leyte Island","id":2109,"area":15287.575096873534,"year":"2017","lastUpdated":"2017-08-12T09:43:19.067230","changesets":0,"mappers":0,"roads":0,"buildings":0,"edits":0,"latest":null},"geometry":{"type":"Point","coordinates":[124.86789655658747,10.717513224838013]}},{"type":"Feature","properties":{"title":"CRS-UP NOAH Building Footprints Mapping - Malabon City (Free for All)","id":4306,"area":0.8869727357098613,"year":"2018","lastUpdated":"2018-03-16T08:07:15.295915","changesets":11,"mappers":2,"roads":0,"buildings":86,"edits":86,"latest":"2018-03-18T13:04:12.000Z"},"geometry":{"type":"Point","coordinates":[120.96156142151258,14.659111625361861]}},{"type":"Feature","properties":{"title":"UP-NOAH Mapping Campuses (UP Visayas Miag-ao) ","id":3470,"area":12.578176573343839,"year":"2017","lastUpdated":"2017-11-25T07:02:40.744442","changesets":0,"mappers":0,"roads":0,"buildings":0,"edits":0,"latest":null},"geometry":{"type":"Point","coordinates":[122.21696706918563,10.652970828749863]}},{"type":"Feature","properties":{"title":"Eastern Visayas, PH - Missing Roads","id":4225,"area":0.9011879212974336,"year":"2018","lastUpdated":"2018-07-06T06:28:56.119206","changesets":16941512,"mappers":778190,"roads":11029202.6294279,"buildings":272493430,"edits":351602460,"latest":"2018-06-17T11:30:54.000Z"},"geometry":{"type":"Point","coordinates":[124.82231154030616,11.386736510106921]}},{"type":"Feature","properties":{"title":"UP-NOAH Mapping Campuses (UP Diliman Extension Programs in Pampanga)","id":3434,"area":43.54156672373075,"year":"2018","lastUpdated":"2018-03-08T03:26:29.800555","changesets":0,"mappers":0,"roads":0,"buildings":0,"edits":0,"latest":null},"geometry":{"type":"Point","coordinates":[120.55005827104301,15.186427180404344]}},{"type":"Feature","properties":{"title":"UP-NOAH Mapping Campuses (UP Mindanao)","id":3791,"area":3.6910639697608496,"year":"2017","lastUpdated":"2017-11-29T16:06:57.989146","changesets":0,"mappers":0,"roads":0,"buildings":0,"edits":0,"latest":null},"geometry":{"type":"Point","coordinates":[125.48628379471575,7.085765528020958]}}],"Haiti":[{"type":"Feature","properties":{"title":"Missing Maps: Bassin Bleu (Haiti)","id":3396,"area":1.2366741945620376,"year":"2018","lastUpdated":"2018-03-05T15:37:01.156111","changesets":108,"mappers":12,"roads":3.15577295415361,"buildings":1319,"edits":1462,"latest":"2017-09-18T18:23:55.000Z"},"geometry":{"type":"Point","coordinates":[-72.79786062240598,19.78095933171806]}},{"type":"Feature","properties":{"title":"Missing Maps: Canaan I, Haiti","id":4443,"area":1.8557013284627175,"year":"2018","lastUpdated":"2018-06-12T19:04:15.760497","changesets":1,"mappers":1,"roads":0.0253202465967555,"buildings":5,"edits":6,"latest":"2018-06-12T19:58:12.000Z"},"geometry":{"type":"Point","coordinates":[-72.28230001083195,18.66670215845814]}},{"type":"Feature","properties":{"title":"Haiti, Projet Cap103, Corridor de dveloppement de Cap-Haitien, zones urbaines prioritaires  cartographier sur le terrain","id":243,"area":15.529602384071627,"year":"2015","lastUpdated":"2015-05-11T19:22:05.095300","changesets":703,"mappers":17,"roads":1.2210199610281,"buildings":3535,"edits":4041,"latest":"2017-11-16T09:41:18.000Z"},"geometry":{"type":"Point","coordinates":[-72.00943221892358,19.659307532897117]}},{"type":"Feature","properties":{"title":"Missing Maps: Canaan IV, Haiti","id":4446,"area":0.4201295268703867,"year":"2018","lastUpdated":"2018-07-08T01:28:12.791676","changesets":0,"mappers":0,"roads":0,"buildings":0,"edits":0,"latest":null},"geometry":{"type":"Point","coordinates":[-72.2673586319317,18.656745466487976]}},{"type":"Feature","properties":{"title":"Missing Maps: Canaan III, Haiti","id":4445,"area":4.546956198198137,"year":"2018","lastUpdated":"2018-06-19T17:57:59.545119","changesets":0,"mappers":0,"roads":0,"buildings":0,"edits":0,"latest":null},