{"totalEdits":38769120,"totalBuildings":31741478,"totalRoads":829814.378355938,"mappersOnline":21,"totalTasksMapped":1524325,"totalMappers":127480,"totalProjects":1550,"Kenya":[{"type":"Feature","properties":{"title":"Mapping Bukira East Ward, Migori County","id":4395,"area":38.113991282680686,"year":"2018","lastUpdated":"2018-06-16T22:01:42.800398","changesets":49,"mappers":27,"roads":19.5314149793494,"buildings":717,"edits":807,"latest":"2018-06-16T22:01:44.000Z"},"geometry":{"type":"Point","coordinates":[34.61281463403942,-1.1913635729656766]}},{"type":"Feature","properties":{"title":"Missing Maps: Mapping informal settlements in Mombasa, Kenya to improve access to healthcare","id":3475,"area":5.044005256974101,"year":"2018","lastUpdated":"2018-07-06T21:20:45.467297","changesets":0,"mappers":0,"roads":0,"buildings":0,"edits":0,"latest":null},"geometry":{"type":"Point","coordinates":[39.63163106383532,-4.021639044787146]}},{"type":"Feature","properties":{"title":"Mapping Wote Ward, Makueni County","id":4275,"area":98.10610213655303,"year":"2018","lastUpdated":"2018-06-04T20:45:41.338170","changesets":2348,"mappers":59,"roads":822.516606544936,"buildings":8759,"edits":14622,"latest":"2018-06-04T21:24:25.000Z"},"geometry":{"type":"Point","coordinates":[37.6140855990625,-1.799661920221866]}},{"type":"Feature","properties":{"title":"Mapping Mbooni Ward, Makueni County","id":4274,"area":58.66062861806336,"year":"2018","lastUpdated":"2018-06-11T13:19:10.760750","changesets":1177,"mappers":25,"roads":356.737196713982,"buildings":8438,"edits":11162,"latest":"2018-06-11T13:22:58.000Z"},"geometry":{"type":"Point","coordinates":[37.42368532576408,-1.6602485906596427]}},{"type":"Feature","properties":{"title":"Mapping Kabarnet Ward, Baringo County","id":4272,"area":160.31838656509228,"year":"2018","lastUpdated":"2018-06-27T12:47:32.851987","changesets":2678,"mappers":12,"roads":887.02099972485,"buildings":8529,"edits":13097,"latest":"2018-06-14T12:32:03.000Z"},"geometry":{"type":"Point","coordinates":[35.69189210237559,0.522327367406214]}},{"type":"Feature","properties":{"title":"EUROSHA Kenya Kuresoi District, job 1: mapping along the main road (D315)","id":167,"area":11.333282511427113,"year":"2017","lastUpdated":"2017-10-10T09:49:59.185888","changesets":3,"mappers":1,"roads":0.517836403612155,"buildings":34,"edits":36,"latest":"2017-10-10T09:51:11.000Z"},"geometry":{"type":"Point","coordinates":[35.60393167083067,-0.296174262264124]}},{"type":"Feature","properties":{"title":"EUROSHA Kenya Kuresoi District, job 1: mapping roads and buildings","id":165,"area":1.2362275181143012,"year":"2016","lastUpdated":"2016-05-02T09:25:16.216783","changesets":0,"mappers":0,"roads":0,"buildings":0,"edits":0,"latest":null},"geometry":{"type":"Point","coordinates":[35.529407496275255,-0.30133299151763643]}},{"type":"Feature","properties":{"title":"EUROSHA Kenya Mapping in Molo town","id":184,"area":12.357915057013763,"year":"2017","lastUpdated":"2017-10-10T09:33:02.444007","changesets":16,"mappers":4,"roads":5.2731059812041,"buildings":384,"edits":451,"latest":"2017-10-10T09:32:46.000Z"},"geometry":{"type":"Point","coordinates":[35.7252216289414,-0.24343225823147221]}},{"type":"Feature","properties":{"title":"EUROSHA Kenya Njoro District, job 1: mapping roads and buildings","id":98,"area":1125.6207367071438,"year":"2018","lastUpdated":"2018-03-26T00:12:00.018201","changesets":74,"mappers":10,"roads":86.5504496814447,"buildings":1400,"edits":1797,"latest":"2018-03-26T00:11:46.000Z"},"geometry":{"type":"Point","coordinates":[35.94001769519367,-0.5296235477240359]}},{"type":"Feature","properties":{"title":"Nyamira County, Kenya. Jumpstart County GIS","id":759,"area":903.2581044301878,"year":"2018","lastUpdated":"2018-01-17T14:36:21.832886","changesets":802,"mappers":77,"roads":1060.56902883166,"buildings":2501,"edits":6656,"latest":"2018-01-17T22:29:51.000Z"},"geometry":{"type":"Point","coordinates":[34.94925518812263,-0.6270269816091953]}},{"type":"Feature","properties":{"title":"Thika - Kenya","id":4195,"area":4.232094962485982,"year":"2018","lastUpdated":"2018-02-27T09:10:05.019661","changesets":456,"mappers":6,"roads":19.7830596921561,"buildings":3560,"edits":3762,"latest":"2018-02-27T09:22:23.000Z"},"geometry":{"type":"Point","coordinates":[37.11712764862,-1.0534824928399926]}},{"type":"Feature","properties":{"title":"Missing Maps - Kenya - Mara region (buildings) with Mapbox","id":2544,"area":612.5201544848798,"year":"2018","lastUpdated":"2018-03-05T15:56:29.687619","changesets":23,"mappers":6,"roads":33.0290527633165,"buildings":86,"edits":168,"latest":"2017-02-20T09:36:55.000Z"},"geometry":{"type":"Point","coordinates":[35.60225416996566,-1.2375315646778384]}}],"totalArea":5842975.325004645,"Tanzania":[{"type":"Feature","properties":{"title":"Heru Shingo Ward, Kigoma, Tanzania Mini Grids Project 01","id":4387,"area":789.0955168862893,"year":"2018","lastUpdated":"2018-06-27T06:10:33.707732","changesets":1455,"mappers":37,"roads":4.58334806253399,"buildings":33003,"edits":33301,"latest":"2018-06-01T13:26:31.000Z"},"geometry":{"type":"Point","coordinates":[30.310435947907735,-4.113678655615293]}},{"type":"Feature","properties":{"title":"Urambo, Tabora, Tanzania Mini Grids Project 03","id":4365,"area":1398.7624508238905,"year":"2018","lastUpdated":"2018-07-04T09:14:48.213836","changesets":1186,"mappers":64,"roads":0.0350233998501786,"buildings":32670,"edits":32678,"latest":"2018-04-13T13:08:47.000Z"},"geometry":{"type":"Point","coordinates":[31.89778350716778,-5.22060588533778]}},{"type":"Feature","properties":{"title":"Igalula Ward, Kigoma, Tanzania Mini Grids Project 01","id":4386,"area":1169.7270185651328,"year":"2018","lastUpdated":"2018-04-17T14:00:20.573026","changesets":912,"mappers":37,"roads":0.00817977234302703,"buildings":9782,"edits":9783,"latest":"2018-04-17T14:00:26.000Z"},"geometry":{"type":"Point","coordinates":[30.054356569129087,-6.011588890040766]}},{"type":"Feature","properties":{"title":"Urambo, Tabora, Tanzania Mini Grids Project 01-02","id":4376,"area":2032.586550505636,"year":"2018","lastUpdated":"2018-06-19T08:37:57.167229","changesets":2151,"mappers":60,"roads":0.977625727876198,"buildings":26596,"edits":26638,"latest":"2018-06-14T12:20:32.000Z"},"geometry":{"type":"Point","coordinates":[31.762362863705164,-5.438836111127685]}},{"type":"Feature","properties":{"title":"Mbozi, Mbeya, Tanzania Mini Grids Project 06","id":4349,"area":1339.4689946738515,"year":"2018","lastUpdated":"2018-06-29T09:45:45.880967","changesets":847,"mappers":62,"roads":741.067165124288,"buildings":16598,"edits":17935,"latest":"2018-04-11T08:43:29.000Z"},"geometry":{"type":"Point","coordinates":[32.47751628437078,-8.583821597525402]}},{"type":"Feature","properties":{"title":"Urambo, Tabora, Tanzania Mini Grids Project 06","id":4353,"area":1555.7313427834936,"year":"2018","lastUpdated":"2018-06-29T06:38:02.088669","changesets":1535,"mappers":66,"roads":0.0331344994875119,"buildings":54533,"edits":54541,"latest":"2018-04-11T10:57:57.000Z"},"geometry":{"type":"Point","coordinates":[31.85480028894,-4.912515247337495]}},{"type":"Feature","properties":{"title":"Tunduru, Ruvuma, Tanzania Mini Grids Project 03","id":4378,"area":1369.2568876847938,"year":"2018","lastUpdated":"2018-05-03T12:58:11.041494","changesets":1018,"mappers":60,"roads":0.263537837490913,"buildings":23394,"edits":23430,"latest":"2018-05-03T13:14:28.000Z"},"geometry":{"type":"Point","coordinates":[37.28765739124834,-11.152541317436667]}},{"type":"Feature","properties":{"title":"Urambo, Tabora, Tanzania Mini Grids Project 08","id":4355,"area":1512.9535222617567,"year":"2018","lastUpdated":"2018-06-29T06:36:14.716443","changesets":1416,"mappers":62,"roads":0.0220781814910548,"buildings":53735,"edits":53737,"latest":"2018-03-29T09:51:14.000Z"},"geometry":{"type":"Point","coordinates":[31.652766553125133,-4.666160203174864]}},{"type":"Feature","properties":{"title":"Lindi - Mini Grids","id":4260,"area":235.67207484051517,"year":"2018","lastUpdated":"2018-04-18T21:53:41.412313","changesets":133,"mappers":23,"roads":23.0772557724216,"buildings":2266,"edits":2684,"latest":"2018-04-18T21:53:28.000Z"},"geometry":{"type":"Point","coordinates":[39.305670260454285,-10.707404745317382]}},{"type":"Feature","properties":{"title":"Rungwe, Mbeya, Tanzania Mini Grids Project 02","id":4393,"area":1149.0351365244592,"year":"2018","lastUpdated":"2018-04-30T01:32:30.188814","changesets":2056,"mappers":60,"roads":12.5724590121885,"buildings":72408,"edits":72612,"latest":"2018-04-27T14:03:47.000Z"},"geometry":{"type":"Point","coordinates":[33.85995773044913,-9.28097728849757]}},{"type":"Feature","properties":{"title":"Mbozi, Mbeya, Tanzania Mini Grids Project 02","id":4287,"area":1464.4147850208826,"year":"2018","lastUpdated":"2018-03-28T14:39:26.288008","changesets":3239,"mappers":63,"roads":3419.72220762667,"buildings":69891,"edits":79035,"latest":"2018-03-28T14:41:07.000Z"},"geometry":{"type":"Point","coordinates":[32.46601435345758,-9.102106023061891]}},{"type":"Feature","properties":{"title":"Rungwe, Mbeya, Tanzania Mini Grids Project 01","id":4392,"area":1330.3320402972577,"year":"2018","lastUpdated":"2018-05-30T05:59:04.640865","changesets":2885,"mappers":74,"roads":21.3821929149524,"buildings":119621,"edits":120470,"latest":"2018-05-30T06:51:18.000Z"},"geometry":{"type":"Point","coordinates":[33.5756407980469,-9.244759979750832]}},{"type":"Feature","properties":{"title":"Priority Villages, Ruvuma Region, Tanzania Mini Grids Project","id":4801,"area":491.345226887175,"year":"2018","lastUpdated":"2018-07-03T15:18:55.293383","changesets":0,"mappers":0,"roads":0,"buildings":0,"edits":0,"latest":null},"geometry":{"type":"Point","coordinates":[35.45485146842986,-10.678797947427933]}},{"type":"Feature","properties":{"title":"Tanzania Development Trust: Mwanza West Community Mapping Project","id":4358,"area":1290.9455273129195,"year":"2018","lastUpdated":"2018-07-06T15:25:20.177639","changesets":8458,"mappers":673,"roads":5049.72480169838,"buildings":87020,"edits":118446,"latest":"2018-06-17T03:51:37.000Z"},"geometry":{"type":"Point","coordinates":[32.548552534014256,-2.6391112035937363]}},{"type":"Feature","properties":{"title":"Tanzania Development Trust: Simiyu South","id":4323,"area":3977.4740524717954,"year":"2018","lastUpdated":"2018-07-06T21:28:22.920888","changesets":2977,"mappers":314,"roads":1153.75916845133,"buildings":37589,"edits":41455,"latest":"2018-06-17T04:46:53.000Z"},"geometry":{"type":"Point","coordinates":[34.2659914121032,-3.1020947645146095]}},{"type":"Feature","properties":{"title":"Tanzania Development Trust: Shinyanga East community mapping project","id":4166,"area":1007.0589397559861,"year":"2018","lastUpdated":"2018-07-04T12:47:46.906157","changesets":2304,"mappers":323,"roads":1359.78696359832,"buildings":23393,"edits":28852,"latest":"2018-06-16T04:35:02.000Z"},"geometry":{"type":"Point","coordinates":[33.66405700164086,-3.5303866913753184]}},{"type":"Feature","properties":{"title":"Tanzania Development Trust: Sawida District","id":4118,"area":924.6478975466252,"year":"2018","lastUpdated":"2018-07-06T13:27:46.243703","changesets":13023,"mappers":932,"roads":9439.87042063941,"buildings":149153,"edits":217610,"latest":"2018-06-17T10:29:27.000Z"},"geometry":{"type":"Point","coordinates":[33.663075852494615,-2.8525551326607483]}},{"type":"Feature","properties":{"title":"Shinyanga_Tabora_Geita","id":4076,"area":3994.8430365253507,"year":"2018","lastUpdated":"2018-03-16T14:29:11.097041","changesets":47,"mappers":13,"roads":0.000161002645333808,"buildings":2061,"edits":2064,"latest":"2018-03-16T14:28:46.000Z"},"geometry":{"type":"Point","coordinates":[32.00242391521419,-4.080067283243879]}},{"type":"Feature","properties":{"title":"Tanzania Development Trust:  Mwanza East","id":3993,"area":6942.748601206665,"year":"2018","lastUpdated":"2018-07-06T14:46:39.952850","changesets":7627,"mappers":351,"roads":9094.04149334341,"buildings":150830,"edits":206894,"latest":"2018-06-16T13:18:59.000Z"},"geometry":{"type":"Point","coordinates":[33.151702880859375,-2.8604853284710874]}},{"type":"Feature","properties":{"title":"Tanzania Development Trust: Mbozi district community mapping project","id":3968,"area":270.15833206747897,"year":"2018","lastUpdated":"2018-07-06T14:55:52.733746","changesets":0,"mappers":0,"roads":0,"buildings":0,"edits":0,"latest":null},"geometry":{"type":"Point","coordinates":[32.76853833879746,-9.020802347567903]}},{"type":"Feature","properties":{"title":"Tanzania Development Trust: Singida district community mapping project ","id":3159,"area":746.5381861519145,"year":"2018","lastUpdated":"2018-04-14T11:47:27.250647","changesets":0,"mappers":0,"roads":0,"buildings":0,"edits":0,"latest":null},"geometry":{"type":"Point","coordinates":[35.00739145072836,-4.7137063082032755]}},{"type":"Feature","properties":{"title":"PEPFAR TANZANIA: GEITA DC","id":3903,"area":4738.968040349855,"year":"2018","lastUpdated":"2018-04-30T17:02:58.055569","changesets":5534,"mappers":266,"roads":3127.21453679912,"buildings":60035,"edits":83984,"latest":"2018-05-22T16:14:57.000Z"},"geometry":{"type":"Point","coordinates":[32.06279754752212,-2.682505789886702]}},{"type":"Feature","properties":{"title":"MSD & JSI/USAID Tanzania Road Import - Kagera region","id":2000,"area":20054.048144070715,"year":"2017","lastUpdated":"2017-08-17T15:35:09.385364","changesets":0,"mappers":0,"roads":0,"buildings":0,"edits":0,"latest":null},"geometry":{"type":"Point","coordinates":[31.041926812127926,-2.3254413013888326]}},{"type":"Feature","properties":{"title":"MSD & JSI/USAID Tanzania Road Import - Arusha region","id":1971,"area":31245.987566415035,"year":"2017","lastUpdated":"2017-07-24T23:13:32.143193","changesets":0,"mappers":0,"roads":0,"buildings":0,"edits":0,"latest":null},"geometry":{"type":"Point","coordinates":[35.98178328230096,-2.99082315747327]}},{"type":"Feature","properties":{"title":"PEPFAR Tanzania: Shinyanga","id":2301,"area":565.5201463076456,"year":"2017","lastUpdated":"2017-11-16T23:33:37.890014","changesets":5198,"mappers":302,"roads":2277.42607148261,"buildings":46163,"edits":71621,"latest":"2017-11-16T23:33:01.000Z"},"geometry":{"type":"Point","coordinates":[33.44573190915658,-3.633071239733379]}},{"type":"Feature","properties":{"title":"MSD & JSI/USAID Tanzania Road Import - Mwanza region","id":2138,"area":18452.858077930265,"year":"2017","lastUpdated":"2017-09-04T11:31:29.126756","changesets":149,"mappers":15,"roads":3770.57157796073,"buildings":105,"edits":5447,"latest":"2016-11-14T12:29:58.000Z"},"geometry":{"type":"Point","coordinates":[32.94155795664897,-2.648829790193047]}},{"type":"Feature","properties":{"title":"Njombe Region, Tanzania Mini Grids Project 07","id":4753,"area":2035.3854283933017,"year":"2018","lastUpdated":"2018-07-02T08:04:40.510728","changesets":0,"mappers":0,"roads":0,"buildings":0,"edits":0,"latest":null},"geometry":{"type":"Point","coordinates":[34.51311154966009,-9.51145731750423]}},{"type":"Feature","properties":{"title":"Priority Villages, Shinyanga Region, Tanzania Mini Grids Project","id":4804,"area":1465.614946569395,"year":"2018","lastUpdated":"2018-06-30T09:05:38.841863","changesets":0,"mappers":0,"roads":0,"buildings":0,"edits":0,"latest":null},"geometry":{"type":"Point","coordinates":[32.9753779163862,-4.003000230638431]}},{"type":"Feature","properties":{"title":"Priority Villages, Kigoma Region, Tanzania Mini Grids Project","id":4779,"area":2340.2938543456194,"year":"2018","lastUpdated":"2018-06-27T23:26:21.748956","changesets":0,"mappers":0,"roads":0,"buildings":0,"edits":0,"latest":null},"geometry":{"type":"Point","coordinates":[30.81891173150636,-3.4042847246900707]}},{"type":"Feature","properties":{"title":"Priority Villages, Lindi Region, Tanzania Mini Grids Project","id":4802,"area":616.0229189680824,"year":"2018","lastUpdated":"2018-07-02T20:42:12.174538","changesets":0,"mappers":0,"roads":0,"buildings":0,"edits":0,"latest":null},"geometry":{"type":"Point","coordinates":[38.35241233283509,-10.284012504908642]}},{"type":"Feature","properties":{"title":"Njombe Region, Tanzania Mini Grids Project 06","id":4752,"area":1905.0649927180077,"year":"2018","lastUpdated":"2018-07-02T08:50:20.108931","changesets":0,"mappers":0,"roads":0,"buildings":0,"edits":0,"latest":null},"geometry":{"type":"Point","coordinates":[34.200867682325345,-9.406954299233199]}},{"type":"Feature","properties":{"title":"Njombe Region, Tanzania Mini Grids Project 03","id":4724,"area":2136.028082871833,"year":"2018","lastUpdated":"2018-06-13T14:35:48.490006","changesets":1079,"mappers":57,"roads":0.104162119272851,"buildings":37261,"edits":37284,"latest":"2018-06-14T07:33:53.000Z"},"geometry":{"type":"Point","coordinates":[34.076388843157154,-9.100503775177796]}},{"type":"Feature","properties":{"title":"Songea Rural, Ruvuma, Tanzania Mini Grids Project 02","id":4700,"area":2220.7880799927716,"year":"2018","lastUpdated":"2018-06-11T10:36:01.898341","changesets":626,"mappers":55,"roads":0.0918395441376388,"buildings":12459,"edits":12476,"latest":"2018-06-11T08:13:36.000Z"},"geometry":{"type":"Point","coordinates":[35.427622249790986,-9.775460334204324]}},{"type":"Feature","properties":{"title":"Chamwino Village, Tanzania Mini Grids Project","id":4748,"area":13.678881091028838,"year":"2018","lastUpdated":"2018-06-13T13:18:58.993239","changesets":156,"mappers":50,"roads":0.0404579971976971,"buildings":5494,"edits":5498,"latest":"2018-06-13T13:52:23.000Z"},"geometry":{"type":"Point","coordinates":[36.039147334095,-6.10061474426]}},{"type":"Feature","properties":{"title":"Songea Rural, Ruvuma, Tanzania Mini Grids Project 05","id":4719,"area":2073.141928637436,"year":"2018","lastUpdated":"2018-06-12T11:00:41.453065","changesets":1420,"mappers":54,"roads":0.925980022800688,"buildings":30459,"edits":30541,"latest":"2018-06-12T10:58:13.000Z"},"geometry":{"type":"Point","coordinates":[35.39451103592282,-10.691852234839656]}},{"type":"Feature","properties":{"title":"Buigiri, Tanzania Mini Grids Project","id":4716,"area":70.76658506869626,"year":"2018","lastUpdated":"2018-06-11T10:35:13.436272","changesets":35,"mappers":19,"roads":0,"buildings":1370,"edits":1370,"latest":"2018-06-11T06:47:36.000Z"},"geometry":{"type":"Point","coordinates":[36.08954750040804,-6.160921675583066]}},{"type":"Feature","properties":{"title":"Songea Rural, Ruvuma, Tanzania Mini Grids Project 01","id":4703,"area":1371.4453556338517,"year":"2018","lastUpdated":"2018-06-11T08:41:44.101036","changesets":58,"mappers":25,"roads":0,"buildings":427,"edits":427,"latest":"2018-06-11T08:40:02.000Z"},"geometry":{"type":"Point","coordinates":[35.7822148323556,-9.35501676850386]}},{"type":"Feature","properties":{"title":"Njombe Region, Tanzania Mini Grids Project 01","id":4722,"area":1960.7678476372357,"year":"2018","lastUpdated":"2018-06-14T10:35:06.317220","changesets":1187,"mappers":61,"roads":1.07364951171986,"buildings":57724,"edits":57843,"latest":"2018-06-14T13:57:46.000Z"},"geometry":{"type":"Point","coordinates":[34.581247317489954,-8.801178149192559]}},{"type":"Feature","properties":{"title":"Songea Rural, Ruvuma, Tanzania Mini Grids Project 03","id":4704,"area":2223.7007441409824,"year":"2018","lastUpdated":"2018-06-11T13:01:49.315620","changesets":557,"mappers":52,"roads":0.224895113337331,"buildings":4504,"edits":4528,"latest":"2018-06-12T07:19:20.000Z"},"geometry":{"type":"Point","coordinates":[35.59727510395192,-10.089441618006344]}},{"type":"Feature","properties":{"title":"Mivumoni Village, Pangani District, Tanzania Mini Grids Project","id":4699,"area":0.818188879689272,"year":"2018","lastUpdated":"2018-06-07T14:22:25.703646","changesets":78,"mappers":17,"roads":0.0276900086096642,"buildings":366,"edits":370,"latest":"2018-06-07T14:01:00.000Z"},"geometry":{"type":"Point","coordinates":[38.903763126037596,-5.307186790941633]}},{"type":"Feature","properties":{"title":"Muheza and Pangani Districts, Tanzania Mini Grids Project","id":4698,"area":2694.389967520607,"year":"2018","lastUpdated":"2018-06-27T14:24:37.688991","changesets":1846,"mappers":62,"roads":19.9499914416186,"buildings":72666,"edits":72958,"latest":"2018-06-11T07:17:41.000Z"},"geometry":{"type":"Point","coordinates":[38.745500951805305,-5.157344994683181]}},{"type":"Feature","properties":{"title":"Unkuku, Tanzania Mini Grids Project","id":4715,"area":61.28019264301011,"year":"2018","lastUpdated":"2018-06-11T10:35:32.819747","changesets":97,"mappers":36,"roads":0.0672879206278469,"buildings":5732,"edits":5741,"latest":"2018-06-11T07:40:02.000Z"},"geometry":{"type":"Point","coordinates":[35.81881696929818,-4.8916621717699]}},{"type":"Feature","properties":{"title":"Songea Rural, Ruvuma, Tanzania Mini Grids Project 06","id":4720,"area":2093.4548563322423,"year":"2018","lastUpdated":"2018-06-12T12:04:57.521919","changesets":1018,"mappers":50,"roads":0.363088632082872,"buildings":13579,"edits":13606,"latest":"2018-06-12T11:03:12.000Z"},"geometry":{"type":"Point","coordinates":[35.31103412395969,-11.03686797344467]}},{"type":"Feature","properties":{"title":"Chemba and Bahi Districts, Tanzania Mini Grids Project 02","id":4653,"area":1921.3143960736681,"year":"2018","lastUpdated":"2018-06-06T08:56:05.854973","changesets":1303,"mappers":60,"roads":0.436199179573519,"buildings":33413,"edits":33434,"latest":"2018-06-07T11:55:30.000Z"},"geometry":{"type":"Point","coordinates":[35.47357948199084,-6.541668254164324]}},{"type":"Feature","properties":{"title":"Chemba and Bahi Districts, Tanzania Mini Grids Project 03","id":4654,"area":1954.525377556312,"year":"2018","lastUpdated":"2018-06-06T01:13:39.569207","changesets":1245,"mappers":41,"roads":0.106920348528221,"buildings":20636,"edits":20657,"latest":"2018-06-05T14:25:23.000Z"},"geometry":{"type":"Point","coordinates":[35.36975679869405,-5.440254667200012]}},{"type":"Feature","properties":{"title":"Chemba and Bahi Districts, Tanzania Mini Grids Project 05","id":4656,"area":1943.7393401406555,"year":"2018","lastUpdated":"2018-06-14T09:06:01.145611","changesets":2139,"mappers":66,"roads":1.37724754241375,"buildings":26302,"edits":26408,"latest":"2018-06-14T08:37:58.000Z"},"geometry":{"type":"Point","coordinates":[35.24210727602255,-5.287224282992947]}},{"type":"Feature","properties":{"title":"Villages in Pangani District, Tanzania Mini Grids Project","id":4642,"area":3.2853624864693787,"year":"2018","lastUpdated":"2018-06-03T23:09:23.858187","changesets":85,"mappers":27,"roads":0.0728887891265449,"buildings":3068,"edits":3101,"latest":"2018-06-08T10:05:47.000Z"},"geometry":{"type":"Point","coordinates":[38.9586214536687,-5.426816270673696]}},{"type":"Feature","properties":{"title":"Lituhi, Luhagara, Ruanda Villages, Tanzania Mini Grids Project","id":4648,"area":8.186367673131722,"year":"2018","lastUpdated":"2018-06-03T23:08:15.625404","changesets":107,"mappers":30,"roads":0.135942160373434,"buildings":3904,"edits":3924,"latest":"2018-06-02T13:59:59.000Z"},"geometry":{"type":"Point","coordinates":[34.82083073630402,-10.542318168502002]}},{"type":"Feature","properties":{"title":"Lamaiti Village, Tanzania Mini Grids Project","id":4636,"area":287.18127360801236,"year":"2018","lastUpdated":"2018-06-03T23:10:02.617305","changesets":510,"mappers":69,"roads":0.067806508631528,"buildings":6540,"edits":6550,"latest":"2018-06-04T09:04:54.000Z"},"geometry":{"type":"Point","coordinates":[35.4794601137225,-5.801276271989993]}},{"type":"Feature","properties":{"title":"Mkakatih Village, Tanzania Mini Grids Project","id":4637,"area":33.36735469325082,"year":"2018","lastUpdated":"2018-06-03T23:09:45.716750","changesets":73,"mappers":32,"roads":0.0531955537922062,"buildings":1062,"edits":1067,"latest":"2018-06-03T11:19:19.000Z"},"geometry":{"type":"Point","coordinates":[35.361299461125,-5.900049521220015]}},{"type":"Feature","properties":{"title":"Tabora, Tabora, Tanzania Mini Grids Project 01","id":4583,"area":1907.1663208860407,"year":"2018","lastUpdated":"2018-06-21T06:39:06.778869","changesets":1626,"mappers":57,"roads":1.70427097121436,"buildings":34594,"edits":34897,"latest":"2018-06-14T09:38:30.000Z"},"geometry":{"type":"Point","coordinates":[32.59170617851557,-4.606714194976095]}},{"type":"Feature","properties":{"title":"Rufiji, Pwani, Tanzania Mini Grids Project 04","id":4624,"area":1796.0668599205555,"year":"2018","lastUpdated":"2018-06-26T06:14:51.811334","changesets":299,"mappers":39,"roads":0.0542000845535752,"buildings":7308,"edits":7317,"latest":"2018-06-03T06:32:11.000Z"},"geometry":{"type":"Point","coordinates":[38.53147573879938,-7.800372604775588]}},{"type":"Feature","properties":{"title":"Tabora, Tabora, Tanzania Mini Grids Project 05","id":4612,"area":1989.4559724518444,"year":"2018","lastUpdated":"2018-06-01T09:04:16.418927","changesets":1027,"mappers":62,"roads":1.12987965804484,"buildings":17432,"edits":17662,"latest":"2018-06-01T13:36:34.000Z"},"geometry":{"type":"Point","coordinates":[33.40266077376074,-5.09063064812292]}},{"type":"Feature","properties":{"title":"Kasulu, Kasulu, Tanzania Mini Grids Project 02","id":4569,"area":1983.2479906601172,"year":"2018","lastUpdated":"2018-06-21T06:42:11.871140","changesets":1278,"mappers":61,"roads":1.61390839422847,"buildings":45967,"edits":46297,"latest":"2018-06-14T13:38:32.000Z"},"geometry":{"type":"Point","coordinates":[30.10818888197763,-4.140006794490141]}},{"type":"Feature","properties":{"title":"Manyoni, Singida, Tanzania Mini Grids Project 06","id":4556,"area":3110.180831968628,"year":"2018","lastUpdated":"2018-06-30T09:39:39.396017","changesets":1473,"mappers":64,"roads":0.0988541090635963,"buildings":31503,"edits":31542,"latest":"2018-06-14T12:27:57.000Z"},"geometry":{"type":"Point","coordinates":[34.04246656080447,-6.8440179852491845]}},{"type":"Feature","properties":{"title":"Misungwi, Mwanza, Tanzania Mini Grids Project 01","id":4620,"area":1505.6277470567059,"year":"2018","lastUpdated":"2018-06-29T06:38:32.988800","changesets":1362,"mappers":67,"roads":11.3463685620127,"buildings":48215,"edits":48419,"latest":"2018-06-04T05:47:46.000Z"},"geometry":{"type":"Point","coordinates":[32.97328190476263,-3.0581235714285717]}},{"type":"Feature","properties":{"title":"Manyoni, Singida, Tanzania Mini Grids Project 03","id":4533,"area":2145.5742223790444,"year":"2018","lastUpdated":"2018-05-18T07:14:49.538516","changesets":1111,"mappers":60,"roads":11.822358790697,"buildings":20618,"edits":21074,"latest":"2018-05-18T13:10:25.000Z"},"geometry":{"type":"Point","coordinates":[35.212920812232916,-5.7381875379846266]}},{"type":"Feature","properties":{"title":"Tabora, Tabora, Tanzania Mini Grids Project 03","id":4585,"area":1693.3910497782038,"year":"2018","lastUpdated":"2018-05-31T12:30:55.852006","changesets":1678,"mappers":65,"roads":5.09675418876548,"buildings":25872,"edits":26598,"latest":"2018-05-30T13:54:08.000Z"},"geometry":{"type":"Point","coordinates":[32.49827423592803,-5.097769430191667]}},{"type":"Feature","properties":{"title":"Tabora, Tabora, Tanzania Mini Grids Project 06","id":4613,"area":1436.2802264029842,"year":"2018","lastUpdated":"2018-07-02T12:07:55.077015","changesets":961,"mappers":61,"roads":0.120539467063506,"buildings":21833,"edits":21837,"latest":"2018-05-31T13:52:52.000Z"},"geometry":{"type":"Point","coordinates":[33.948245197465845,-5.104981749651359]}},{"type":"Feature","properties":{"title":"Rufiji, Pwani, Tanzania Mini Grids Project 01","id":4621,"area":1421.848754938379,"year":"2018","lastUpdated":"2018-06-28T09:05:33.700927","changesets":1064,"mappers":55,"roads":0.237551369076412,"buildings":31908,"edits":31964,"latest":"2018-06-12T11:47:04.000Z"},"geometry":{"type":"Point","coordinates":[38.756067518885445,-7.717796153884717]}},{"type":"Feature","properties":{"title":"Tabora, Tabora, Tanzania Mini Grids Project 02","id":4584,"area":2042.6757607922066,"year":"2018","lastUpdated":"2018-06-20T13:56:00.211684","changesets":1616,"mappers":62,"roads":4.94742136269652,"buildings":36681,"edits":37463,"latest":"2018-06-14T10:00:02.000Z"},"geometry":{"type":"Point","coordinates":[33.55636968293966,-4.778208007358041]}},{"type":"Feature","properties":{"title":"Kasulu, Kasulu, Tanzania Mini Grids Project 01","id":4563,"area":1132.117945620699,"year":"2018","lastUpdated":"2018-06-22T13:47:54.809568","changesets":1310,"mappers":61,"roads":4.4589988692498,"buildings":43149,"edits":43451,"latest":"2018-06-14T14:03:31.000Z"},"geometry":{"type":"Point","coordinates":[30.223387298585,-4.60036034805499]}},{"type":"Feature","properties":{"title":"Kasulu, Kasulu, Tanzania Mini Grids Project 04","id":4571,"area":2136.1760422465886,"year":"2018","lastUpdated":"2018-07-05T08:15:31.433486","changesets":1525,"mappers":62,"roads":11.2025461927747,"buildings":47481,"edits":48101,"latest":"2018-06-14T13:59:15.000Z"},"geometry":{"type":"Point","coordinates":[29.98247064013143,-4.6984841931908]}},{"type":"Feature","properties":{"title":"Tabora, Tabora, Tanzania Mini Grids Project 04","id":4611,"area":1431.5287309262178,"year":"2018","lastUpdated":"2018-06-21T06:43:17.878145","changesets":1289,"mappers":60,"roads":17.4569544106012,"buildings":23456,"edits":24034,"latest":"2018-05-31T10:10:18.000Z"},"geometry":{"type":"Point","coordinates":[32.9989006523097,-5.09063064812292]}},{"type":"Feature","properties":{"title":"Rufiji, Pwani, Tanzania Mini Grids Project 03","id":4623,"area":1539.3249459809983,"year":"2018","lastUpdated":"2018-06-13T04:54:39.869414","changesets":1141,"mappers":46,"roads":0.239674830143507,"buildings":25465,"edits":25525,"latest":"2018-06-13T07:45:23.000Z"},"geometry":{"type":"Point","coordinates":[39.34482040828832,-7.830360285671785]}},{"type":"Feature","properties":{"title":"Kasulu, Kasulu, Tanzania Mini Grids Project 05","id":4572,"area":2206.993164418614,"year":"2018","lastUpdated":"2018-06-21T06:47:41.876386","changesets":658,"mappers":53,"roads":0.332538602551102,"buildings":7551,"edits":7643,"latest":"2018-06-06T12:28:35.000Z"},"geometry":{"type":"Point","coordinates":[30.58835132393096,-4.543021986400334]}},{"type":"Feature","properties":{"title":"Manyoni, Singida, Tanzania Mini Grids Project 01","id":4531,"area":1326.5528682624965,"year":"2018","lastUpdated":"2018-05-19T20:47:16.371655","changesets":589,"mappers":58,"roads":0.134107026616461,"buildings":7569,"edits":7586,"latest":"2018-05-18T10:04:10.000Z"},"geometry":{"type":"Point","coordinates":[34.5086017651493,-5.53508090379479]}},{"type":"Feature","properties":{"title":"Central Singida, Singida, Tanzania Mini Grids Project 02","id":4518,"area":1414.1192851427202,"year":"2018","lastUpdated":"2018-05-17T11:04:47.566760","changesets":882,"mappers":58,"roads":0.0239845493890909,"buildings":17063,"edits":17069,"latest":"2018-05-17T08:50:47.000Z"},"geometry":{"type":"Point","coordinates":[34.41588549629685,-5.109440949915025]}},{"type":"Feature","properties":{"title":"Central Singida, Singida, Tanzania Mini Grids Project 04 South","id":4528,"area":2679.1732629690173,"year":"2018","lastUpdated":"2018-05-17T05:23:15.289640","changesets":1170,"mappers":63,"roads":0.0259764287875841,"buildings":20358,"edits":20362,"latest":"2018-05-17T13:46:29.000Z"},"geometry":{"type":"Point","coordinates":[34.69281190135674,-5.4332570462654575]}},{"type":"Feature","properties":{"title":"Manyoni, Singida, Tanzania Mini Grids Project 05","id":4555,"area":2172.2334385231957,"year":"2018","lastUpdated":"2018-05-24T13:47:51.718614","changesets":1476,"mappers":57,"roads":0.354646008845444,"buildings":32058,"edits":32104,"latest":"2018-05-24T13:46:32.000Z"},"geometry":{"type":"Point","coordinates":[34.89457414391987,-6.337178718154652]}},{"type":"Feature","properties":{"title":"Central Singida, Singida, Tanzania Mini Grids Project 01 East","id":4509,"area":1475.3604875927692,"year":"2018","lastUpdated":"2018-06-28T10:09:05.303438","changesets":839,"mappers":65,"roads":0.0165152319817761,"buildings":11322,"edits":11327,"latest":"2018-05-15T15:37:34.000Z"},"geometry":{"type":"Point","coordinates":[34.041140687827536,-5.126694160175507]}},{"type":"Feature","properties":{"title":"Manyoni, Singida, Tanzania Mini Grids Project 02","id":4532,"area":1743.3360624738941,"year":"2018","lastUpdated":"2018-05-21T06:12:05.383529","changesets":885,"mappers":62,"roads":0.198161772673363,"buildings":17096,"edits":17116,"latest":"2018-05-21T06:05:53.000Z"},"geometry":{"type":"Point","coordinates":[34.272985485616104,-5.75358385726637]}},{"type":"Feature","properties":{"title":"Lindi, Lindi, Tanzania Mini Grids Project 05","id":4499,"area":1350.3603655694978,"year":"2018","lastUpdated":"2018-06-29T06:38:06.752377","changesets":976,"mappers":65,"roads":1.10597043189381,"buildings":27788,"edits":27937,"latest":"2018-05-14T05:44:36.000Z"},"geometry":{"type":"Point","coordinates":[39.68909574499,-9.801786594046861]}},{"type":"Feature","properties":{"title":"S. Monduli, Simanjiro, Tanzania Mini Grids - MapSwipe Project 04 - 02","id":4479,"area":131.2262807333246,"year":"2018","lastUpdated":"2018-05-04T09:42:42.952002","changesets":136,"mappers":50,"roads":0.000165500103078919,"buildings":1412,"edits":1414,"latest":"2018-05-04T09:36:27.000Z"},"geometry":{"type":"Point","coordinates":[37.140374705660484,-4.974450733390372]}},{"type":"Feature","properties":{"title":"Central Singida, Singida, Tanzania Mini Grids Project 00 North","id":4508,"area":2138.0235797080213,"year":"2018","lastUpdated":"2018-06-29T06:38:01.506131","changesets":2083,"mappers":64,"roads":1.80693813624998,"buildings":83421,"edits":83643,"latest":"2018-05-15T14:47:17.000Z"},"geometry":{"type":"Point","coordinates":[34.85630752643853,-4.7195257307215375]}},{"type":"Feature","properties":{"title":"Lindi, Lindi, Tanzania Mini Grids Project 03","id":4489,"area":1972.6554027241687,"year":"2018","lastUpdated":"2018-07-04T09:39:41.831448","changesets":876,"mappers":61,"roads":0.323312074015853,"buildings":36624,"edits":36652,"latest":"2018-05-10T11:23:34.000Z"},"geometry":{"type":"Point","coordinates":[39.183662563828705,-10.12342916029111]}},{"type":"Feature","properties":{"title":"Lindi, Lindi, Tanzania Mini Grids Project 04","id":4495,"area":2400.161505147141,"year":"2018","lastUpdated":"2018-07-02T06:32:32.947392","changesets":1491,"mappers":64,"roads":3.71317177369055,"buildings":44871,"edits":44997,"latest":"2018-05-10T12:37:32.000Z"},"geometry":{"type":"Point","coordinates":[39.76326133480001,-10.168453829364001]}},{"type":"Feature","properties":{"title":"Lindi, Lindi, Tanzania Mini Grids Project 01","id":4487,"area":2262.000623549842,"year":"2018","lastUpdated":"2018-05-10T05:11:52.452673","changesets":1674,"mappers":68,"roads":0.902342152134417,"buildings":56663,"edits":56749,"latest":"2018-05-14T14:03:37.000Z"},"geometry":{"type":"Point","coordinates":[38.91537784774695,-10.060492523381807]}},{"type":"Feature","properties":{"title":"Lindi, Lindi, Tanzania Mini Grids Project 02","id":4488,"area":1271.4706951916876,"year":"2018","lastUpdated":"2018-07-06T13:28:16.810389","changesets":573,"mappers":60,"roads":0.509649478878156,"buildings":9921,"edits":9949,"latest":"2018-05-10T13:59:37.000Z"},"geometry":{"type":"Point","coordinates":[39.32480989462478,-9.704243210868535]}},{"type":"Feature","properties":{"title":"S. Monduli, Simanjiro, Tanzania Mini Grids - MapSwipe Project 04 - 04","id":4477,"area":139.74141127398454,"year":"2018","lastUpdated":"2018-05-04T08:01:04.870840","changesets":352,"mappers":54,"roads":0,"buildings":4700,"edits":4700,"latest":"2018-05-04T08:40:26.000Z"},"geometry":{"type":"Point","coordinates":[37.97815318589818,-5.0748312565103175]}},{"type":"Feature","properties":{"title":"Tunduru, Ruvuma, Tanzania Mini Grids Project 06-07","id":4420,"area":2221.546325309108,"year":"2018","lastUpdated":"2018-06-26T09:46:42.343600","changesets":1985,"mappers":65,"roads":8.29642473632597,"buildings":30918,"edits":30981,"latest":"2018-06-14T11:13:23.000Z"},"geometry":{"type":"Point","coordinates":[37.34039799071685,-10.737231230373672]}},{"type":"Feature","properties":{"title":"Mbulu Center Village, Tanzania Mini Grids Project 01","id":4436,"area":12.606083526364179,"year":"2018","lastUpdated":"2018-04-19T11:23:53.908966","changesets":134,"mappers":33,"roads":0.0184481585815086,"buildings":1409,"edits":1446,"latest":"2018-04-20T09:10:43.000Z"},"geometry":{"type":"Point","coordinates":[33.0464779901525,-8.959391550342504]}},{"type":"Feature","properties":{"title":"S. Monduli, Simanjiro, Tanzania Mini Grids - MapSwipe Project 04 - 03","id":4478,"area":166.70877071205354,"year":"2018","lastUpdated":"2018-05-07T07:19:53.188978","changesets":123,"mappers":47,"roads":0,"buildings":1480,"edits":1480,"latest":"2018-05-04T09:16:49.000Z"},"geometry":{"type":"Point","coordinates":[37.56197930444573,-5.003146663344777]}},{"type":"Feature","properties":{"title":"Ivugula Village, Tanzania Mini Grids Project 01","id":4435,"area":12.603608518468686,"year":"2018","lastUpdated":"2018-04-19T11:25:13.979143","changesets":270,"mappers":44,"roads":23.4950636574225,"buildings":1686,"edits":2161,"latest":"2018-06-13T18:16:09.000Z"},"geometry":{"type":"Point","coordinates":[33.072913842202496,-8.994998857575]}},{"type":"Feature","properties":{"title":"Tunduru, Ruvuma, Tanzania Mini Grids Project 01","id":4423,"area":1513.3163670277308,"year":"2018","lastUpdated":"2018-06-29T11:40:34.768077","changesets":563,"mappers":60,"roads":0.672380757483712,"buildings":13863,"edits":13882,"latest":"2018-05-04T12:24:21.000Z"},"geometry":{"type":"Point","coordinates":[37.15242795625945,-11.620027648839601]}},{"type":"Feature","properties":{"title":"Karema Ward, Katavi, Tanzania Mini Grids Project 01","id":4402,"area":49.87575499116186,"year":"2018","lastUpdated":"2018-04-12T09:55:34.291247","changesets":83,"mappers":11,"roads":0,"buildings":1985,"edits":1985,"latest":"2018-04-12T09:55:03.000Z"},"geometry":{"type":"Point","coordinates":[30.45028626808132,-6.824839702555798]}},{"type":"Feature","properties":{"title":"Mpwapwa, Dodoma, Tanzania Mini Grids Project 06","id":4419,"area":1290.5067497887903,"year":"2018","lastUpdated":"2018-06-30T10:06:16.399635","changesets":1155,"mappers":83,"roads":10.5444328149431,"buildings":44825,"edits":44856,"latest":"2018-05-11T13:20:05.000Z"},"geometry":{"type":"Point","coordinates":[36.618562445229166,-6.32822085806907]}},{"type":"Feature","properties":{"title":"Kipili Ward, Rukwa, Tanzania Mini Grids Project 01","id":4401,"area":180.26824654575853,"year":"2018","lastUpdated":"2018-05-08T10:13:30.293395","changesets":455,"mappers":51,"roads":0.000599220796289046,"buildings":9512,"edits":9513,"latest":"2018-05-08T10:13:16.000Z"},"geometry":{"type":"Point","coordinates":[30.596896102411772,-7.461640143485554]}},{"type":"Feature","properties":{"title":"Mpwapwa, Dodoma, Tanzania Mini Grids Project 08","id":4418,"area":69.68255741962724,"year":"2018","lastUpdated":"2018-05-19T20:42:24.261907","changesets":1926,"mappers":103,"roads":18.7990415103299,"buildings":25541,"edits":25683,"latest":"2018-05-19T20:41:29.000Z"},"geometry":{"type":"Point","coordinates":[36.46391177601475,-5.9448724542277525]}},{"type":"Feature","properties":{"title":"Tunduru, Ruvuma, Tanzania Mini Grids Project 04","id":4412,"area":1554.890184050325,"year":"2018","lastUpdated":"2018-05-25T06:52:25.748652","changesets":1325,"mappers":68,"roads":0.398203610661417,"buildings":26966,"edits":27033,"latest":"2018-04-30T08:47:26.000Z"},"geometry":{"type":"Point","coordinates":[37.58529301248964,-11.01510385295025]}},{"type":"Feature","properties":{"title":"Mbozi, Mbeya, Tanzania Mini Grids Project 01","id":4286,"area":1427.754247465411,"year":"2018","lastUpdated":"2018-06-07T08:27:39.601646","changesets":3571,"mappers":68,"roads":3017.76610954661,"buildings":84064,"edits":91962,"latest":"2018-06-14T11:11:25.000Z"},"geometry":{"type":"Point","coordinates":[32.815140600291976,-9.28818806240448]}},{"type":"Feature","properties":{"title":"Missing Maps: Mbeya - Data Zetu","id":3697,"area":39.48024643275634,"year":"2018","lastUpdated":"2018-03-05T06:16:20.685049","changesets":2340,"mappers":21,"roads":8.22290546014696,"buildings":79467,"edits":79938,"latest":"2018-03-05T10:02:12.000Z"},"geometry":{"type":"Point","coordinates":[33.45143106176986,-8.924156507539553]}},{"type":"Feature","properties":{"title":"Tunduru, Ruvuma, Tanzania Mini Grids Project 05","id":4411,"area":1479.9129003136538,"year":"2018","lastUpdated":"2018-05-17T04:42:53.781681","changesets":1947,"mappers":62,"roads":3.59696148842831,"buildings":30085,"edits":30123,"latest":"2018-05-17T04:42:41.000Z"},"geometry":{"type":"Point","coordinates":[37.235568507342286,-10.889137167904732]}},{"type":"Feature","properties":{"title":"Kasulu, Kasulu, Tanzania Mini Grids Project 03","id":4570,"area":1652.0254948432712,"year":"2018","lastUpdated":"2018-06-21T06:48:17.098850","changesets":566,"mappers":56,"roads":0.0900879917619924,"buildings":8228,"edits":8260,"latest":"2018-06-06T12:57:44.000Z"},"geometry":{"type":"Point","coordinates":[30.549761183673645,-4.348750979042502]}},{"type":"Feature","properties":{"title":"Songea Rural, Ruvuma, Tanzania Mini Grids Project 07","id":4721,"area":2150.916415219976,"year":"2018","lastUpdated":"2018-06-14T07:42:10.260484","changesets":527,"mappers":55,"roads":0.110758162123934,"buildings":9680,"edits":9693,"latest":"2018-06-13T11:23:25.000Z"},"geometry":{"type":"Point","coordinates":[35.565031022546556,-11.40219846168882]}},{"type":"Feature","properties":{"title":"Njombe Region, Tanzania Mini Grids Project 05","id":4751,"area":1958.8180766909427,"year":"2018","lastUpdated":"2018-06-19T09:03:22.694006","changesets":36,"mappers":5,"roads":0.0235275492134219,"buildings":2806,"edits":2816,"latest":"2018-06-14T13:59:48.000Z"},"geometry":{"type":"Point","coordinates":[34.24006954195205,-9.299815802166696]}},{"type":"Feature","properties":{"title":"Kigoma_9","id":4090,"area":1.722690665551124,"year":"2018","lastUpdated":"2018-02-15T09:43:57.762973","changesets":290,"mappers":6,"roads":0.249339693562493,"buildings":1929,"edits":1941,"latest":"2018-02-15T09:43:50.000Z"},"geometry":{"type":"Point","coordinates":[29.825238216387262,-6.003663870933533]}},{"type":"Feature","properties":{"title":"Kigoma_3","id":4084,"area":5.097450161720606,"year":"2018","lastUpdated":"2018-02-01T07:42:27.258246","changesets":288,"mappers":6,"roads":2.31764270978854,"buildings":6302,"edits":6359,"latest":"2018-02-08T07:46:42.000Z"},"geometry":{"type":"Point","coordinates":[30.406732561710204,-6.745298521099169]}},{"type":"Feature","properties":{"title":"Chato District Villages, Geita Region, Tanzania Mini Grids Project","id":4778,"area":4421.105608459506,"year":"2018","lastUpdated":"2018-06-27T00:16:36.042505","changesets":0,"mappers":0,"roads":0,"buildings":0,"edits":0,"latest":null},"geometry":{"type":"Point","coordinates":[31.98540590093474,-2.8573699057934006]}},{"type":"Feature","properties":{"title":"Tunduru, Ruvuma, Tanzania Mini Grids Project 02","id":4424,"area":1549.6766515243964,"year":"2018","lastUpdated":"2018-05-04T08:55:20.079197","changesets":855,"mappers":63,"roads":0.0711115935309787,"buildings":21117,"edits":21136,"latest":"2018-05-07T07:56:42.000Z"},"geometry":{"type":"Point","coordinates":[37.44642487877472,-11.304728564657015]}},{"type":"Feature","properties":{"title":"Urambo, Tabora, Tanzania Mini Grids Project 07","id":4354,"area":1417.644733786158,"year":"2018","lastUpdated":"2018-07-02T08:16:09.808700","changesets":1280,"mappers":66,"roads":0.235986987394966,"buildings":39644,"edits":39659,"latest":"2018-04-11T09:46:25.000Z"},"geometry":{"type":"Point","coordinates":[31.960650180526155,-4.799811038966155]}},{"type":"Feature","properties":{"title":"Kagera_2","id":4080,"area":4.132236731942467,"year":"2018","lastUpdated":"2018-01-29T09:03:59.256755","changesets":0,"mappers":0,"roads":0,"buildings":0,"edits":0,"latest":null},"geometry":{"type":"Point","coordinates":[32.119223662470695,-1.4703780484724356]}},{"type":"Feature","properties":{"title":"Mbozi, Mbeya, Tanzania Mini Grids Project 07","id":4350,"area":908.5380955685306,"year":"2018","lastUpdated":"2018-06-29T06:38:11.249834","changesets":907,"mappers":61,"roads":663.399475561412,"buildings":30497,"edits":31563,"latest":"2018-04-11T09:11:04.000Z"},"geometry":{"type":"Point","coordinates":[32.511668384650065,-8.419049370379382]}},{"type":"Feature","properties":{"title":"Priority Villages, Arusha Region, Tanzania Mini Grids Project","id":4799,"area":188.40438855389118,"year":"2018","lastUpdated":"2018-06-27T23:22:29.583572","changesets":0,"mappers":0,"roads":0,"buildings":0,"edits":0,"latest":null},"geometry":{"type":"Point","coordinates":[35.78268792390038,-2.52751411105647]}},{"type":"Feature","properties":{"title":"Urambo, Tabora, Tanzania Mini Grids Project 04","id":4366,"area":1540.7875686482291,"year":"2018","lastUpdated":"2018-04-23T12:46:20.979070","changesets":1920,"mappers":73,"roads":6.2619827819317,"buildings":42229,"edits":42283,"latest":"2018-04-23T12:45:52.000Z"},"geometry":{"type":"Point","coordinates":[31.8072741219125,-5.113293963680001]}},{"type":"Feature","properties":{"title":"Songea Rural, Ruvuma, Tanzania Mini Grids Project 04","id":4705,"area":2147.5450650948856,"year":"2018","lastUpdated":"2018-06-11T12:32:37.891253","changesets":969,"mappers":50,"roads":0.278493274043511,"buildings":10699,"edits":10720,"latest":"2018-06-11T13:01:29.000Z"},"geometry":{"type":"Point","coordinates":[35.393237159829305,-10.381420075475273]}},{"type":"Feature","properties":{"title":"Njombe Region, Tanzania Mini Grids Project 04","id":4749,"area":2091.750428289223,"year":"2018","lastUpdated":"2018-06-18T07:46:36.914192","changesets":936,"mappers":55,"roads":0.223430429574353,"buildings":39632,"edits":39669,"latest":"2018-06-14T14:02:28.000Z"},"geometry":{"type":"Point","coordinates":[33.9500057389153,-9.205214087122197]}},{"type":"Feature","properties":{"title":"Missing Maps: Dar es Salaam - Ramani Huria 2.0 - 34","id":3456,"area":196.89167630800463,"year":"2018","lastUpdated":"2018-03-05T15:30:13.278824","changesets":3676,"mappers":139,"roads":587.388974612295,"buildings":20987,"edits":38292,"latest":"2017-11-13T11:24:48.000Z"},"geometry":{"type":"Point","coordinates":[39.100288211273984,-6.877221494935376]}},{"type":"Feature","properties":{"title":"Missing Maps: Dar es Salaam - Ramani Huria 2.0 - 24","id":3410,"area":178.71077034656207,"year":"2018","lastUpdated":"2018-03-05T15:35:12.366029","changesets":1325,"mappers":49,"roads":0.0922744730575409,"buildings":7624,"edits":7650,"latest":"2017-08-16T00:47:29.000Z"},"geometry":{"type":"Point","coordinates":[39.49870437090148,-6.9536467580624555]}},{"type":"Feature","properties":{"title":"Kigoma_15","id":4102,"area":1.4561334248441051,"year":"2018","lastUpdated":"2018-02-07T07:32:02.125048","changesets":36,"mappers":5,"roads":0.613262345810854,"buildings":921,"edits":929,"latest":"2018-02-06T11:58:55.000Z"},"geometry":{"type":"Point","coordinates":[29.751054238259393,-5.416786723007887]}},{"type":"Feature","properties":{"title":"Dodoma","id":4075,"area":1376.1461971097149,"year":"2018","lastUpdated":"2018-01-27T16:19:15.755920","changesets":0,"mappers":0,"roads":0,"buildings":0,"edits":0,"latest":null},"geometry":{"type":"Point","coordinates":[35.01502914443591,-7.24110335290576]}},{"type":"Feature","properties":{"title":"Kigoma_16","id":4104,"area":7.541560145038916,"year":"2018","lastUpdated":"2018-02-15T12:46:38.375086","changesets":305,"mappers":9,"roads":1.4295542594309,"buildings":2851,"edits":2870,"latest":"2018-02-15T13:37:15.000Z"},"geometry":{"type":"Point","coordinates":[29.84589719532659,-5.5702642437272685]}},{"type":"Feature","properties":{"title":"Kigoma_10","id":4091,"area":4.460415768336148,"year":"2018","lastUpdated":"2018-02-08T09:50:21.431365","changesets":220,"mappers":5,"roads":0.0191951062871919,"buildings":3014,"edits":3016,"latest":"2018-02-08T09:50:17.000Z"},"geometry":{"type":"Point","coordinates":[29.852708915118153,-5.977798075388094]}},{"type":"Feature","properties":{"title":"KIgoma_4","id":4085,"area":2.399888577348453,"year":"2018","lastUpdated":"2018-02-01T08:56:49.652957","changesets":108,"mappers":6,"roads":1.32334526648593,"buildings":3032,"edits":3050,"latest":"2018-02-01T08:56:12.000Z"},"geometry":{"type":"Point","coordinates":[30.042473064769514,-6.458449644665783]}},{"type":"Feature","properties":{"title":"Mahenye-Njombe","id":4178,"area":419.20452177017404,"year":"2018","lastUpdated":"2018-02-28T05:34:07.695778","changesets":557,"mappers":14,"roads":2.81615930013736,"buildings":28307,"edits":28364,"latest":"2018-02-23T12:45:33.000Z"},"geometry":{"type":"Point","coordinates":[34.79358795360073,-9.509275911526554]}},{"type":"Feature","properties":{"title":"Central Singida, Singida, Tanzania Mini Grids Project 05 East","id":4529,"area":1299.832349107584,"year":"2018","lastUpdated":"2018-05-17T09:08:08.102064","changesets":829,"mappers":53,"roads":0.392972178332061,"buildings":16651,"edits":16659,"latest":"2018-05-17T11:23:30.000Z"},"geometry":{"type":"Point","coordinates":[35.19340611670751,-4.901696314033335]}},{"type":"Feature","properties":{"title":"Missing Maps: Dar es Salaam - Ramani Huria 2.0 - 23","id":3395,"area":200.39044222285065,"year":"2018","lastUpdated":"2018-03-05T15:37:23.174798","changesets":11931,"mappers":207,"roads":6.40062292346281,"buildings":130739,"edits":132569,"latest":"2017-12-05T17:05:23.000Z"},"geometry":{"type":"Point","coordinates":[39.17679213744439,-6.900453055307525]}},{"type":"Feature","properties":{"title":"Muheza malaria","id":4039,"area":580.7567384439337,"year":"2018","lastUpdated":"2018-06-01T20:37:30.159547","changesets":423,"mappers":18,"roads":9.04284919882175,"buildings":24405,"edits":24586,"latest":"2018-06-03T11:25:54.000Z"},"geometry":{"type":"Point","coordinates":[38.769019369140786,-5.149994286049941]}},{"type":"Feature","properties":{"title":"Kigoma_12","id":4098,"area":3.729917625288736,"year":"2018","lastUpdated":"2018-02-12T06:54:13.338393","changesets":479,"mappers":6,"roads":0.434900266530263,"buildings":2941,"edits":2951,"latest":"2018-02-12T06:53:36.000Z"},"geometry":{"type":"Point","coordinates":[29.9389865678107,-5.924358173879355]}},{"type":"Feature","properties":{"title":"Missing Maps: Dar es Salaam - Ramani Huria 2.0 - 37","id":3489,"area":417.09462410666663,"year":"2017","lastUpdated":"2017-09-18T12:03:21.740199","changesets":822,"mappers":61,"roads":562.998240273241,"buildings":1882,"edits":10391,"latest":"2017-11-09T12:33:34.000Z"},"geometry":{"type":"Point","coordinates":[39.462098843694726,-7.104153352099897]}},{"type":"Feature","properties":{"title":"Missing Maps: Dar es Salaam - Ramani Huria 2.0 - 28","id":3425,"area":238.90307672725964,"year":"2018","lastUpdated":"2018-03-05T15:33:37.319997","changesets":3337,"mappers":175,"roads":1979.67874635539,"buildings":2573,"edits":35065,"latest":"2017-11-03T04:15:17.000Z"},"geometry":{"type":"Point","coordinates":[39.23760432535289,-6.936433155607072]}},{"type":"Feature","properties":{"title":"Missing Maps: Dar es Salaam - Ramani Huria 2.0 - 30","id":3427,"area":324.58461584384474,"year":"2018","lastUpdated":"2018-03-05T15:31:42.602831","changesets":736,"mappers":55,"roads":997.252274559555,"buildings":82,"edits":5864,"latest":"2017-08-24T07:24:28.000Z"},"geometry":{"type":"Point","coordinates":[39.44712098681805,-7.118307308082444]}},{"type":"Feature","properties":{"title":"Njombe Region, Tanzania Mini Grids Project 02","id":4723,"area":1983.7355070009462,"year":"2018","lastUpdated":"2018-06-13T09:33:57.429622","changesets":1103,"mappers":56,"roads":0.208227637578225,"buildings":50720,"edits":50749,"latest":"2018-06-13T07:14:52.000Z"},"geometry":{"type":"Point","coordinates":[35.0200613677803,-9.007969824925567]}},{"type":"Feature","properties":{"title":"Kigoma_1","id":4082,"area":3.220895758602432,"year":"2018","lastUpdated":"2018-01-30T09:22:24.958026","changesets":128,"mappers":5,"roads":0,"buildings":3113,"edits":3113,"latest":"2018-02-19T11:05:31.000Z"},"geometry":{"type":"Point","coordinates":[30.44210254746399,-6.82158989076395]}},{"type":"Feature","properties":{"title":"Kigoma_7","id":4088,"area":2.1750746662810996,"year":"2018","lastUpdated":"2018-02-14T06:34:17.900163","changesets":64,"mappers":6,"roads":0,"buildings":770,"edits":770,"latest":"2018-02-14T06:35:46.000Z"},"geometry":{"type":"Point","coordinates":[29.747221030052973,-6.0249577041517295]}},{"type":"Feature","properties":{"title":"Bankolo Village, Tanzania Mini Grids Project","id":4649,"area":2.655569135969413,"year":"2018","lastUpdated":"2018-06-03T23:07:59.384606","changesets":23,"mappers":10,"roads":0,"buildings":35,"edits":35,"latest":"2018-06-02T09:43:11.000Z"},"geometry":{"type":"Point","coordinates":[35.452022531029996,-5.83740181330499]}},{"type":"Feature","properties":{"title":"Chemba and Bahi Districts, Tanzania Mini Grids Project 06","id":4657,"area":1954.498784623165,"year":"2018","lastUpdated":"2018-06-14T09:15:54.656575","changesets":1739,"mappers":67,"roads":0.0871877791220345,"buildings":23455,"edits":23473,"latest":"2018-06-15T19:15:22.000Z"},"geometry":{"type":"Point","coordinates":[35.518366503705884,-5.7085387258819065]}},{"type":"Feature","properties":{"title":"Missing Maps: Dar es Salaam - Ramani Huria 2.0 - 36","id":3488,"area":375.46340276958506,"year":"2018","lastUpdated":"2018-03-05T15:28:01.583533","changesets":3567,"mappers":92,"roads":484.778915813184,"buildings":27629,"edits":38950,"latest":"2017-09-08T11:51:25.000Z"},"geometry":{"type":"Point","coordinates":[39.342418323976254,-6.900416957671596]}},{"type":"Feature","properties":{"title":"Missing Maps: Dar es Salaam - Ramani Huria 2.0 - 40","id":3523,"area":44.58915788409798,"year":"2018","lastUpdated":"2018-03-04T23:01:06.175520","changesets":5364,"mappers":98,"roads":142.280090782385,"buildings":76616,"edits":90202,"latest":"2018-01-03T08:26:39.000Z"},"geometry":{"type":"Point","coordinates":[39.202911789704345,-6.764988440714859]}},{"type":"Feature","properties":{"title":"Ramani Huria 2.0 Session 01","id":3329,"area":31.68859428995046,"year":"2017","lastUpdated":"2017-08-10T21:07:17.738097","changesets":257,"mappers":67,"roads":32.0605720986966,"buildings":1717,"edits":2201,"latest":"2017-08-10T21:06:16.000Z"},"geometry":{"type":"Point","coordinates":[36.046382904052734,-7.679825943888342]}},{"type":"Feature","properties":{"title":"Central Singida, Singida, Tanzania Mini Grids Project 03","id":4519,"area":2105.041518258272,"year":"2018","lastUpdated":"2018-05-16T13:46:42.174753","changesets":1720,"mappers":63,"roads":0.0426727988520717,"buildings":55117,"edits":55135,"latest":"2018-05-16T14:10:04.000Z"},"geometry":{"type":"Point","coordinates":[34.9139572099927,-4.933032473319332]}},{"type":"Feature","properties":{"title":"Missing Maps: Dar es Salaam - Ramani Huria 2.0 - 31","id":3452,"area":122.32342510735991,"year":"2018","lastUpdated":"2018-03-05T15:31:01.812805","changesets":2509,"mappers":42,"roads":423.609994409643,"buildings":6830,"edits":24947,"latest":"2017-11-07T07:20:37.000Z"},"geometry":{"type":"Point","coordinates":[39.138780106334046,-6.615628277176966]}},{"type":"Feature","properties":{"title":"Mwanza","id":4074,"area":121.88924319716057,"year":"2018","lastUpdated":"2018-03-27T15:42:41.221237","changesets":6,"mappers":3,"roads":0.470326699343026,"buildings":24,"edits":42,"latest":"2018-03-27T15:44:50.000Z"},"geometry":{"type":"Point","coordinates":[33.126132567191135,-1.9238324242353735]}},{"type":"Feature","properties":{"title":"Urambo, Tabora, Tanzania Mini Grids Project 05","id":4352,"area":1522.3866868404682,"year":"2018","lastUpdated":"2018-06-29T06:39:44.799826","changesets":1420,"mappers":63,"roads":47.0933047252912,"buildings":58498,"edits":58580,"latest":"2018-04-11T09:35:31.000Z"},"geometry":{"type":"Point","coordinates":[31.750896252665452,-5.017669822392724]}},{"type":"Feature","properties":{"title":"Missing Maps: Dar es Salaam - Ramani Huria 2.0 - 33","id":3455,"area":156.72153831900792,"year":"2018","lastUpdated":"2018-03-05T15:30:37.208960","changesets":2954,"mappers":102,"roads":579.977370621098,"buildings":21094,"edits":39085,"latest":"2017-10-29T15:21:56.000Z"},"geometry":{"type":"Point","coordinates":[39.06687201276458,-6.7708713265034515]}},{"type":"Feature","properties":{"title":"Mbozi, Mbeya, Tanzania Mini Grids Project 05","id":4291,"area":1217.253471872788,"year":"2018","lastUpdated":"2018-06-28T18:33:30.349701","changesets":1051,"mappers":65,"roads":1098.18198535427,"buildings":16367,"edits":18267,"latest":"2018-04-11T10:37:22.000Z"},"geometry":{"type":"Point","coordinates":[32.832228251564956,-8.77762069709877]}},{"type":"Feature","properties":{"title":"Zanzibar Roads - Unguja Island - 02","id":3666,"area":467.0999763333136,"year":"2017","lastUpdated":"2017-10-02T18:35:16.494476","changesets":182,"mappers":13,"roads":1127.1061948184,"buildings":5,"edits":6570,"latest":"2017-10-04T08:29:26.000Z"},"geometry":{"type":"Point","coordinates":[39.26414174907967,-5.856335474346869]}},{"type":"Feature","properties":{"title":"kagera_3","id":4072,"area":5.425110699350517,"year":"2018","lastUpdated":"2018-01-29T13:51:44.560135","changesets":66,"mappers":4,"roads":0,"buildings":1436,"edits":1436,"latest":"2018-01-30T06:14:28.000Z"},"geometry":{"type":"Point","coordinates":[31.78296036744672,-1.9859577129840518]}},{"type":"Feature","properties":{"title":"Missing Maps: Dar es Salaam - Ramani Huria 2.0 - 39","id":3505,"area":96.83711970341507,"year":"2018","lastUpdated":"2018-03-04T23:01:32.143525","changesets":3897,"mappers":79,"roads":269.298159883004,"buildings":48923,"edits":63495,"latest":"2017-09-18T11:50:06.000Z"},"geometry":{"type":"Point","coordinates":[39.305843254526984,-6.840568905719535]}},{"type":"Feature","properties":{"title":"Missing Maps: Kyela - Data Zetu","id":3698,"area":251.55720854707542,"year":"2018","lastUpdated":"2018-04-05T07:21:35.195103","changesets":794,"mappers":11,"roads":1.82568061664987,"buildings":29269,"edits":29334,"latest":"2018-04-04T13:51:14.000Z"},"geometry":{"type":"Point","coordinates":[33.84069567931769,-9.544454940746501]}},{"type":"Feature","properties":{"title":"Missing Maps: Dar es Salaam - Ramani Huria 2.0 - 38","id":3496,"area":41.1920610625183,"year":"2018","lastUpdated":"2018-03-05T15:25:20.531310","changesets":5472,"mappers":73,"roads":78.4353169552313,"buildings":94858,"edits":120253,"latest":"2017-11-10T12:46:09.000Z"},"geometry":{"type":"Point","coordinates":[39.246766265484496,-6.7942247570358445]}},{"type":"Feature","properties":{"title":"Missing Maps: Temeke - Data Zetu","id":3699,"area":14.051390146474496,"year":"2018","lastUpdated":"2018-03-04T22:52:17.712834","changesets":931,"mappers":30,"roads":58.5254100191776,"buildings":29137,"edits":33372,"latest":"2018-03-09T20:29:21.000Z"},"geometry":{"type":"Point","coordinates":[39.26423919262868,-6.891846441400092]}},{"type":"Feature","properties":{"title":"Missing Maps: Dar es Salaam - Ramani Huria 2.0 - 35","id":3479,"area":278.2939060927899,"year":"2018","lastUpdated":"2018-03-05T15:29:18.639586","changesets":2410,"mappers":124,"roads":330.96957804182,"buildings":13540,"edits":24252,"latest":"2017-09-14T20:28:36.000Z"},"geometry":{"type":"Point","coordinates":[39.12088847308327,-7.024730678705793]}},{"type":"Feature","properties":{"title":"Missing Maps: Dar es Salaam - Ramani Huria 2.0 - 27","id":3424,"area":230.31173426208932,"year":"2018","lastUpdated":"2018-03-05T15:33:58.772352","changesets":2533,"mappers":79,"roads":1585.23523604963,"buildings":328,"edits":20922,"latest":"2017-08-31T08:30:39.000Z"},"geometry":{"type":"Point","coordinates":[39.10027660536416,-7.025038398924583]}},{"type":"Feature","properties":{"title":"Mbozi, Mbeya, Tanzania Mini Grids Project 03","id":4289,"area":1303.883290131881,"year":"2018","lastUpdated":"2018-06-29T13:16:07.336988","changesets":2369,"mappers":71,"roads":1709.1223406615,"buildings":56972,"edits":61831,"latest":"2018-04-04T13:53:11.000Z"},"geometry":{"type":"Point","coordinates":[32.660369621525334,-8.981003005244997]}},{"type":"Feature","properties":{"title":"Chemba and Bahi Districts, Tanzania Mini Grids Project 01","id":4652,"area":2950.555321557993,"year":"2018","lastUpdated":"2018-06-06T01:12:59.251085","changesets":1731,"mappers":66,"roads":29.3981576364086,"buildings":66133,"edits":66262,"latest":"2018-06-05T14:50:27.000Z"},"geometry":{"type":"Point","coordinates":[35.69208315004388,-5.024101828866096]}},{"type":"Feature","properties":{"title":"Kigoma_8","id":4089,"area":3.170194931843662,"year":"2018","lastUpdated":"2018-02-14T08:58:00.280285","changesets":175,"mappers":7,"roads":0.00164720947993757,"buildings":5558,"edits":5558,"latest":"2018-02-15T13:52:57.000Z"},"geometry":{"type":"Point","coordinates":[29.77626862798747,-6.004675849692375]}},{"type":"Feature","properties":{"title":"Kigoma_14","id":4100,"area":0.8979043606940176,"year":"2018","lastUpdated":"2018-02-16T06:09:02.081829","changesets":179,"mappers":9,"roads":0,"buildings":906,"edits":906,"latest":"2018-02-16T06:08:51.000Z"},"geometry":{"type":"Point","coordinates":[29.64091800036702,-4.624237761570404]}},{"type":"Feature","properties":{"title":"Kalobe-Data Zetu","id":4242,"area":5.581452341462152,"year":"2018","lastUpdated":"2018-03-07T09:09:27.180898","changesets":531,"mappers":5,"roads":0.0106237188235286,"buildings":6096,"edits":6109,"latest":"2018-03-07T09:02:49.000Z"},"geometry":{"type":"Point","coordinates":[33.4084716088529,-8.914847386034923]}},{"type":"Feature","properties":{"title":"Mara","id":4073,"area":3.087873440053216,"year":"2018","lastUpdated":"2018-01-29T14:51:44.742950","changesets":0,"mappers":0,"roads":0,"buildings":0,"edits":0,"latest":null},"geometry":{"type":"Point","coordinates":[33.70828711361714,-1.4058350861409175]}},{"type":"Feature","properties":{"title":"Mbozi, Mbeya, Tanzania Mini Grids Project 04","id":4290,"area":1211.7161084477548,"year":"2018","lastUpdated":"2018-07-03T09:23:29.574736","changesets":1169,"mappers":69,"roads":1444.56368233182,"buildings":35862,"edits":38500,"latest":"2018-04-10T12:46:01.000Z"},"geometry":{"type":"Point","coordinates":[32.864289160170514,-8.870478995599651]}},{"type":"Feature","properties":{"title":"Missing Maps: Iringa - OpenStreetMap Tanzania","id":3431,"area":13.946474979484007,"year":"2018","lastUpdated":"2018-07-05T09:26:14.304238","changesets":607,"mappers":56,"roads":14.6089667908956,"buildings":3492,"edits":4272,"latest":"2018-06-16T13:59:57.000Z"},"geometry":{"type":"Point","coordinates":[35.70870872020667,-7.758966359486665]}},{"type":"Feature","properties":{"title":"Tanzania Development Trust: Kagera Road Mapping","id":4369,"area":15505.318016681384,"year":"2018","lastUpdated":"2018-06-17T15:44:26.132464","changesets":11,"mappers":3,"roads":12.7479650866356,"buildings":18,"edits":33,"latest":"2018-06-10T18:30:49.000Z"},"geometry":{"type":"Point","coordinates":[31.083802641369388,-1.6037426685457075]}},{"type":"Feature","properties":{"title":"Kigoma_6","id":4087,"area":3.103362564009721,"year":"2018","lastUpdated":"2018-02-15T12:32:16.947516","changesets":201,"mappers":8,"roads":0.0059086431357116,"buildings":3802,"edits":3802,"latest":"2018-02-13T11:37:26.000Z"},"geometry":{"type":"Point","coordinates":[29.957718322358744,-6.483041975356721]}},{"type":"Feature","properties":{"title":"Missing Maps: Dar es Salaam - Ramani Huria 2.0 - 20","id":3387,"area":92.06647987703117,"year":"2018","lastUpdated":"2018-03-05T15:38:02.296786","changesets":1407,"mappers":57,"roads":12.7576761938866,"buildings":34483,"edits":36868,"latest":"2017-08-15T08:33:29.000Z"},"geometry":{"type":"Point","coordinates":[39.115395701674714,-6.820271980216828]}},{"type":"Feature","properties":{"title":"Missing Maps: Dar es Salaam - Ramani Huria 2.0 - 29","id":3426,"area":297.76980439882516,"year":"2018","lastUpdated":"2018-03-05T15:32:07.612903","changesets":627,"mappers":46,"roads":1351.44697865554,"buildings":91,"edits":10344,"latest":"2017-09-06T11:56:12.000Z"},"geometry":{"type":"Point","coordinates":[39.45915654892912,-6.919374059784676]}},{"type":"Feature","properties":{"title":"Mwanza_sengerema","id":4069,"area":126.12964780900826,"year":"2018","lastUpdated":"2018-01-27T16:59:18.497099","changesets":1,"mappers":1,"roads":0,"buildings":0,"edits":0,"latest":"2018-01-27T16:55:51.000Z"},"geometry":{"type":"Point","coordinates":[32.01839321825404,-2.2808662314499273]}},{"type":"Feature","properties":{"title":"Didia, Jomu, Singita in Shinyanga District, Tanzania Mini Grids Project","id":4695,"area":633.425618192545,"year":"2018","lastUpdated":"2018-06-07T13:04:55.031560","changesets":1071,"mappers":69,"roads":1.1515270702661,"buildings":35118,"edits":35234,"latest":"2018-06-14T10:23:19.000Z"},"geometry":{"type":"Point","coordinates":[33.189868583679996,-3.852090824045]}},{"type":"Feature","properties":{"title":"TZ IFC Mini-grids house count test-1","id":4035,"area":481.70619678590833,"year":"2018","lastUpdated":"2018-02-09T12:39:18.669550","changesets":3,"mappers":3,"roads":0,"buildings":180,"edits":180,"latest":"2018-02-09T12:27:18.000Z"},"geometry":{"type":"Point","coordinates":[34.581446410258884,-7.300716320272623]}},{"type":"Feature","properties":{"title":"Zanzibar Roads - Unguja Island - 01","id":3650,"area":234.75514110431052,"year":"2017","lastUpdated":"2017-10-07T12:29:26.306281","changesets":573,"mappers":18,"roads":1191.68951939582,"buildings":43,"edits":17373,"latest":"2017-10-07T12:28:50.000Z"},"geometry":{"type":"Point","coordinates":[39.248176202742364,-6.1821500381296275]}},{"type":"Feature","properties":{"title":"Ardhi University: Housing Development - Arusha, Mateves","id":3936,"area":105.10882142853721,"year":"2018","lastUpdated":"2018-01-16T23:34:03.009579","changesets":3556,"mappers":30,"roads":138.191525659107,"buildings":7500,"edits":8425,"latest":"2018-01-16T23:32:57.000Z"},"geometry":{"type":"Point","coordinates":[36.59653045580638,-3.4472906101117435]}},{"type":"Feature","properties":{"title":"Missing Maps: Dar es Salaam - Ramani Huria 2.0 - 25","id":3411,"area":260.81879568766976,"year":"2018","lastUpdated":"2018-03-05T15:34:52.492149","changesets":1755,"mappers":99,"roads":3.25862217409201,"buildings":58641,"edits":59730,"latest":"2017-08-21T09:01:52.000Z"},"geometry":{"type":"Point","coordinates":[39.37092792533908,-6.938791309484072]}},{"type":"Feature","properties":{"title":"Missing Maps: Dar es Salaam - Ramani Huria 2.0 - 26","id":3412,"area":264.77964572508387,"year":"2018","lastUpdated":"2018-03-05T15:34:27.981696","changesets":362,"mappers":52,"roads":2.21303831070795,"buildings":4558,"edits":4620,"latest":"2017-08-16T10:11:16.000Z"},"geometry":{"type":"Point","coordinates":[39.452851686025426,-7.123357238474153]}},{"type":"Feature","properties":{"title":"Ikuna Ward Mapping Project","id":3203,"area":224.51296025612464,"year":"2018","lastUpdated":"2018-03-05T15:47:24.873442","changesets":335,"mappers":7,"roads":742.813559438956,"buildings":4401,"edits":9943,"latest":"2017-10-31T12:28:59.000Z"},"geometry":{"type":"Point","coordinates":[34.9328327178955,-9.190730246414187]}},{"type":"Feature","properties":{"title":"Tanzania Development Trust and Institute for Rural Development Planning: Mvomero district student mapping project ","id":3319,"area":1439.4586268120136,"year":"2018","lastUpdated":"2018-03-30T09:46:27.084556","changesets":0,"mappers":0,"roads":0,"buildings":0,"edits":0,"latest":null},"geometry":{"type":"Point","coordinates":[37.51997811453685,-6.44864147483987]}},{"type":"Feature","properties":{"title":"Mbeya minigrids","id":4208,"area":381.3150730146897,"year":"2018","lastUpdated":"2018-04-11T07:15:52.458810","changesets":8229,"mappers":81,"roads":545.472150450804,"buildings":454625,"edits":458780,"latest":"2018-03-29T12:55:24.000Z"},"geometry":{"type":"Point","coordinates":[33.273085375143864,-8.927145320940063]}},{"type":"Feature","properties":{"title":"Kigoma_2","id":4083,"area":1.965158778543636,"year":"2018","lastUpdated":"2018-01-30T14:05:17.983249","changesets":127,"mappers":2,"roads":0,"buildings":458,"edits":458,"latest":"2018-01-30T14:04:27.000Z"},"geometry":{"type":"Point","coordinates":[30.490210022071953,-6.813742245754607]}},{"type":"Feature","properties":{"title":"Kagera_Goziba","id":4068,"area":1.2825061201820658,"year":"2018","lastUpdated":"2018-01-27T17:08:13.788121","changesets":1,"mappers":1,"roads":0,"buildings":0,"edits":0,"latest":"2018-01-27T17:01:56.000Z"},"geometry":{"type":"Point","coordinates":[32.613511747768825,-1.4704431873747166]}},{"type":"Feature","properties":{"title":"Tanzania Development Trust: Msisi ward community mapping project ","id":3160,"area":81.67279767012198,"year":"2018","lastUpdated":"2018-04-26T00:17:28.085993","changesets":0,"mappers":0,"roads":0,"buildings":0,"edits":0,"latest":null},"geometry":{"type":"Point","coordinates":[34.66563340576518,-4.623019740570436]}},{"type":"Feature","properties":{"title":"RiftValley Energy houses count","id":4034,"area":3182.0339068213334,"year":"2018","lastUpdated":"2018-02-13T06:50:28.478981","changesets":1196,"mappers":18,"roads":2.25560241095202,"buildings":73824,"edits":74303,"latest":"2018-02-13T09:48:18.000Z"},"geometry":{"type":"Point","coordinates":[35.64345427782045,-8.381566823262816]}},{"type":"Feature","properties":{"title":"Kigoma_17","id":4105,"area":4.227050493859274,"year":"2018","lastUpdated":"2018-02-15T09:58:31.382396","changesets":84,"mappers":8,"roads":0.193564177598396,"buildings":1322,"edits":1325,"latest":"2018-02-22T12:12:21.000Z"},"geometry":{"type":"Point","coordinates":[29.924467030509287,-5.732861759308482]}},{"type":"Feature","properties":{"title":"Itona_Kilosa","id":4179,"area":741.6959938125862,"year":"2018","lastUpdated":"2018-04-11T06:43:22.814485","changesets":409,"mappers":55,"roads":1.35885332610885,"buildings":3691,"edits":3744,"latest":"2018-04-11T07:21:08.000Z"},"geometry":{"type":"Point","coordinates":[35.53547612786605,-8.535150251339573]}}],"Botswana":[{"type":"Feature","properties":{"title":"Botswana, Nata Village (re-do) - National Malaria Programme","id":4382,"area":434.7624185220041,"year":"2018","lastUpdated":"2018-04-18T13:15:59.093918","changesets":662,"mappers":110,"roads":697.130695316268,"buildings":3508,"edits":6902,"latest":"2018-04-14T08:01:09.000Z"},"geometry":{"type":"Point","coordinates":[26.23310153948304,-20.431940518587243]}},{"type":"Feature","properties":{"title":"Botswana, Tsau Village - National Malaria Programme","id":4341,"area":105.35375908446986,"year":"2018","lastUpdated":"2018-05-04T15:40:21.411921","changesets":216,"mappers":43,"roads":145.819076871357,"buildings":884,"edits":1597,"latest":"2018-04-25T17:01:18.000Z"},"geometry":{"type":"Point","coordinates":[22.397900206073455,-20.149402404545274]}},{"type":"Feature","properties":{"title":"Botswana, Mathathane Village - National Malaria Programme","id":4340,"area":71.14226400245143,"year":"2018","lastUpdated":"2018-05-04T19:32:33.305285","changesets":260,"mappers":35,"roads":270.672171601546,"buildings":1057,"edits":2262,"latest":"2018-04-26T20:24:37.000Z"},"geometry":{"type":"Point","coordinates":[28.640109098034614,-22.247941788977375]}},{"type":"Feature","properties":{"title":"Botswana, Motopi Village - National Malaria Programme","id":4338,"area":13.131378829193364,"year":"2018","lastUpdated":"2018-05-04T15:39:57.857560","changesets":167,"mappers":32,"roads":94.5419408108963,"buildings":964,"edits":1503,"latest":"2018-05-03T22:32:17.000Z"},"geometry":{"type":"Point","coordinates":[24.115712164009352,-20.23742594346273]}},{"type":"Feature","properties":{"title":"Botswana, Gumare Village - National Malaria Programme","id":4339,"area":62.94267106863238,"year":"2018","lastUpdated":"2018-05-04T19:40:12.331089","changesets":408,"mappers":51,"roads":114.364259908699,"buildings":2711,"edits":3636,"latest":"2018-04-18T10:29:18.000Z"},"geometry":{"type":"Point","coordinates":[22.18267293596798,-19.359871131002357]}},{"type":"Feature","properties":{"title":"Peace Corps Botswana - Thamaga VI","id":954,"area":5.315276500548214,"year":"2017","lastUpdated":"2017-02-24T07:46:52.722795","changesets":70,"mappers":6,"roads":42.1040000400871,"buildings":855,"edits":1511,"latest":"2017-02-24T07:46:57.000Z"},"geometry":{"type":"Point","coordinates":[25.529560446739186,-24.6810785451564]}},{"type":"Feature","properties":{"title":"Botswana, Chobe District - National Malaria Programme","id":4317,"area":2422.6655366125387,"year":"2018","lastUpdated":"2018-05-04T19:38:57.981887","changesets":1401,"mappers":158,"roads":1981.40636245231,"buildings":5944,"edits":11864,"latest":"2018-04-22T20:13:03.000Z"},"geometry":{"type":"Point","coordinates":[25.171173150295072,-18.0834268952089]}}],"Ethiopia":[{"type":"Feature","properties":{"title":"Missing Maps - Ethiopia - Hamer Woreda South Omo zone - Part 02","id":4348,"area":1146.6473658836119,"year":"2018","lastUpdated":"2018-06-21T14:48:24.884106","changesets":257,"mappers":35,"roads":157.830155841596,"buildings":2256,"edits":2627,"latest":"2018-06-15T07:58:44.000Z"},"geometry":{"type":"Point","coordinates":[36.81444325638438,5.309369237202133]}},{"type":"Feature","properties":{"title":"Missing Maps - Ethiopia - Hamer Woreda South Omo zone","id":4347,"area":356.56699138047725,"year":"2018","lastUpdated":"2018-06-12T09:55:59.718753","changesets":437,"mappers":64,"roads":285.967329352915,"buildings":4809,"edits":5246,"latest":"2018-06-08T13:28:44.000Z"},"geometry":{"type":"Point","coordinates":[36.64986691146421,4.939154924453511]}},{"type":"Feature","properties":{"title":"Lower Omo Valley, Ethiopia Settlement Survey","id":2883,"area":2591.691298512675,"year":"2018","lastUpdated":"2018-02-08T07:50:06.305681","changesets":375,"mappers":34,"roads":396.878496604388,"buildings":8760,"edits":9190,"latest":"2018-02-08T07:50:08.000Z"},"geometry":{"type":"Point","coordinates":[35.95441606713822,5.272330905887008]}},{"type":"Feature","properties":{"title":"Ethiopia Denboya area roads","id":3930,"area":25.567548732933336,"year":"2018","lastUpdated":"2018-06-30T12:14:49.265432","changesets":147,"mappers":17,"roads":234.756820069413,"buildings":223,"edits":2608,"latest":"2018-06-10T07:02:15.000Z"},"geometry":{"type":"Point","coordinates":[37.950768470764075,7.343301573630647]}}],"Uganda":[{"type":"Feature","properties":{"title":"Salesforce, Uganda Crowd-Sourcing Non-Camp Refugee Data (Urban Mapping) Rubaga Division Part 3 Kampala District","id":4330,"area":13.01779996853652,"year":"2018","lastUpdated":"2018-04-11T11:58:50.107806","changesets":1272,"mappers":120,"roads":16.3060620637681,"buildings":13776,"edits":14085,"latest":"2018-05-18T12:59:22.000Z"},"geometry":{"type":"Point","coordinates":[32.52909745736579,0.2890472003472374]}},{"type":"Feature","properties":{"title":"Salesforce, Uganda Crowd-Sourcing Non-Camp Refugee Data (Urban Mapping), Rubaga Division Part 2, Kampala District","id":4328,"area":10.441771719335271,"year":"2018","lastUpdated":"2018-04-03T16:09:44.121669","changesets":2540,"mappers":106,"roads":12.5259851096213,"buildings":12470,"edits":12759,"latest":"2018-03-30T13:26:57.000Z"},"geometry":{"type":"Point","coordinates":[32.532463481935196,0.31771719846770996]}},{"type":"Feature","properties":{"title":"Salesforce, Uganda Crowd-Sourcing Non-Camp Refugee Data (Urban Mapping) Rubaga Division Part 1, Kampala District","id":4327,"area":8.40126840870032,"year":"2018","lastUpdated":"2018-07-05T08:54:53.734362","changesets":3087,"mappers":184,"roads":3.01395009336934,"buildings":18490,"edits":18585,"latest":"2018-05-29T05:30:41.000Z"},"geometry":{"type":"Point","coordinates":[32.54524653779347,0.3421427883853258]}},{"type":"Feature","properties":{"title":"Uganda Crowd-Sourcing Non-Camp Refugee Data,Bunagana, Bwanjebe,Nkanda Villages, Kisoro District","id":4296,"area":75.2889012665682,"year":"2018","lastUpdated":"2018-04-03T16:11:20.829940","changesets":841,"mappers":83,"roads":60.2114211103457,"buildings":12618,"edits":12986,"latest":"2018-03-22T04:32:52.000Z"},"geometry":{"type":"Point","coordinates":[29.623110965844802,-1.3338247671419492]}},{"type":"Feature","properties":{"title":"Uganda Crowd-sourcing Non-Camp Refugee Data Nyakabande, Kagoma,Mutolere Villages, Kisoro District Base Mapping","id":4288,"area":49.58167859253421,"year":"2018","lastUpdated":"2018-03-27T18:21:23.444372","changesets":539,"mappers":42,"roads":7.95023042536063,"buildings":6741,"edits":6803,"latest":"2018-03-27T19:25:55.000Z"},"geometry":{"type":"Point","coordinates":[29.747966832204348,-1.3098261507978273]}},{"type":"Feature","properties":{"title":"Uganda Crowdsourcing Non-Camp Refugee Data, Paludar, Padwar Villages, Lamwo District","id":4267,"area":64.49965935741052,"year":"2018","lastUpdated":"2018-03-18T22:47:09.770063","changesets":387,"mappers":46,"roads":200.562108394955,"buildings":15053,"edits":15640,"latest":"2018-04-10T03:36:42.000Z"},"geometry":{"type":"Point","coordinates":[32.47096378217274,3.3937796017558117]}},{"type":"Feature","properties":{"title":"Uganda Crowd-sourcing Non-Camp Refugee Data - Roads (GPX Tracks) Mapping Arua District","id":4701,"area":4395.597295670786,"year":"2018","lastUpdated":"2018-07-04T10:10:07.305329","changesets":27,"mappers":6,"roads":322.395536757789,"buildings":754,"edits":1818,"latest":"2018-06-17T09:47:02.000Z"},"geometry":{"type":"Point","coordinates":[31.074578862085442,2.9228176868678046]}},{"type":"Feature","properties":{"title":"Uganda Crowdsourcing Non-Camp Refugee Data (Urban Mapping) Kampala Nakawa Division Part 1","id":4371,"area":27.407181548683663,"year":"2018","lastUpdated":"2018-06-18T17:12:28.543325","changesets":2418,"mappers":383,"roads":67.641466541415,"buildings":56190,"edits":57455,"latest":"2018-06-17T08:15:23.000Z"},"geometry":{"type":"Point","coordinates":[32.64702688918785,0.3114578744389416]}},{"type":"Feature","properties":{"title":"Uganda Crowdsourcing Non-Camp Refugee Data, Rwamwanja Refugee Settlement, Kamwenge District","id":4798,"area":343.59803817321034,"year":"2018","lastUpdated":"2018-07-06T20:59:53.596264","changesets":0,"mappers":0,"roads":0,"buildings":0,"edits":0,"latest":null},"geometry":{"type":"Point","coordinates":[30.67052946158785,0.3056601787846434]}},{"type":"Feature","properties":{"title":"Uganda Crowdsourcing Non-Camp Refugee Data, Oruchinga, Isingiro District","id":4829,"area":362.6687747467698,"year":"2018","lastUpdated":"2018-07-06T06:09:02.828380","changesets":0,"mappers":0,"roads":0,"buildings":0,"edits":0,"latest":null},"geometry":{"type":"Point","coordinates":[30.65006556725022,-0.936229954514776]}},{"type":"Feature","properties":{"title":"Uganda Crowd-sourcing Non-Camp Refugee Data (Urban Mapping), Hoima Municipality, Hoima District","id":4593,"area":40.21494542121517,"year":"2018","lastUpdated":"2018-07-05T19:10:33.534406","changesets":647,"mappers":135,"roads":14.2171444025833,"buildings":7146,"edits":7297,"latest":"2018-06-15T10:53:42.000Z"},"geometry":{"type":"Point","coordinates":[31.345254619743375,1.4316581460231461]}},{"type":"Feature","properties":{"title":"Uganda Crowd-sourcing Non-Camp Refugee Data,Vurra Subcounty, Arua","id":4686,"area":125.97781211607399,"year":"2018","lastUpdated":"2018-07-06T22:15:51.455605","changesets":428,"mappers":49,"roads":2.55470864636047,"buildings":2717,"edits":2735,"latest":"2018-06-17T08:28:04.000Z"},"geometry":{"type":"Point","coordinates":[30.908277625357083,2.891373568463031]}},{"type":"Feature","properties":{"title":"Uganda Open Mapping - Ggaaba Parish, Kampala City","id":4360,"area":6.9888601486311845,"year":"2018","lastUpdated":"2018-04-06T15:02:52.228020","changesets":637,"mappers":69,"roads":14.4832036693082,"buildings":5657,"edits":5981,"latest":"2018-04-11T10:44:28.000Z"},"geometry":{"type":"Point","coordinates":[32.63390846096743,0.26019887977613626]}},{"type":"Feature","properties":{"title":"Uganda - Bridges to Prosperity - Bridge AOI Mapping","id":4322,"area":6.405450259715074,"year":"2018","lastUpdated":"2018-04-09T09:23:54.404545","changesets":140,"mappers":11,"roads":52.7012264258264,"buildings":1606,"edits":1975,"latest":"2018-04-09T05:13:11.000Z"},"geometry":{"type":"Point","coordinates":[34.2550464453546,1.1160398032570225]}},{"type":"Feature","properties":{"title":"Uganda Crowdsourcing Non-Camp Refugee Data, Palabek Kal, Lamwo Distrcit","id":4268,"area":84.40290946779128,"year":"2018","lastUpdated":"2018-05-10T14:31:40.842466","changesets":399,"mappers":64,"roads":49.6563847880299,"buildings":6125,"edits":6415,"latest":"2018-03-27T16:26:33.000Z"},"geometry":{"type":"Point","coordinates":[32.56513191674855,3.3711969971804834]}},{"type":"Feature","properties":{"title":"Salesforce, Uganda Crowd-sourcing Non-Camp Refugee Data (Urban Mapping), Kibuye, Katwe, Makindye","id":4134,"area":5.069268955123824,"year":"2018","lastUpdated":"2018-06-26T15:44:40.229402","changesets":1988,"mappers":175,"roads":10.3876149291967,"buildings":11851,"edits":12260,"latest":"2018-04-23T16:04:58.000Z"},"geometry":{"type":"Point","coordinates":[32.578041636227496,0.29224840556124765]}},{"type":"Feature","properties":{"title":"Salesforce, Uganda Crowd-sourcing Non-Camp Refugee Data (Urban Mapping), Kansanga, Kibuli, Namuwongo","id":4133,"area":5.519847154808274,"year":"2018","lastUpdated":"2018-03-23T08:13:18.528307","changesets":1289,"mappers":114,"roads":1.69459137017284,"buildings":6253,"edits":6365,"latest":"2018-03-14T19:38:14.000Z"},"geometry":{"type":"Point","coordinates":[32.60050128803857,0.30110921276286007]}},{"type":"Feature","properties":{"title":"Salesforce, Uganda Crowd-sourcing Non-Camp Refugee Data (Urban Mapping), Bakuli, Lubiri, Old Kampala, Kabuusu","id":4132,"area":10.230783549660723,"year":"2018","lastUpdated":"2018-03-23T08:13:09.103526","changesets":755,"mappers":99,"roads":27.1667762988123,"buildings":4245,"edits":4480,"latest":"2018-03-15T11:13:32.000Z"},"geometry":{"type":"Point","coordinates":[32.56214680347001,0.3072264294271423]}},{"type":"Feature","properties":{"title":"Bwaise Tracing","id":99,"area":0.8424582471365009,"year":"2016","lastUpdated":"2016-03-02T12:08:00.918169","changesets":3,"mappers":1,"roads":0.0924258716863386,"buildings":0,"edits":3,"latest":"2014-12-16T08:53:26.000Z"},"geometry":{"type":"Point","coordinates":[32.55938243412958,0.3497321340591482]}},{"type":"Feature","properties":{"title":"Salesforce, Uganda Crowd-sourcing Non-Camp Refugee Data (Urban Mapping), Ndeeba, Wankulukuku","id":4135,"area":4.371431618487186,"year":"2018","lastUpdated":"2018-03-27T16:15:22.176595","changesets":1031,"mappers":144,"roads":9.29574392161781,"buildings":10517,"edits":10741,"latest":"2018-04-03T08:49:40.000Z"},"geometry":{"type":"Point","coordinates":[32.55563010348889,0.2863901650888876]}},{"type":"Feature","properties":{"title":"Uganda Crowdsourcing Non-Camp Refugee Data Base Mapping, Kyangwali Area, Hoima, Kagadi District","id":4277,"area":223.49057286073074,"year":"2018","lastUpdated":"2018-06-26T08:53:42.433904","changesets":1363,"mappers":182,"roads":169.046331057569,"buildings":21325,"edits":22452,"latest":"2018-06-13T18:57:27.000Z"},"geometry":{"type":"Point","coordinates":[30.773839361582926,1.1603113359856785]}},{"type":"Feature","properties":{"title":"Uganda Crowd-Sourcing Non-Camp Refugee Data,Rwanzu, Busanza,Nyamagana,Busengo Villages Kisoro District","id":4297,"area":54.61581088784912,"year":"2018","lastUpdated":"2018-05-23T05:39:56.832232","changesets":1018,"mappers":75,"roads":23.0541164186441,"buildings":7173,"edits":7248,"latest":"2018-05-23T05:38:36.000Z"},"geometry":{"type":"Point","coordinates":[29.617397280324827,-1.2450696703101722]}},{"type":"Feature","properties":{"title":"Uganda CrowdSourcing Non-Refugee Data, Isingiro District","id":4497,"area":1029.2287197351604,"year":"2018","lastUpdated":"2018-05-23T20:34:53.947108","changesets":2552,"mappers":270,"roads":344.47992231982,"buildings":25805,"edits":26685,"latest":"2018-05-24T11:09:35.000Z"},"geometry":{"type":"Point","coordinates":[31.00773680704972,-0.8648341878436095]}},{"type":"Feature","properties":{"title":"Uganda Crowd-sourcing Non-Camp Refugee Data, Rwebisengo, Kahondo, Makondo Villages, Ntoroko District Base Mapping","id":4295,"area":162.10041758428503,"year":"2018","lastUpdated":"2018-05-25T05:31:04.061957","changesets":1286,"mappers":54,"roads":10.4920207350625,"buildings":3532,"edits":3557,"latest":"2018-04-04T00:30:34.000Z"},"geometry":{"type":"Point","coordinates":[30.27564502638289,1.0482015863826952]}},{"type":"Feature","properties":{"title":"Uganda Crowd-sourcing Non-Camp Refugee Data, Offaka, Anyiribu Subcounty, Arua District Base Mapping","id":4314,"area":292.26457151971164,"year":"2018","lastUpdated":"2018-04-03T16:10:44.554351","changesets":1614,"mappers":182,"roads":169.132518589228,"buildings":11036,"edits":12198,"latest":"2018-03-29T15:15:29.000Z"},"geometry":{"type":"Point","coordinates":[31.089419945984925,2.6427265966896725]}}],"Philippines":[{"type":"Feature","properties":{"title":"CRS-UP NOAH Building Footprints Mapping - Malabon City (Free for All)","id":4306,"area":0.8869727357098613,"year":"2018","lastUpdated":"2018-03-16T08:07:15.295915","changesets":11,"mappers":2,"roads":0,"buildings":86,"edits":86,"latest":"2018-03-18T13:04:12.000Z"},"geometry":{"type":"Point","coordinates":[120.96156142151258,14.659111625361861]}},{"type":"Feature","properties":{"title":"Barangay Talisay, Mayorga, Leyte - Missing Maps","id":3829,"area":2.270534722569991,"year":"2018","lastUpdated":"2018-01-25T15:59:08.065074","changesets":61,"mappers":13,"roads":3.70690145632449,"buildings":738,"edits":928,"latest":"2017-12-24T15:19:57.000Z"},"geometry":{"type":"Point","coordinates":[124.9775838851929,10.91758102492891]}},{"type":"Feature","properties":{"title":"Mapping in Cavite, Philippines - SA activities","id":378,"area":347.85007544928436,"year":"2018","lastUpdated":"2018-01-31T02:41:47.484533","changesets":1184,"mappers":74,"roads":37.6705904876275,"buildings":9795,"edits":11838,"latest":"2018-05-17T21:48:06.000Z"},"geometry":{"type":"Point","coordinates":[120.95298071824062,14.44782100733958]}},{"type":"Feature","properties":{"title":"Mayon Volcano USAID & USGS","id":4202,"area":23.191221545963582,"year":"2018","lastUpdated":"2018-06-28T08:11:52.717080","changesets":440,"mappers":92,"roads":30.0360065595488,"buildings":7728,"edits":8051,"latest":"2018-06-14T08:09:46.000Z"},"geometry":{"type":"Point","coordinates":[123.708816541763,13.271475957593504]}},{"type":"Feature","properties":{"title":"CRS-UP NOAH Building Footprints Mapping - Navotas","id":4792,"area":10.600105663775858,"year":"2018","lastUpdated":"2018-06-25T05:07:04.518193","changesets":0,"mappers":0,"roads":0,"buildings":0,"edits":0,"latest":null},"geometry":{"type":"Point","coordinates":[120.93501364287809,14.667356142422983]}},{"type":"Feature","properties":{"title":"CRS-UP NOAH Building Footprints Mapping - Meycauayan, Bulacan","id":4793,"area":31.969074351640266,"year":"2018","lastUpdated":"2018-07-06T06:58:02.187300","changesets":0,"mappers":0,"roads":0,"buildings":0,"edits":0,"latest":null},"geometry":{"type":"Point","coordinates":[120.97247794046793,14.744349985853276]}},{"type":"Feature","properties":{"title":"CRS-UP NOAH Building Footprints Mapping - Taytay, Rizal","id":4614,"area":28.563349406234973,"year":"2018","lastUpdated":"2018-07-01T15:34:25.847248","changesets":4,"mappers":2,"roads":0.0110480704256366,"buildings":7,"edits":11,"latest":"2018-06-13T09:21:50.000Z"},"geometry":{"type":"Point","coordinates":[121.12940906356323,14.548432535816845]}},{"type":"Feature","properties":{"title":"Laguna, PH - Missing Roads","id":4015,"area":5.171315826889603,"year":"2018","lastUpdated":"2018-07-06T06:21:50.575882","changesets":16941512,"mappers":778190,"roads":11029202.6294279,"buildings":272493430,"edits":351602460,"latest":"2018-06-17T11:30:54.000Z"},"geometry":{"type":"Point","coordinates":[121.15472656621479,14.236294460036506]}},{"type":"Feature","properties":{"title":"CRS-UP NOAH Building Footprints Mapping - Malabon City","id":4475,"area":15.859280000650813,"year":"2018","lastUpdated":"2018-07-06T15:19:47.435944","changesets":4,"mappers":1,"roads":1.57059691641148e-9,"buildings":60,"edits":61,"latest":"2018-05-29T07:11:50.000Z"},"geometry":{"type":"Point","coordinates":[120.9674154212251,14.667902897859918]}},{"type":"Feature","properties":{"title":"CRS-UP NOAH Building Footprints Mapping - Angono, Rizal","id":4476,"area":14.749809999799018,"year":"2018","lastUpdated":"2018-06-29T07:51:11.470720","changesets":2,"mappers":2,"roads":0,"buildings":28,"edits":28,"latest":"2018-06-08T03:16:27.000Z"},"geometry":{"type":"Point","coordinates":[121.16528400038572,14.535180941214387]}},{"type":"Feature","properties":{"title":"CRS-UP NOAH Building Footprints Mapping - Marilao, Bulacan","id":4474,"area":28.509141928904054,"year":"2018","lastUpdated":"2018-06-18T18:48:42.184656","changesets":613,"mappers":13,"roads":16.077015270515,"buildings":21527,"edits":22316,"latest":"2018-06-15T22:09:45.000Z"},"geometry":{"type":"Point","coordinates":[120.98346576955595,14.773807306456357]}},{"type":"Feature","properties":{"title":"CRS-UP NOAH Building Footprints Mapping - Cainta, Rizal","id":4185,"area":21.097166623656076,"year":"2018","lastUpdated":"2018-07-04T15:02:49.814264","changesets":299,"mappers":13,"roads":2.62318970578196,"buildings":723,"edits":976,"latest":"2018-06-13T05:42:12.000Z"},"geometry":{"type":"Point","coordinates":[121.11694341377957,14.595807431682541]}},{"type":"Feature","properties":{"title":"Batangas, PH - Missing Roads","id":4014,"area":8.747103651711436,"year":"2018","lastUpdated":"2018-07-06T06:20:12.810010","changesets":16941512,"mappers":778190,"roads":11029202.6294279,"buildings":272493430,"edits":351602460,"latest":"2018-06-17T11:30:54.000Z"},"geometry":{"type":"Point","coordinates":[121.11775070085193,13.89842882206987]}},{"type":"Feature","properties":{"title":"Northern Mindanao, PH - Missing Roads","id":4216,"area":3.6160059552083452,"year":"2018","lastUpdated":"2018-07-06T06:27:11.183183","changesets":16941512,"mappers":778190,"roads":11029202.6294279,"buildings":272493430,"edits":351602460,"latest":"2018-06-17T11:30:54.000Z"},"geometry":{"type":"Point","coordinates":[124.49225405560671,8.340059475782704]}},{"type":"Feature","properties":{"title":"Zamboanga Peninsula, PH - Missing Roads","id":4217,"area":6.634273132943503,"year":"2018","lastUpdated":"2018-07-06T06:26:56.083619","changesets":16941512,"mappers":778190,"roads":11029202.6294279,"buildings":272493430,"edits":351602460,"latest":"2018-06-17T11:30:54.000Z"},"geometry":{"type":"Point","coordinates":[122.907009764677,7.903860363457329]}},{"type":"Feature","properties":{"title":"Western Visayas, PH - Missing Roads","id":4224,"area":7.047203961449363,"year":"2018","lastUpdated":"2018-07-06T06:28:20.714832","changesets":16941512,"mappers":778190,"roads":11029202.6294279,"buildings":272493430,"edits":351602460,"latest":"2018-06-17T11:30:54.000Z"},"geometry":{"type":"Point","coordinates":[122.6953061950292,10.934054961778411]}},{"type":"Feature","properties":{"title":"Cagayan Valley, PH - Missing Roads","id":4219,"area":2.940942559638417,"year":"2018","lastUpdated":"2018-07-06T06:27:32.983505","changesets":16941512,"mappers":778190,"roads":11029202.6294279,"buildings":272493430,"edits":351602460,"latest":"2018-06-17T11:30:54.000Z"},"geometry":{"type":"Point","coordinates":[121.68249184541031,17.195568942139595]}},{"type":"Feature","properties":{"title":"Soccsksargen, PH - Missing Roads","id":4227,"area":3.1029043042642748,"year":"2018","lastUpdated":"2018-07-06T06:29:12.343135","changesets":16941512,"mappers":778190,"roads":11029202.6294279,"buildings":272493430,"edits":351602460,"latest":"2018-06-17T11:30:54.000Z"},"geometry":{"type":"Point","coordinates":[124.99650831963473,6.287009318987416]}},{"type":"Feature","properties":{"title":"UP-NOAH Mapping Campuses (UP Manila School of Health Sciences, Aurora)","id":3794,"area":4.535501398412163,"year":"2018","lastUpdated":"2018-03-11T09:53:01.249203","changesets":0,"mappers":0,"roads":0,"buildings":0,"edits":0,"latest":null},"geometry":{"type":"Point","coordinates":[121.5407588418,15.805618790607875]}},{"type":"Feature","properties":{"title":"Central Luzon, PH - Missing Roads","id":4221,"area":7.136402147325932,"year":"2018","lastUpdated":"2018-07-06T06:28:05.268468","changesets":16941512,"mappers":778190,"roads":11029202.6294279,"buildings":272493430,"edits":351602460,"latest":"2018-06-17T11:30:54.000Z"},"geometry":{"type":"Point","coordinates":[120.56681226874122,15.170671477112618]}},{"type":"Feature","properties":{"title":"UP-NOAH Mapping Campuses (UP Los Baos)","id":3457,"area":12.20182994686138,"year":"2017","lastUpdated":"2017-11-25T08:00:53.306934","changesets":0,"mappers":0,"roads":0,"buildings":0,"edits":0,"latest":null},"geometry":{"type":"Point","coordinates":[121.23180969901695,14.164937408864516]}},{"type":"Feature","properties":{"title":"UP-NOAH Mapping Campuses (UP Mindanao)","id":3791,"area":3.6910639697608496,"year":"2017","lastUpdated":"2017-11-29T16:06:57.989146","changesets":0,"mappers":0,"roads":0,"buildings":0,"edits":0,"latest":null},"geometry":{"type":"Point","coordinates":[125.48628379471575,7.085765528020958]}},{"type":"Feature","properties":{"title":"UP-NOAH Mapping Campuses (UP Manila School of Health Sciences in Leyte) ","id":3472,"area":1.400988753814339,"year":"2018","lastUpdated":"2018-06-27T04:56:51.430180","changesets":0,"mappers":0,"roads":0,"buildings":0,"edits":0,"latest":null},"geometry":{"type":"Point","coordinates":[124.99088051332731,11.157825800825774]}},{"type":"Feature","properties":{"title":"UP-NOAH Mapping Campuses (UP Diliman)","id":3436,"area":4.428477183303132,"year":"2017","lastUpdated":"2017-11-25T02:29:08.008725","changesets":0,"mappers":0,"roads":0,"buildings":0,"edits":0,"latest":null},"geometry":{"type":"Point","coordinates":[121.06184657303031,14.651228369067912]}},{"type":"Feature","properties":{"title":"UP-NOAH Mapping Campuses (UP Cebu South Road Properties)","id":3469,"area":11.024467091991225,"year":"2017","lastUpdated":"2017-11-06T01:57:47.533670","changesets":0,"mappers":0,"roads":0,"buildings":0,"edits":0,"latest":null},"geometry":{"type":"Point","coordinates":[123.86829185485836,10.27304070045319]}},{"type":"Feature","properties":{"title":"UP-NOAH Mapping Campuses (UP Diliman Extension Programs in Olongapo)","id":3435,"area":4.840046682537817,"year":"2017","lastUpdated":"2017-12-12T09:04:26.153739","changesets":0,"mappers":0,"roads":0,"buildings":0,"edits":0,"latest":null},"geometry":{"type":"Point","coordinates":[120.28256200974987,14.827260483926251]}},{"type":"Feature","properties":{"title":"CRS-UP NOAH Building Footprints Mapping - Navotas City","id":4044,"area":10.600105663830165,"year":"2018","lastUpdated":"2018-03-08T02:29:27.821773","changesets":1,"mappers":1,"roads":0,"buildings":0,"edits":2,"latest":"2018-03-22T20:25:17.000Z"},"geometry":{"type":"Point","coordinates":[120.93501364287877,14.667356142422948]}},{"type":"Feature","properties":{"title":"CRS-UP NOAH Building Footprints Mapping - Malabon City","id":3907,"area":15.859280000650813,"year":"2018","lastUpdated":"2018-06-06T07:45:46.150299","changesets":18,"mappers":2,"roads":0.908475572641972,"buildings":67,"edits":74,"latest":"2018-06-06T08:03:26.000Z"},"geometry":{"type":"Point","coordinates":[120.9674154212251,14.667902897859918]}},{"type":"Feature","properties":{"title":"Bicol, PH - Missing Roads","id":4222,"area":1.7672697508978923,"year":"2018","lastUpdated":"2018-07-06T06:22:30.742937","changesets":16941512,"mappers":778190,"roads":11029202.6294279,"buildings":272493430,"edits":351602460,"latest":"2018-06-17T11:30:54.000Z"},"geometry":{"type":"Point","coordinates":[123.39593163594877,13.44488249297075]}},{"type":"Feature","properties":{"title":"Quezon, PH - Missing Roads","id":4013,"area":1.3650857673810763,"year":"2018","lastUpdated":"2018-07-06T06:19:16.080886","changesets":16941512,"mappers":778190,"roads":11029202.6294279,"buildings":272493430,"edits":351602460,"latest":"2018-06-17T11:30:54.000Z"},"geometry":{"type":"Point","coordinates":[121.73070282142338,14.026298771339512]}},{"type":"Feature","properties":{"title":"UP-NOAH Mapping Campuses (UP Visayas Miag-ao) ","id":3470,"area":12.578176573343839,"year":"2017","lastUpdated":"2017-11-25T07:02:40.744442","changesets":0,"mappers":0,"roads":0,"buildings":0,"edits":0,"latest":null},"geometry":{"type":"Point","coordinates":[122.21696706918563,10.652970828749863]}},{"type":"Feature","properties":{"title":"Pangasinan, PH - Missing Roads","id":4026,"area":1.1581224982077116,"year":"2018","lastUpdated":"2018-07-06T06:26:14.164470","changesets":16941512,"mappers":778190,"roads":11029202.6294279,"buildings":272493430,"edits":351602460,"latest":"2018-06-17T11:30:54.000Z"},"geometry":{"type":"Point","coordinates":[120.38341801763256,16.007853906949467]}},{"type":"Feature","properties":{"title":"UP-NOAH Mapping Campuses (UP Bonifacio Global City)","id":3437,"area":0.5192619410537112,"year":"2017","lastUpdated":"2017-11-25T07:36:04.585128","changesets":0,"mappers":0,"roads":0,"buildings":0,"edits":0,"latest":null},"geometry":{"type":"Point","coordinates":[121.06018819307005,14.55389432235206]}},{"type":"Feature","properties":{"title":"UP-NOAH Mapping Campuses (UP Diliman Extension Programs in Pampanga)","id":3434,"area":43.54156672373075,"year":"2018","lastUpdated":"2018-03-08T03:26:29.800555","changesets":0,"mappers":0,"roads":0,"buildings":0,"edits":0,"latest":null},"geometry":{"type":"Point","coordinates":[120.55005827104301,15.186427180404344]}},{"type":"Feature","properties":{"title":"UP-NOAH Mapping Campuses (UP Open University - Headquarters)","id":3790,"area":1.4776756115042378,"year":"2017","lastUpdated":"2017-11-25T03:27:04.114043","changesets":0,"mappers":0,"roads":0,"buildings":0,"edits":0,"latest":null},"geometry":{"type":"Point","coordinates":[121.26342652548276,14.17487559438485]}},{"type":"Feature","properties":{"title":"UP-NOAH Mapping Campuses (UP Manila)","id":3438,"area":1.6100307695151406,"year":"2017","lastUpdated":"2017-11-25T06:16:14.442768","changesets":0,"mappers":0,"roads":0,"buildings":0,"edits":0,"latest":null},"geometry":{"type":"Point","coordinates":[120.98574694465175,14.581946535582672]}},{"type":"Feature","properties":{"title":"Cavite, PH - Missing Roads","id":4165,"area":8.147770355865646,"year":"2018","lastUpdated":"2018-07-06T06:26:38.435860","changesets":16941512,"mappers":778190,"roads":11029202.6294279,"buildings":272493430,"edits":351602460,"latest":"2018-06-17T11:30:54.000Z"},"geometry":{"type":"Point","coordinates":[120.95492038001697,14.294231916684815]}},{"type":"Feature","properties":{"title":"Pampanga, PH - Missing Roads","id":4018,"area":7.393817777829668,"year":"2018","lastUpdated":"2018-07-06T06:22:22.732956","changesets":16941512,"mappers":778190,"roads":11029202.6294279,"buildings":272493430,"edits":351602460,"latest":"2018-06-17T11:30:54.000Z"},"geometry":{"type":"Point","coordinates":[120.60901479206947,15.12644299857575]}},{"type":"Feature","properties":{"title":"Bohol Island, Philippines OpenRoad project, Part III -- MapGive","id":1055,"area":167.18586226424708,"year":"2017","lastUpdated":"2017-09-25T18:13:41.155784","changesets":0,"mappers":0,"roads":0,"buildings":0,"edits":0,"latest":null},"geometry":{"type":"Point","coordinates":[124.06711940467797,9.665902699165224]}},{"type":"Feature","properties":{"title":"UP-NOAH Mapping Campuses (UP Cebu City)","id":3461,"area":3.674962024941641,"year":"2017","lastUpdated":"2017-11-25T07:56:15.435752","changesets":0,"mappers":0,"roads":0,"buildings":0,"edits":0,"latest":null},"geometry":{"type":"Point","coordinates":[123.89678955078128,10.319099143827456]}},