{"totalEdits":42075173,"totalBuildings":34804681,"totalRoads":888976.374046211,"mappersOnline":134,"totalTasksMapped":1680824,"totalMappers":142913,"totalProjects":4096,"Sri Lanka":[{"type":"Feature","properties":{"id":3139,"title":"Community Landslide Risk Mitigation Project in Sri Lanka - Mapping Buildings and Roads in Hali Ela DS Division","status":"PUBLISHED","created":"2017","lastUpdated":"2018","lastActive":"no","area":171.28456200864423,"changesets":504,"mappers":1,"roads":294.986454465216,"buildings":16035,"edits":18705,"latest":"2018-02-11T17:26:03.000Z"},"geometry":{"type":"Point","coordinates":[81.0201423321762,6.94504961130751]}},{"type":"Feature","properties":{"id":4008,"title":"Eravur_Pattu_DS_Land_Use","status":"PUBLISHED","created":"2018","lastUpdated":"2018","lastActive":"no","area":610.855514890442,"changesets":0,"mappers":0,"roads":0,"buildings":0,"edits":0,"latest":null},"geometry":{"type":"Point","coordinates":[81.4676667713541,7.70945030139895]}},{"type":"Feature","properties":{"id":291,"title":"Colombo Training Tasks August 14-15","status":"ARCHIVED","created":"2013","lastUpdated":"2014","lastActive":"no","area":0.6142599677602866,"changesets":776,"mappers":22,"roads":820.126369521275,"buildings":407,"edits":8133,"latest":"2018-02-08T09:33:41.000Z"},"geometry":{"type":"Point","coordinates":[79.86747992742,6.91231626986856]}},{"type":"Feature","properties":{"id":314,"title":"Sentinel Asia Step 3 Mini Project - Training @ DoS, Colombo Sep. 2013","status":"ARCHIVED","created":"2013","lastUpdated":"2014","lastActive":"no","area":47.66807949994632,"changesets":0,"mappers":0,"roads":0,"buildings":0,"edits":0,"latest":null},"geometry":{"type":"Point","coordinates":[79.9714277942164,6.62469638945388]}},{"type":"Feature","properties":{"id":376,"title":"Peradeniya University Workshop","status":"PUBLISHED","created":"2013","lastUpdated":"2017","lastActive":"no","area":6.599060076634558,"changesets":0,"mappers":0,"roads":0,"buildings":0,"edits":0,"latest":null},"geometry":{"type":"Point","coordinates":[80.5948337397285,7.26097206975122]}},{"type":"Feature","properties":{"id":281,"title":"Colombo Exposure Data Training","status":"ARCHIVED","created":"2013","lastUpdated":"2014","lastActive":"no","area":0.281462681159609,"changesets":888,"mappers":25,"roads":2557.35463513901,"buildings":7937,"edits":43854,"latest":"2018-01-29T07:35:04.000Z"},"geometry":{"type":"Point","coordinates":[79.8743602441261,6.90930379462689]}},{"type":"Feature","properties":{"id":4747,"title":"Sri Lanka Flood Response 2018 Project 3","status":"ARCHIVED","created":"2018","lastUpdated":"2018","lastActive":"no","area":420.7091211026628,"changesets":5806,"mappers":528,"roads":465.767891349821,"buildings":109086,"edits":116453,"latest":"2018-07-22T18:39:56.000Z"},"geometry":{"type":"Point","coordinates":[79.943103121718,7.35481736057342]}},{"type":"Feature","properties":{"id":3094,"title":"2017 Sri Lanka Floods: Mapping Road Network in Matara District, Southern Province (1/4)","status":"ARCHIVED","created":"2017","lastUpdated":"2017","lastActive":"no","area":57.82051916752654,"changesets":189,"mappers":32,"roads":228.347644818034,"buildings":1705,"edits":6497,"latest":"2017-11-07T16:32:25.000Z"},"geometry":{"type":"Point","coordinates":[80.5617580088427,5.96275227535477]}},{"type":"Feature","properties":{"id":5404,"title":"ACAD_CSIAP_Anuradhapura","status":"PUBLISHED","created":"2018","lastUpdated":"2018","lastActive":"yes","area":399.6231271330612,"changesets":0,"mappers":0,"roads":0,"buildings":0,"edits":0,"latest":null},"geometry":{"type":"Point","coordinates":[80.8028884410021,8.36854310592587]}},{"type":"Feature","properties":{"id":5253,"title":"Sri Lanka Flood Response 2018 Project 6b","status":"PUBLISHED","created":"2018","lastUpdated":"2018","lastActive":"yes","area":243.89814902158875,"changesets":6132,"mappers":641,"roads":172.430919760735,"buildings":51932,"edits":53555,"latest":"2018-10-22T18:19:00.000Z"},"geometry":{"type":"Point","coordinates":[80.2105580696691,7.35809774281115]}},{"type":"Feature","properties":{"id":2039,"title":"Sri Lanka: Mapping Road and Infrastructures for Disaster Preparedness and Resilience Part 5","status":"ARCHIVED","created":"2016","lastUpdated":"2017","lastActive":"no","area":1.3020853104475527,"changesets":85,"mappers":15,"roads":0.63917575763412,"buildings":742,"edits":780,"latest":"2016-08-03T06:18:25.000Z"},"geometry":{"type":"Point","coordinates":[79.8695816723527,6.90095151426009]}},{"type":"Feature","properties":{"id":2281,"title":"Batticaloa_Exposure","status":"ARCHIVED","created":"2016","lastUpdated":"2016","lastActive":"no","area":3.2603989150249064,"changesets":598,"mappers":32,"roads":62.139818888771,"buildings":8415,"edits":13969,"latest":"2016-11-07T06:30:49.000Z"},"geometry":{"type":"Point","coordinates":[81.6121013222542,7.77568819554402]}},{"type":"Feature","properties":{"id":4985,"title":"Sri Lanka Flood Response 2018 Project 5b","status":"ARCHIVED","created":"2018","lastUpdated":"2018","lastActive":"no","area":142.5021116333357,"changesets":2763,"mappers":265,"roads":152.565672610415,"buildings":26005,"edits":27550,"latest":"2018-09-17T03:44:15.000Z"},"geometry":{"type":"Point","coordinates":[80.2313798532753,7.54109684951636]}},{"type":"Feature","properties":{"id":4898,"title":"Sri Lanka Flood Response 2018 Project 5a","status":"ARCHIVED","created":"2018","lastUpdated":"2018","lastActive":"no","area":179.65163946290278,"changesets":2927,"mappers":248,"roads":193.069581639356,"buildings":34905,"edits":36650,"latest":"2018-08-15T23:56:23.000Z"},"geometry":{"type":"Point","coordinates":[80.1312414069927,7.63594991832034]}},{"type":"Feature","properties":{"id":5144,"title":"ACAD_CSIAP_Killinochchi","status":"PUBLISHED","created":"2018","lastUpdated":"2018","lastActive":"no","area":193.3228121457643,"changesets":112,"mappers":8,"roads":129.268201308341,"buildings":3023,"edits":3294,"latest":"2018-10-22T07:00:54.000Z"},"geometry":{"type":"Point","coordinates":[80.2054912817065,9.37264837619135]}},{"type":"Feature","properties":{"id":2603,"title":"Exposure_Mapping_Training for IUCN","status":"ARCHIVED","created":"2017","lastUpdated":"2017","lastActive":"no","area":0.16378336140160482,"changesets":0,"mappers":0,"roads":0,"buildings":0,"edits":0,"latest":null},"geometry":{"type":"Point","coordinates":[79.8701437334011,6.9107966298213]}},{"type":"Feature","properties":{"id":3708,"title":"Households Affected by the Rehabilitation of the Kelani Valley Railway Line in Sri Lanka (Phase I)","status":"PUBLISHED","created":"2017","lastUpdated":"2018","lastActive":"no","area":5.995576025848344,"changesets":2297,"mappers":510,"roads":41.6006303231262,"buildings":23732,"edits":26633,"latest":"2018-10-22T20:58:07.000Z"},"geometry":{"type":"Point","coordinates":[79.9209105034567,6.87211966062466]}},{"type":"Feature","properties":{"id":3109,"title":"2017 Sri Lanka Floods: Mapping Buildings in Matara District, Southern Province","status":"ARCHIVED","created":"2017","lastUpdated":"2017","lastActive":"no","area":89.05884751182215,"changesets":904,"mappers":104,"roads":99.7500449016578,"buildings":28020,"edits":31371,"latest":"2017-06-06T22:43:16.000Z"},"geometry":{"type":"Point","coordinates":[80.5692401271459,5.96308812651865]}},{"type":"Feature","properties":{"id":4538,"title":"Mapping tasks in Sri Lanka under HOT micro grant program â Peradeniya  Mapathon","status":"PUBLISHED","created":"2018","lastUpdated":"2018","lastActive":"no","area":6.043193140136328,"changesets":0,"mappers":0,"roads":0,"buildings":0,"edits":0,"latest":null},"geometry":{"type":"Point","coordinates":[80.5984892302725,7.25207672622503]}},{"type":"Feature","properties":{"id":1379,"title":"Sentinel Asia Mini-Project: Uva Panaragama, Sri Lanka ","status":"PUBLISHED","created":"2015","lastUpdated":"2018","lastActive":"no","area":138.89619821181384,"changesets":709,"mappers":62,"roads":244.464592028869,"buildings":9147,"edits":10627,"latest":"2018-10-17T04:08:05.000Z"},"geometry":{"type":"Point","coordinates":[80.9169361521956,6.9656774754007]}},{"type":"Feature","properties":{"id":5345,"title":"ACAD_Anuradhapuram_OSM_Training","status":"PUBLISHED","created":"2018","lastUpdated":"2018","lastActive":"no","area":8.385345313903311,"changesets":232,"mappers":15,"roads":7.54336429961734,"buildings":1793,"edits":1969,"latest":"2018-10-22T11:58:36.000Z"},"geometry":{"type":"Point","coordinates":[80.3904751281149,8.35500216391257]}},{"type":"Feature","properties":{"id":4610,"title":"Sri Lanka Flood Response 2018 Project 1","status":"ARCHIVED","created":"2018","lastUpdated":"2018","lastActive":"no","area":549.6199022718898,"changesets":3560,"mappers":289,"roads":687.990132679942,"buildings":42584,"edits":45687,"latest":"2018-08-08T14:11:26.000Z"},"geometry":{"type":"Point","coordinates":[79.882178112672,7.74770970309366]}},{"type":"Feature","properties":{"id":4634,"title":"Mapping tasks in Sri Lanka under HOT micro grant program â South Eastern University Mapathon","status":"PUBLISHED","created":"2018","lastUpdated":"2018","lastActive":"no","area":6.106000328591522,"changesets":0,"mappers":0,"roads":0,"buildings":0,"edits":0,"latest":null},"geometry":{"type":"Point","coordinates":[81.8575770996822,7.29290164413181]}},{"type":"Feature","properties":{"id":1913,"title":"Sri Lanka Floods: Western Kelani River Basin ","status":"ARCHIVED","created":"2016","lastUpdated":"2016","lastActive":"no","area":23.059058528392796,"changesets":2344,"mappers":203,"roads":135.372524192739,"buildings":62222,"edits":71497,"latest":"2016-07-19T09:11:19.000Z"},"geometry":{"type":"Point","coordinates":[79.9072588993895,6.95420045476413]}},{"type":"Feature","properties":{"id":1934,"title":"Sri Lanka Floods: Unmapped flooded areas","status":"ARCHIVED","created":"2016","lastUpdated":"2016","lastActive":"no","area":8.04553254550048,"changesets":711,"mappers":72,"roads":74.5249447468393,"buildings":17422,"edits":20149,"latest":"2016-08-02T09:59:47.000Z"},"geometry":{"type":"Point","coordinates":[80.0045910763456,6.95163143355929]}},{"type":"Feature","properties":{"id":1923,"title":"Sri Lanka: Mapping Road and Infrastructures for Disaster Preparedness and Resilience Part 4","status":"ARCHIVED","created":"2016","lastUpdated":"2017","lastActive":"no","area":134.09126087468601,"changesets":5364,"mappers":113,"roads":599.507412787949,"buildings":65038,"edits":80938,"latest":"2016-11-03T00:54:26.000Z"},"geometry":{"type":"Point","coordinates":[79.9790091904922,7.15468759943429]}},{"type":"Feature","properties":{"id":4840,"title":"Sri Lanka Flood Response 2018 Project 4","status":"ARCHIVED","created":"2018","lastUpdated":"2018","lastActive":"no","area":597.8616558006948,"changesets":5007,"mappers":345,"roads":888.524929288394,"buildings":55918,"edits":60566,"latest":"2018-08-12T16:09:02.000Z"},"geometry":{"type":"Point","coordinates":[80.0806153944357,7.78809405408543]}},{"type":"Feature","properties":{"id":4880,"title":"Venkalachedikulam","status":"PUBLISHED","created":"2018","lastUpdated":"2018","lastActive":"no","area":248.02523319809347,"changesets":546,"mappers":14,"roads":1421.86417301337,"buildings":12070,"edits":13263,"latest":"2018-09-25T11:49:36.000Z"},"geometry":{"type":"Point","coordinates":[80.2983992864439,8.68312375239797]}},{"type":"Feature","properties":{"id":5140,"title":"ACAD_Killinochchi","status":"PUBLISHED","created":"2018","lastUpdated":"2018","lastActive":"no","area":91.51854912034365,"changesets":83,"mappers":10,"roads":66.7996001198769,"buildings":1019,"edits":1231,"latest":"2018-09-28T15:15:14.000Z"},"geometry":{"type":"Point","coordinates":[80.4081910870296,9.42827939368705]}},{"type":"Feature","properties":{"id":313,"title":"SAS Step3 Mini Project - Sri Lanka : OSM Training","status":"ARCHIVED","created":"2013","lastUpdated":"2017","lastActive":"no","area":48.0807668557531,"changesets":0,"mappers":0,"roads":0,"buildings":0,"edits":0,"latest":null},"geometry":{"type":"Point","coordinates":[79.9690480025353,6.6242133251257]}},{"type":"Feature","properties":{"id":282,"title":"Example Colombo Task","status":"ARCHIVED","created":"2014","lastUpdated":"2014","lastActive":"no","area":3.6398289875433663,"changesets":875,"mappers":22,"roads":1969.58320509788,"buildings":1555,"edits":23799,"latest":"2018-01-31T07:19:33.000Z"},"geometry":{"type":"Point","coordinates":[80.6379219426056,7.29416489948222]}},{"type":"Feature","properties":{"id":290,"title":"UDA Mapping","status":"ARCHIVED","created":"2013","lastUpdated":"2014","lastActive":"no","area":1.0271436149189255,"changesets":781,"mappers":23,"roads":621.189411965347,"buildings":832,"edits":15284,"latest":"2018-02-08T04:39:32.000Z"},"geometry":{"type":"Point","coordinates":[79.9187876349264,6.90596257462093]}}],"totalArea":9677885.17272863,"Russia":[{"type":"Feature","properties":{"id":5048,"title":"Bryansk, RU - Road Alignment","status":"PUBLISHED","created":"2018","lastUpdated":"2018","lastActive":"no","area":30.262723825140842,"changesets":0,"mappers":0,"roads":0,"buildings":0,"edits":0,"latest":null},"geometry":{"type":"Point","coordinates":[33.4570235672206,53.0043322730238]}},{"type":"Feature","properties":{"id":5088,"title":"North Ossetia-Alania, RU - Road Alignment","status":"PUBLISHED","created":"2018","lastUpdated":"2018","lastActive":"no","area":14.537601490829601,"changesets":0,"mappers":0,"roads":0,"buildings":0,"edits":0,"latest":null},"geometry":{"type":"Point","coordinates":[44.4413630478819,43.1296771004067]}},{"type":"Feature","properties":{"id":5080,"title":"Ryazan, RU - Road Alignment","status":"PUBLISHED","created":"2018","lastUpdated":"2018","lastActive":"no","area":28.47380571426955,"changesets":0,"mappers":0,"roads":0,"buildings":0,"edits":0,"latest":null},"geometry":{"type":"Point","coordinates":[40.2725467479178,54.1247114552182]}},{"type":"Feature","properties":{"id":5098,"title":"Kirov, RU - Road Alignment","status":"PUBLISHED","created":"2018","lastUpdated":"2018","lastActive":"no","area":15.917259356789708,"changesets":12,"mappers":1,"roads":36.6446326874431,"buildings":163,"edits":860,"latest":"2018-10-20T17:27:59.000Z"},"geometry":{"type":"Point","coordinates":[49.5005171491877,58.0035735138105]}},{"type":"Feature","properties":{"id":5104,"title":"Sverdlovsk, RU - Road Alignment","status":"PUBLISHED","created":"2018","lastUpdated":"2018","lastActive":"no","area":17.833303273592076,"changesets":82,"mappers":1,"roads":1.41269675484537,"buildings":18,"edits":539,"latest":"2018-10-04T16:03:26.000Z"},"geometry":{"type":"Point","coordinates":[60.7296830055128,57.3551621895813]}},{"type":"Feature","properties":{"id":5032,"title":"Murmansk, RU - Road Alignment","status":"PUBLISHED","created":"2018","lastUpdated":"2018","lastActive":"no","area":6.135141048257239,"changesets":0,"mappers":0,"roads":0,"buildings":0,"edits":0,"latest":null},"geometry":{"type":"Point","coordinates":[32.1535937499972,68.1519441236096]}},{"type":"Feature","properties":{"id":5036,"title":"Kalingrad, RU - Road Alignment","status":"PUBLISHED","created":"2018","lastUpdated":"2018","lastActive":"yes","area":8.85709870763704,"changesets":0,"mappers":0,"roads":0,"buildings":0,"edits":0,"latest":null},"geometry":{"type":"Point","coordinates":[21.2683677067525,54.7166459195005]}},{"type":"Feature","properties":{"id":5102,"title":"Udmurtia, RU - Road Alignment","status":"PUBLISHED","created":"2018","lastUpdated":"2018","lastActive":"no","area":15.013904617904839,"changesets":0,"mappers":0,"roads":0,"buildings":0,"edits":0,"latest":null},"geometry":{"type":"Point","coordinates":[53.1292263202367,56.6504098059281]}},{"type":"Feature","properties":{"id":5100,"title":"Tatarstan, RU - Road Alignment","status":"PUBLISHED","created":"2018","lastUpdated":"2018","lastActive":"no","area":38.441103871968686,"changesets":70,"mappers":1,"roads":3.50924535458136,"buildings":41,"edits":410,"latest":"2018-09-30T17:30:04.000Z"},"geometry":{"type":"Point","coordinates":[51.8502575724872,55.4741248014356]}},{"type":"Feature","properties":{"id":5039,"title":"Smolensk, RU - Road Alignment","status":"PUBLISHED","created":"2018","lastUpdated":"2018","lastActive":"no","area":28.43951608669756,"changesets":0,"mappers":0,"roads":0,"buildings":0,"edits":0,"latest":null},"geometry":{"type":"Point","coordinates":[32.8547004619526,54.8764930805367]}},{"type":"Feature","properties":{"id":5040,"title":"Tver, RU - Road Alignment","status":"PUBLISHED","created":"2018","lastUpdated":"2018","lastActive":"no","area":23.79800173254469,"changesets":0,"mappers":0,"roads":0,"buildings":0,"edits":0,"latest":null},"geometry":{"type":"Point","coordinates":[34.6891817016017,56.9824041620985]}},{"type":"Feature","properties":{"id":5044,"title":"Arkhangelsk, RU - Road Alignment","status":"PUBLISHED","created":"2018","lastUpdated":"2018","lastActive":"no","area":12.606328751411732,"changesets":0,"mappers":0,"roads":0,"buildings":0,"edits":0,"latest":null},"geometry":{"type":"Point","coordinates":[42.0930614019958,62.114544765511]}},{"type":"Feature","properties":{"id":5092,"title":"Krasnodar, RU - Road Alignment","status":"PUBLISHED","created":"2018","lastUpdated":"2018","lastActive":"no","area":65.77382796758191,"changesets":44,"mappers":1,"roads":0.735112802073167,"buildings":21,"edits":407,"latest":"2018-10-07T18:12:39.000Z"},"geometry":{"type":"Point","coordinates":[39.4116507753946,45.4518856931549]}},{"type":"Feature","properties":{"id":5078,"title":"Vladmi, RU - Road Alignment","status":"PUBLISHED","created":"2018","lastUpdated":"2018","lastActive":"no","area":19.39018729280983,"changesets":0,"mappers":0,"roads":0,"buildings":0,"edits":0,"latest":null},"geometry":{"type":"Point","coordinates":[41.4000375718571,56.0011972964679]}},{"type":"Feature","properties":{"id":5110,"title":"Yamalia, RU - Road Alignment","status":"PUBLISHED","created":"2018","lastUpdated":"2018","lastActive":"no","area":8.273190558193892,"changesets":1,"mappers":1,"roads":6.55221612260204,"buildings":0,"edits":5,"latest":"2018-09-28T16:22:52.000Z"},"geometry":{"type":"Point","coordinates":[75.2427001306948,65.7007370208771]}},{"type":"Feature","properties":{"id":5114,"title":"Tuva, RU - Road Alignment","status":"PUBLISHED","created":"2018","lastUpdated":"2018","lastActive":"no","area":2.5382251706946253,"changesets":11,"mappers":1,"roads":0.699784508480752,"buildings":20,"edits":104,"latest":"2018-10-19T10:22:55.000Z"},"geometry":{"type":"Point","coordinates":[94.0463114123556,51.781508254766]}},{"type":"Feature","properties":{"id":5116,"title":"Buryatia, RU - Road Alignment","status":"PUBLISHED","created":"2018","lastUpdated":"2018","lastActive":"no","area":11.921423464616145,"changesets":7,"mappers":2,"roads":3.08056904568076,"buildings":19,"edits":104,"latest":"2018-10-19T08:54:02.000Z"},"geometry":{"type":"Point","coordinates":[107.505299618937,51.7364622992778]}},{"type":"Feature","properties":{"id":5086,"title":"Chechnya, RU - Road Alignment","status":"PUBLISHED","created":"2018","lastUpdated":"2018","lastActive":"no","area":28.795408595275685,"changesets":0,"mappers":0,"roads":0,"buildings":0,"edits":0,"latest":null},"geometry":{"type":"Point","coordinates":[45.8158908939478,43.2733108142613]}},{"type":"Feature","properties":{"id":5074,"title":"Voronezh, RU - Road Alignment","status":"PUBLISHED","created":"2018","lastUpdated":"2018","lastActive":"no","area":51.88857016130644,"changesets":0,"mappers":0,"roads":0,"buildings":0,"edits":0,"latest":null},"geometry":{"type":"Point","coordinates":[40.2695201655274,50.9627839626112]}},{"type":"Feature","properties":{"id":5106,"title":"Tyumen, RU - Road Alignment","status":"PUBLISHED","created":"2018","lastUpdated":"2018","lastActive":"no","area":29.90850085590972,"changesets":0,"mappers":0,"roads":0,"buildings":0,"edits":0,"latest":null},"geometry":{"type":"Point","coordinates":[68.2637832952442,56.3385442704502]}},{"type":"Feature","properties":{"id":5034,"title":"Leningrad, RU - Road Alignment","status":"PUBLISHED","created":"2018","lastUpdated":"2018","lastActive":"no","area":23.54027298174626,"changesets":0,"mappers":0,"roads":0,"buildings":0,"edits":0,"latest":null},"geometry":{"type":"Point","coordinates":[30.839409774744,60.1248894787618]}},{"type":"Feature","properties":{"id":5112,"title":"Kemerovo, RU - Road Alignment","status":"PUBLISHED","created":"2018","lastUpdated":"2018","lastActive":"no","area":21.798294661428333,"changesets":9,"mappers":1,"roads":0.19505843335769,"buildings":0,"edits":54,"latest":"2018-10-12T18:49:16.000Z"},"geometry":{"type":"Point","coordinates":[86.6571581706989,54.816528983781]}},{"type":"Feature","properties":{"id":5082,"title":"Mordovia, RU - Road Alignment","status":"PUBLISHED","created":"2018","lastUpdated":"2018","lastActive":"no","area":21.05104067660312,"changesets":0,"mappers":0,"roads":0,"buildings":0,"edits":0,"latest":null},"geometry":{"type":"Point","coordinates":[44.471800865344,54.2889054581946]}},{"type":"Feature","properties":{"id":5084,"title":"Astrakhan, RU - Road Alignment","status":"PUBLISHED","created":"2018","lastUpdated":"2018","lastActive":"no","area":5.310775583716296,"changesets":6,"mappers":1,"roads":0.576440915991893,"buildings":4,"edits":39,"latest":"2018-10-09T13:35:52.000Z"},"geometry":{"type":"Point","coordinates":[47.1830142680223,46.8862236799227]}},{"type":"Feature","properties":{"id":5108,"title":"Novosibirsk, RU - Road Alignment","status":"PUBLISHED","created":"2018","lastUpdated":"2018","lastActive":"no","area":42.469762848735236,"changesets":118,"mappers":1,"roads":3.09418786140931,"buildings":20,"edits":482,"latest":"2018-10-03T10:15:18.000Z"},"geometry":{"type":"Point","coordinates":[80.3670447235961,54.8613031461299]}},{"type":"Feature","properties":{"id":5050,"title":"Moscow, RU - Road Alignment","status":"PUBLISHED","created":"2018","lastUpdated":"2018","lastActive":"no","area":67.22729165523474,"changesets":386,"mappers":29,"roads":134.531935269644,"buildings":592,"edits":4392,"latest":"2018-10-07T22:32:48.000Z"},"geometry":{"type":"Point","coordinates":[37.5334085802161,55.6984793925584]}},{"type":"Feature","properties":{"id":5094,"title":"Rostov, RU - Road Alignment","status":"PUBLISHED","created":"2018","lastUpdated":"2018","lastActive":"no","area":62.059436486990585,"changesets":18,"mappers":1,"roads":0.459103509151284,"buildings":1,"edits":86,"latest":"2018-10-09T12:50:48.000Z"},"geometry":{"type":"Point","coordinates":[40.7358927267966,47.7150064178919]}},{"type":"Feature","properties":{"id":5120,"title":"JAO, RU - Road Alignment","status":"PUBLISHED","created":"2018","lastUpdated":"2018","lastActive":"no","area":5.488146548063193,"changesets":0,"mappers":0,"roads":0,"buildings":0,"edits":0,"latest":null},"geometry":{"type":"Point","coordinates":[132.011691687188,48.253714915435]}},{"type":"Feature","properties":{"id":5122,"title":"Khabarovsk, RU - Road Alignment","status":"PUBLISHED","created":"2018","lastUpdated":"2018","lastActive":"no","area":11.161541130978934,"changesets":0,"mappers":0,"roads":0,"buildings":0,"edits":0,"latest":null},"geometry":{"type":"Point","coordinates":[138.396774935942,51.8199623333501]}},{"type":"Feature","properties":{"id":5035,"title":"St. Petersburg, RU - Road Alignment","status":"PUBLISHED","created":"2018","lastUpdated":"2018","lastActive":"yes","area":8.561300785249289,"changesets":1,"mappers":1,"roads":0.00737261415715443,"buildings":0,"edits":2,"latest":"2018-09-13T10:15:31.000Z"},"geometry":{"type":"Point","coordinates":[30.23445185656,59.9410578806373]}},{"type":"Feature","properties":{"id":5045,"title":"Nenetsia, RU - Road Alignment","status":"PUBLISHED","created":"2018","lastUpdated":"2018","lastActive":"no","area":1.271696291426983,"changesets":1,"mappers":1,"roads":0.00151901952868402,"buildings":0,"edits":5,"latest":"2018-10-16T11:14:25.000Z"},"geometry":{"type":"Point","coordinates":[56.0799294668555,67.3851766016729]}},{"type":"Feature","properties":{"id":5037,"title":"Pskov, RU - Road Alignment","status":"PUBLISHED","created":"2018","lastUpdated":"2018","lastActive":"no","area":6.7397348411403035,"changesets":0,"mappers":0,"roads":0,"buildings":0,"edits":0,"latest":null},"geometry":{"type":"Point","coordinates":[28.7196206931114,57.4529744401669]}},{"type":"Feature","properties":{"id":5049,"title":"Kaluga, RU - Road Alignment","status":"PUBLISHED","created":"2018","lastUpdated":"2018","lastActive":"yes","area":10.587303562416615,"changesets":0,"mappers":0,"roads":0,"buildings":0,"edits":0,"latest":null},"geometry":{"type":"Point","coordinates":[35.7221561476756,54.5927443769091]}},{"type":"Feature","properties":{"id":5068,"title":"Kursk, RU - Road Alignment","status":"PUBLISHED","created":"2018","lastUpdated":"2018","lastActive":"no","area":11.035515934842362,"changesets":0,"mappers":0,"roads":0,"buildings":0,"edits":0,"latest":null},"geometry":{"type":"Point","coordinates":[36.0226384904065,51.6480514245577]}},{"type":"Feature","properties":{"id":5072,"title":"Oryol, RU - Road Alignment","status":"PUBLISHED","created":"2018","lastUpdated":"2018","lastActive":"no","area":16.540756268279804,"changesets":0,"mappers":0,"roads":0,"buildings":0,"edits":0,"latest":null},"geometry":{"type":"Point","coordinates":[36.5339864599229,52.7957040500738]}},{"type":"Feature","properties":{"id":5085,"title":"Kalmykia, RU - Road Alignment","status":"PUBLISHED","created":"2018","lastUpdated":"2018","lastActive":"yes","area":10.056908395488977,"changesets":0,"mappers":0,"roads":0,"buildings":0,"edits":0,"latest":null},"geometry":{"type":"Point","coordinates":[44.9932637551155,46.0090609593374]}},{"type":"Feature","properties":{"id":5041,"title":"Yaroslavl, RU - Road Alignment","status":"PUBLISHED","created":"2018","lastUpdated":"2018","lastActive":"no","area":4.819215675862653,"changesets":20,"mappers":1,"roads":2.53183807102885,"buildings":29,"edits":347,"latest":"2018-10-22T17:02:10.000Z"},"geometry":{"type":"Point","coordinates":[39.1443497130268,57.5982859823097]}},{"type":"Feature","properties":{"id":5033,"title":"Karelia, RU - Road Alignment","status":"PUBLISHED","created":"2018","lastUpdated":"2018","lastActive":"no","area":15.783143957120704,"changesets":0,"mappers":0,"roads":0,"buildings":0,"edits":0,"latest":null},"geometry":{"type":"Point","coordinates":[32.653970249643,63.1683112124834]}},{"type":"Feature","properties":{"id":5047,"title":"Vologda, RU - Road Alignment","status":"PUBLISHED","created":"2018","lastUpdated":"2018","lastActive":"no","area":35.28516778928109,"changesets":0,"mappers":0,"roads":0,"buildings":0,"edits":0,"latest":null},"geometry":{"type":"Point","coordinates":[40.0393416965148,59.7751178689939]}},{"type":"Feature","properties":{"id":5081,"title":"Tambov, RU - Road Alignment","status":"PUBLISHED","created":"2018","lastUpdated":"2018","lastActive":"no","area":26.18715669406076,"changesets":1,"mappers":1,"roads":0.00403649833909725,"buildings":0,"edits":2,"latest":"2018-10-07T22:41:13.000Z"},"geometry":{"type":"Point","coordinates":[41.3729375849855,52.7601922019812]}},{"type":"Feature","properties":{"id":5079,"title":"Nizhny Novgorod, RU - Road Alignment","status":"PUBLISHED","created":"2018","lastUpdated":"2018","lastActive":"no","area":23.49516750453581,"changesets":5,"mappers":1,"roads":0.0220785561293529,"buildings":0,"edits":10,"latest":"2018-10-08T13:09:31.000Z"},"geometry":{"type":"Point","coordinates":[44.5683003348931,55.6787726091367]}},{"type":"Feature","properties":{"id":5089,"title":"Kabardino-Balkaria, RU - Road Alignment","status":"PUBLISHED","created":"2018","lastUpdated":"2018","lastActive":"yes","area":23.622718462797803,"changesets":46,"mappers":1,"roads":6.41319161325389,"buildings":926,"edits":1336,"latest":"2018-10-09T12:57:23.000Z"},"geometry":{"type":"Point","coordinates":[43.9811521507747,43.5359455756532]}},{"type":"Feature","properties":{"id":5077,"title":"Ivanovo, RU - Road Alignment","status":"PUBLISHED","created":"2018","lastUpdated":"2018","lastActive":"no","area":13.702294049661324,"changesets":0,"mappers":0,"roads":0,"buildings":0,"edits":0,"latest":null},"geometry":{"type":"Point","coordinates":[41.5762520611261,56.9819705148539]}},{"type":"Feature","properties":{"id":5075,"title":"Lipetsk, RU - Road Alignment","status":"PUBLISHED","created":"2018","lastUpdated":"2018","lastActive":"no","area":12.278823639779748,"changesets":0,"mappers":0,"roads":0,"buildings":0,"edits":0,"latest":null},"geometry":{"type":"Point","coordinates":[39.1004986289472,52.6545859654903]}},{"type":"Feature","properties":{"id":5105,"title":"Kurgan, RU - Road Alignment","status":"PUBLISHED","created":"2018","lastUpdated":"2018","lastActive":"no","area":10.828553519234841,"changesets":0,"mappers":0,"roads":0,"buildings":0,"edits":0,"latest":null},"geometry":{"type":"Point","coordinates":[65.1515824192141,55.1397216389689]}},{"type":"Feature","properties":{"id":5087,"title":"Ingushetia, RU - Road Alignment","status":"PUBLISHED","created":"2018","lastUpdated":"2018","lastActive":"no","area":5.5580742626089785,"changesets":0,"mappers":0,"roads":0,"buildings":0,"edits":0,"latest":null},"geometry":{"type":"Point","coordinates":[44.9998103358445,43.2859058104622]}},{"type":"Feature","properties":{"id":5091,"title":"Adygeya, RU - Road Alignment","status":"PUBLISHED","created":"2018","lastUpdated":"2018","lastActive":"yes","area":3.5556777849193764,"changesets":0,"mappers":0,"roads":0,"buildings":0,"edits":0,"latest":null},"geometry":{"type":"Point","coordinates":[39.6558268279716,44.8484239957608]}},{"type":"Feature","properties":{"id":5097,"title":"Mari El, RU - Road Alignment","status":"PUBLISHED","created":"2018","lastUpdated":"2018","lastActive":"no","area":2.1194954020724452,"changesets":9,"mappers":1,"roads":0.126755578113588,"buildings":0,"edits":45,"latest":"2018-10-04T16:23:52.000Z"},"geometry":{"type":"Point","coordinates":[48.561181273909,56.5923240658307]}},{"type":"Feature","properties":{"id":5095,"title":"Ulianovsk, RU - Road Alignment","status":"PUBLISHED","created":"2018","lastUpdated":"2018","lastActive":"no","area":10.512720117766863,"changesets":0,"mappers":0,"roads":0,"buildings":0,"edits":0,"latest":null},"geometry":{"type":"Point","coordinates":[48.0134617931904,53.772705368293]}},{"type":"Feature","properties":{"id":5083,"title":"Saratov, RU - Road Alignment","status":"PUBLISHED","created":"2018","lastUpdated":"2018","lastActive":"no","area":32.40097117720466,"changesets":0,"mappers":0,"roads":0,"buildings":0,"edits":0,"latest":null},"geometry":{"type":"Point","coordinates":[46.1811223773877,51.5916763633425]}},{"type":"Feature","properties":{"id":5099,"title":"Samara, RU - Road Alignment","status":"PUBLISHED","created":"2018","lastUpdated":"2018","lastActive":"no","area":30.485075606543912,"changesets":151,"mappers":1,"roads":22.4323424152844,"buildings":519,"edits":1982,"latest":"2018-10-17T10:16:33.000Z"},"geometry":{"type":"Point","coordinates":[50.3445307565892,53.3708217054506]}},{"type":"Feature","properties":{"id":5107,"title":"Omsk, RU - Road Alignment","status":"PUBLISHED","created":"2018","lastUpdated":"2018","lastActive":"no","area":18.92588387234162,"changesets":0,"mappers":0,"roads":0,"buildings":0,"edits":0,"latest":null},"geometry":{"type":"Point","coordinates":[73.1251378094216,55.4331855578523]}},{"type":"Feature","properties":{"id":5093,"title":"Stavropol, RU - Road Alignment","status":"PUBLISHED","created":"2018","lastUpdated":"2018","lastActive":"no","area":39.278249308473754,"changesets":0,"mappers":0,"roads":0,"buildings":0,"edits":0,"latest":null},"geometry":{"type":"Point","coordinates":[42.9341936478082,44.7607848987624]}},{"type":"Feature","properties":{"id":5113,"title":"Khakassia, RU - Road Alignment","status":"PUBLISHED","created":"2018","lastUpdated":"2018","lastActive":"no","area":2.2758892585070725,"changesets":1,"mappers":1,"roads":2.64657916308699,"buildings":0,"edits":1,"latest":"2018-10-17T18:43:42.000Z"},"geometry":{"type":"Point","coordinates":[91.0513384700272,53.6367519341592]}},{"type":"Feature","properties":{"id":5109,"title":"Khantia-Mansia, RU - Road Alignment","status":"PUBLISHED","created":"2018","lastUpdated":"2018","lastActive":"no","area":30.253087893790546,"changesets":0,"mappers":0,"roads":0,"buildings":0,"edits":0,"latest":null},"geometry":{"type":"Point","coordinates":[71.975901037221,61.2624729564418]}},{"type":"Feature","properties":{"id":5111,"title":"Tomsk, RU - Road Alignment","status":"PUBLISHED","created":"2018","lastUpdated":"2018","lastActive":"no","area":8.291597604665306,"changesets":5,"mappers":1,"roads":0.629914577296326,"buildings":5,"edits":37,"latest":"2018-10-20T21:50:51.000Z"},"geometry":{"type":"Point","coordinates":[83.3986752670868,57.7318453073323]}},{"type":"Feature","properties":{"id":5103,"title":"Perm, RU - Road Alignment","status":"PUBLISHED","created":"2018","lastUpdated":"2018","lastActive":"no","area":19.050963663499118,"changesets":36,"mappers":2,"roads":1.89355946602952,"buildings":10,"edits":284,"latest":"2018-10-17T18:01:41.000Z"},"geometry":{"type":"Point","coordinates":[55.8676360593071,57.9984261773804]}},{"type":"Feature","properties":{"id":5123,"title":"Magadan, RU - Road Alignment","status":"PUBLISHED","created":"2018","lastUpdated":"2018","lastActive":"no","area":5.034648396223297,"changesets":6,"mappers":1,"roads":0.0962224326601914,"buildings":0,"edits":37,"latest":"2018-10-13T15:44:20.000Z"},"geometry":{"type":"Point","coordinates":[151.195448468034,60.5667867782767]}},{"type":"Feature","properties":{"id":5119,"title":"Sakha, RU - Road Alignment","status":"PUBLISHED","created":"2018","lastUpdated":"2018","lastActive":"no","area":33.426355275199285,"changesets":0,"mappers":0,"roads":0,"buildings":0,"edits":0,"latest":null},"geometry":{"type":"Point","coordinates":[124.725706215512,61.3401873829566]}},{"type":"Feature","properties":{"id":5121,"title":"Sakhalin, RU - Road Alignment","status":"PUBLISHED","created":"2018","lastUpdated":"2018","lastActive":"no","area":5.566677215936195,"changesets":0,"mappers":0,"roads":0,"buildings":0,"edits":0,"latest":null},"geometry":{"type":"Point","coordinates":[142.738432590344,48.9062608568148]}},{"type":"Feature","properties":{"id":5115,"title":"Krasnoyarsk, RU - Road Alignment","status":"PUBLISHED","created":"2018","lastUpdated":"2018","lastActive":"no","area":22.824888459707374,"changesets":78,"mappers":1,"roads":15.4802476295006,"buildings":108,"edits":630,"latest":"2018-10-20T05:40:12.000Z"},"geometry":{"type":"Point","coordinates":[93.4116099617817,57.0117959504218]}}],"Zambia":[{"type":"Feature","properties":{"id":2594,"title":"Missing Maps: Zambia Malaria Elimination 32","status":"ARCHIVED","created":"2017","lastUpdated":"2017","lastActive":"no","area":43.26936567615261,"changesets":1273,"mappers":70,"roads":18.9927893029869,"buildings":7488,"edits":7992,"latest":"2017-04-08T00:18:09.000Z"},"geometry":{"type":"Point","coordinates":[27.3457489157097,-16.2479875735404]}},{"type":"Feature","properties":{"id":2623,"title":"Missing Maps: Zambia Malaria Elimination 44","status":"ARCHIVED","created":"2017","lastUpdated":"2017","lastActive":"no","area":48.79156262885752,"changesets":716,"mappers":71,"roads":6.99278637098004,"buildings":3963,"edits":4037,"latest":"2017-07-11T19:02:08.000Z"},"geometry":{"type":"Point","coordinates":[27.5674841857883,-16.5988506403521]}},{"type":"Feature","properties":{"id":2639,"title":"Missing Maps: Zambia Malaria Elimination 49","status":"ARCHIVED","created":"2017","lastUpdated":"2017","lastActive":"no","area":52.814073050735566,"changesets":852,"mappers":67,"roads":23.8160874785416,"buildings":5854,"edits":6222,"latest":"2017-03-28T13:32:47.000Z"},"geometry":{"type":"Point","coordinates":[27.2697037774623,-16.746202197447]}},{"type":"Feature","properties":{"id":2631,"title":"Missing Maps: Zambia Malaria Elimination 46","status":"ARCHIVED","created":"2017","lastUpdated":"2017","lastActive":"no","area":39.983921412768375,"changesets":491,"mappers":67,"roads":73.66628039145,"buildings":1499,"edits":1809,"latest":"2017-03-17T14:59:40.000Z"},"geometry":{"type":"Point","coordinates":[27.2661845406609,-16.5416785036011]}},{"type":"Feature","properties":{"id":4370,"title":"Lusaka Sanitation Program","status":"PUBLISHED","created":"2018","lastUpdated":"2018","lastActive":"no","area":14.119248751588133,"changesets":1712,"mappers":99,"roads":34.7652639071055,"buildings":24002,"edits":24532,"latest":"2018-10-10T15:34:30.000Z"},"geometry":{"type":"Point","coordinates":[28.2520662029724,-15.3709668980874]}},{"type":"Feature","properties":{"id":2764,"title":"Mistake Do Not Use","status":"ARCHIVED","created":"2017","lastUpdated":"2017","lastActive":"no","area":35.92752078925789,"changesets":0,"mappers":0,"roads":0,"buildings":0,"edits":0,"latest":null},"geometry":{"type":"Point","coordinates":[28.1010543332572,-15.9357645571568]}},{"type":"Feature","properties":{"id":3991,"title":"Zambia Cholera Outbreak","status":"PUBLISHED","created":"2018","lastUpdated":"2018","lastActive":"no","area":5.372296232208056,"changesets":1244,"mappers":91,"roads":53.6028823570509,"buildings":22152,"edits":24175,"latest":"2018-01-21T07:17:12.000Z"},"geometry":{"type":"Point","coordinates":[28.2617501969979,-15.445347941535]}},{"type":"Feature","properties":{"id":2581,"title":"Missing Maps: Zambia Malaria Elimination 20","status":"ARCHIVED","created":"2017","lastUpdated":"2017","lastActive":"no","area":38.16669959165131,"changesets":1058,"mappers":54,"roads":22.504826579566,"buildings":5525,"edits":6767,"latest":"2017-03-27T07:54:59.000Z"},"geometry":{"type":"Point","coordinates":[27.641978536512,-16.123850659574]}},{"type":"Feature","properties":{"id":4973,"title":"Priority Areas, Northern Province, Zambia Mini Grids Project 10","status":"PUBLISHED","created":"2018","lastUpdated":"2018","lastActive":"no","area":1633.8093711185227,"changesets":1681,"mappers":30,"roads":6.41696979581537,"buildings":18945,"edits":19694,"latest":"2018-08-14T11:28:58.000Z"},"geometry":{"type":"Point","coordinates":[33.0320112059923,-9.68945187433094]}},{"type":"Feature","properties":{"id":2669,"title":"Missing Maps: Zambia Malaria Elimination 57","status":"ARCHIVED","created":"2017","lastUpdated":"2017","lastActive":"no","area":55.88803814252673,"changesets":1112,"mappers":52,"roads":69.3347912659,"buildings":5338,"edits":5892,"latest":"2017-04-09T11:12:22.000Z"},"geometry":{"type":"Point","coordinates":[26.5525450023961,-16.8546851465236]}},{"type":"Feature","properties":{"id":2660,"title":"Missing Maps: Zambia Malaria Elimination 54","status":"ARCHIVED","created":"2017","lastUpdated":"2017","lastActive":"no","area":48.31641609564321,"changesets":1065,"mappers":64,"roads":31.5395520056465,"buildings":3589,"edits":4007,"latest":"2017-04-26T20:37:39.000Z"},"geometry":{"type":"Point","coordinates":[26.8375310841676,-16.6741735625183]}},{"type":"Feature","properties":{"id":4916,"title":"Priority Areas, Northern Province, Zambia Mini Grids Project 01","status":"PUBLISHED","created":"2018","lastUpdated":"2018","lastActive":"no","area":1631.951504666485,"changesets":1173,"mappers":35,"roads":0.328471285378522,"buildings":16208,"edits":16262,"latest":"2018-08-07T09:30:47.000Z"},"geometry":{"type":"Point","coordinates":[30.6429969471774,-9.65034760516237]}},{"type":"Feature","properties":{"id":4851,"title":"Priority Areas, Muchinga Province, Zambia Mini Grids Project 05","status":"PUBLISHED","created":"2018","lastUpdated":"2018","lastActive":"no","area":796.1616294065363,"changesets":1123,"mappers":36,"roads":0.112226485260465,"buildings":21415,"edits":21438,"latest":"2018-08-17T13:52:29.000Z"},"geometry":{"type":"Point","coordinates":[31.7742872167847,-9.19022557469334]}},{"type":"Feature","properties":{"id":4943,"title":"Priority Areas, Western Province, Zambia Mini Grids Project 06","status":"PUBLISHED","created":"2018","lastUpdated":"2018","lastActive":"no","area":803.1110192077076,"changesets":737,"mappers":40,"roads":0.044522892245107,"buildings":19570,"edits":19574,"latest":"2018-08-13T13:58:16.000Z"},"geometry":{"type":"Point","coordinates":[23.9764781183306,-15.4192425173157]}},{"type":"Feature","properties":{"id":4923,"title":"Priority Areas, Northern Province, Zambia Mini Grids Project 03","status":"PUBLISHED","created":"2018","lastUpdated":"2018","lastActive":"no","area":108.1972029061993,"changesets":443,"mappers":34,"roads":0.00876400210311584,"buildings":7442,"edits":7450,"latest":"2018-08-08T08:36:24.000Z"},"geometry":{"type":"Point","coordinates":[30.5911459465336,-11.7601390748348]}},{"type":"Feature","properties":{"id":2756,"title":"Missing Maps: Zambia Malaria Elimination 71","status":"ARCHIVED","created":"2017","lastUpdated":"2017","lastActive":"no","area":54.93276423403359,"changesets":730,"mappers":27,"roads":0.461838445395334,"buildings":4170,"edits":4174,"latest":"2017-04-22T12:51:29.000Z"},"geometry":{"type":"Point","coordinates":[26.7128319576413,-17.2332150949172]}},{"type":"Feature","properties":{"id":4949,"title":"Priority Areas, Northern Province, Zambia Mini Grids Project 07","status":"PUBLISHED","created":"2018","lastUpdated":"2018","lastActive":"no","area":339.45238810279517,"changesets":767,"mappers":39,"roads":0.0434383106502137,"buildings":13417,"edits":13438,"latest":"2018-08-03T12:45:03.000Z"},"geometry":{"type":"Point","coordinates":[30.5470506290675,-11.0575128068587]}},{"type":"Feature","properties":{"id":4960,"title":"Priority Areas, North-Western Province, Zambia Mini Grids Project 07","status":"PUBLISHED","created":"2018","lastUpdated":"2018","lastActive":"no","area":117.51835470650506,"changesets":114,"mappers":28,"roads":0,"buildings":815,"edits":815,"latest":"2018-08-06T12:35:48.000Z"},"geometry":{"type":"Point","coordinates":[24.1717302208412,-11.959699745309]}},{"type":"Feature","properties":{"id":2778,"title":"Missing Maps: Zambia Malaria Elimination 77","status":"ARCHIVED","created":"2017","lastUpdated":"2017","lastActive":"no","area":42.26158786311957,"changesets":561,"mappers":33,"roads":2.15378939549018,"buildings":3404,"edits":3418,"latest":"2017-04-10T14:45:32.000Z"},"geometry":{"type":"Point","coordinates":[26.0331956739105,-17.2965993386355]}},{"type":"Feature","properties":{"id":2547,"title":"Missing Maps: Zambia Malaria Elimination 7","status":"ARCHIVED","created":"2017","lastUpdated":"2017","lastActive":"no","area":52.427783564638844,"changesets":1886,"mappers":75,"roads":65.5101126680653,"buildings":12773,"edits":13399,"latest":"2017-07-13T01:59:29.000Z"},"geometry":{"type":"Point","coordinates":[26.4802715979837,-15.780440516558]}},{"type":"Feature","properties":{"id":2570,"title":"Missing Maps: Zambia Malaria Elimination 18","status":"ARCHIVED","created":"2017","lastUpdated":"2017","lastActive":"no","area":40.265860179426525,"changesets":1259,"mappers":53,"roads":11.0265424356229,"buildings":9511,"edits":9739,"latest":"2017-03-23T04:33:37.000Z"},"geometry":{"type":"Point","coordinates":[27.7552911263455,-16.2151912459413]}},{"type":"Feature","properties":{"id":2772,"title":"Missing Maps: Zambia Malaria Elimination 75","status":"ARCHIVED","created":"2017","lastUpdated":"2017","lastActive":"no","area":33.231101952285634,"changesets":341,"mappers":28,"roads":0.297108756357538,"buildings":2085,"edits":2088,"latest":"2017-04-28T08:57:01.000Z"},"geometry":{"type":"Point","coordinates":[26.4695046091455,-17.4157749584222]}},{"type":"Feature","properties":{"id":2554,"title":"Missing Maps: Zambia Malaria Elimination 9","status":"ARCHIVED","created":"2017","lastUpdated":"2017","lastActive":"no","area":46.63360623178158,"changesets":1400,"mappers":77,"roads":91.0983080137419,"buildings":11789,"edits":12218,"latest":"2017-03-24T12:08:48.000Z"},"geometry":{"type":"Point","coordinates":[27.9162150772687,-15.8650475722509]}},{"type":"Feature","properties":{"id":2489,"title":"Missing Maps: Zambia Malaria Elimination 1","status":"ARCHIVED","created":"2017","lastUpdated":"2017","lastActive":"no","area":148.37833628040136,"changesets":5122,"mappers":165,"roads":4778.22806566751,"buildings":30233,"edits":78251,"latest":"2017-05-09T16:04:32.000Z"},"geometry":{"type":"Point","coordinates":[26.1105651610199,-15.6279672930532]}},{"type":"Feature","properties":{"id":2539,"title":"Missing Maps: Zambia Malaria Elimination 3","status":"ARCHIVED","created":"2017","lastUpdated":"2017","lastActive":"no","area":47.85281626919188,"changesets":2132,"mappers":67,"roads":210.90010582889,"buildings":10376,"edits":11864,"latest":"2017-03-25T11:48:59.000Z"},"geometry":{"type":"Point","coordinates":[26.7206669822313,-15.482276061765]}},{"type":"Feature","properties":{"id":4883,"title":"Priority Areas, North-Western Province, Zambia Mini Grids Project 04","status":"PUBLISHED","created":"2018","lastUpdated":"2018","lastActive":"no","area":26.577579403472903,"changesets":84,"mappers":28,"roads":0.0327637665611748,"buildings":3703,"edits":3705,"latest":"2018-07-20T12:13:09.000Z"},"geometry":{"type":"Point","coordinates":[24.9483966190181,-13.596002453546]}},{"type":"Feature","properties":{"id":4906,"title":"Priority Areas, Central Province, Zambia Mini Grids Project 01","status":"PUBLISHED","created":"2018","lastUpdated":"2018","lastActive":"no","area":960.2843810977965,"changesets":1033,"mappers":34,"roads":0.0422650777154369,"buildings":11172,"edits":11183,"latest":"2018-08-03T09:02:34.000Z"},"geometry":{"type":"Point","coordinates":[30.0483834481938,-12.3726376822697]}},{"type":"Feature","properties":{"id":2348,"title":"Archived/Replaced by other Projects - Kuzungula District, Zambia","status":"ARCHIVED","created":"2016","lastUpdated":"2017","lastActive":"no","area":12042.04128837934,"changesets":401,"mappers":69,"roads":247.402666716234,"buildings":8464,"edits":9075,"latest":"2017-03-11T15:09:21.000Z"},"geometry":{"type":"Point","coordinates":[25.6273733502222,-17.213353497404]}},{"type":"Feature","properties":{"id":2360,"title":"Misisi, Lusaka, Zambia","status":"PUBLISHED","created":"2016","lastUpdated":"2017","lastActive":"no","area":3.254160281977127,"changesets":977,"mappers":35,"roads":14.7746021737245,"buildings":10044,"edits":12131,"latest":"2017-04-19T06:30:14.000Z"},"geometry":{"type":"Point","coordinates":[28.2793157762274,-15.4433304402041]}},{"type":"Feature","properties":{"id":4940,"title":"Priority Areas, Western Province, Zambia Mini Grids Project 03","status":"PUBLISHED","created":"2018","lastUpdated":"2018","lastActive":"no","area":130.71131986754082,"changesets":433,"mappers":35,"roads":0.00411933590482505,"buildings":6454,"edits":6459,"latest":"2018-08-14T05:55:53.000Z"},"geometry":{"type":"Point","coordinates":[23.1741374464,-14.8113230531681]}},{"type":"Feature","properties":{"id":2566,"title":"Missing Maps: Zambia Malaria Elimination 14","status":"ARCHIVED","created":"2017","lastUpdated":"2017","lastActive":"no","area":57.65449460173831,"changesets":1552,"mappers":63,"roads":2.83580702588112,"buildings":16749,"edits":16926,"latest":"2017-04-07T12:01:50.000Z"},"geometry":{"type":"Point","coordinates":[28.122352304328,-16.2042708842274]}},{"type":"Feature","properties":{"id":4971,"title":"Priority Areas, Northern Province, Zambia Mini Grids Project 08","status":"PUBLISHED","created":"2018","lastUpdated":"2018","lastActive":"no","area":686.1606920956642,"changesets":547,"mappers":31,"roads":0,"buildings":11039,"edits":11041,"latest":"2018-08-14T13:06:24.000Z"},"geometry":{"type":"Point","coordinates":[31.9205115511933,-10.1334618239917]}},{"type":"Feature","properties":{"id":2589,"title":"Missing Maps: Zambia Malaria Elimination 28","status":"ARCHIVED","created":"2017","lastUpdated":"2017","lastActive":"no","area":48.38205996241602,"changesets":1278,"mappers":56,"roads":24.505756009633,"buildings":7465,"edits":7886,"latest":"2017-03-30T07:48:05.000Z"},"geometry":{"type":"Point","coordinates":[27.4374700656247,-16.150438096581]}},{"type":"Feature","properties":{"id":2568,"title":"Missing Maps: Zambia Malaria Elimination 16","status":"ARCHIVED","created":"2017","lastUpdated":"2017","lastActive":"no","area":33.45666280635502,"changesets":1374,"mappers":53,"roads":19.0981468558553,"buildings":9558,"edits":9838,"latest":"2017-03-24T19:33:24.000Z"},"geometry":{"type":"Point","coordinates":[27.8088598196124,-16.1509845533222]}},{"type":"Feature","properties":{"id":2613,"title":"Missing Maps: Zambia Malaria Elimination 42","status":"ARCHIVED","created":"2017","lastUpdated":"2017","lastActive":"no","area":34.20674904384274,"changesets":797,"mappers":58,"roads":69.4566018998315,"buildings":3701,"edits":3997,"latest":"2017-03-27T07:55:49.000Z"},"geometry":{"type":"Point","coordinates":[27.4023544901047,-16.5187437761834]}},{"type":"Feature","properties":{"id":2611,"title":"Missing Maps: Zambia Malaria Elimination 40","status":"ARCHIVED","created":"2017","lastUpdated":"2017","lastActive":"no","area":46.032921401337944,"changesets":1214,"mappers":68,"roads":93.1964349675993,"buildings":9730,"edits":11380,"latest":"2017-04-10T00:49:03.000Z"},"geometry":{"type":"Point","coordinates":[27.5760387640245,-16.4560598833974]}},{"type":"Feature","properties":{"id":4900,"title":"Priority Areas, Western Province, Zambia Mini Grids Project 01","status":"PUBLISHED","created":"2018","lastUpdated":"2018","lastActive":"no","area":652.6525934646062,"changesets":731,"mappers":37,"roads":2.20449395581589,"buildings":18813,"edits":19230,"latest":"2018-08-01T13:56:07.000Z"},"geometry":{"type":"Point","coordinates":[24.1479928448816,-14.6050079686209]}},{"type":"Feature","properties":{"id":4845,"title":"Priority Areas, Muchinga Province, Zambia Mini Grids Project 03","status":"PUBLISHED","created":"2018","lastUpdated":"2018","lastActive":"no","area":30.76633123711304,"changesets":179,"mappers":20,"roads":0.002324335482359,"buildings":5269,"edits":5273,"latest":"2018-07-19T10:49:31.000Z"},"geometry":{"type":"Point","coordinates":[32.1061139136939,-10.3973685150342]}},{"type":"Feature","properties":{"id":4836,"title":"Priority Areas, Muchinga Province, Zambia Mini Grids Project 01","status":"PUBLISHED","created":"2018","lastUpdated":"2018","lastActive":"no","area":1192.5581757490236,"changesets":1343,"mappers":35,"roads":0.0231360703082391,"buildings":29593,"edits":29602,"latest":"2018-07-18T07:28:00.000Z"},"geometry":{"type":"Point","coordinates":[33.2368290515284,-10.5703090757455]}},{"type":"Feature","properties":{"id":2562,"title":"Missing Maps: Zambia Malaria Elimination 11","status":"ARCHIVED","created":"2017","lastUpdated":"2017","lastActive":"no","area":35.92752078925789,"changesets":651,"mappers":65,"roads":1.58523798925695,"buildings":5055,"edits":5085,"latest":"2017-03-24T06:14:13.000Z"},"geometry":{"type":"Point","coordinates":[28.1010543332572,-15.9357645571568]}},{"type":"Feature","properties":{"id":4826,"title":"Priority Areas, Southern Province, Zambia Mini Grids Project 07","status":"PUBLISHED","created":"2018","lastUpdated":"2018","lastActive":"no","area":248.07955230133993,"changesets":295,"mappers":29,"roads":0.11775287620795,"buildings":7464,"edits":7671,"latest":"2018-08-24T13:49:18.000Z"},"geometry":{"type":"Point","coordinates":[27.3753644888465,-16.8788513446297]}},{"type":"Feature","properties":{"id":2549,"title":"Zambia14","status":"ARCHIVED","created":"2017","lastUpdated":"2017","lastActive":"no","area":30.905717274348312,"changesets":0,"mappers":0,"roads":0,"buildings":0,"edits":0,"latest":null},"geometry":{"type":"Point","coordinates":[26.8995524285374,-15.9672565612992]}},{"type":"Feature","properties":{"id":2545,"title":"Missing Maps: Zambia Malaria Elimination 5","status":"ARCHIVED","created":"2017","lastUpdated":"2017","lastActive":"no","area":29.240261299687603,"changesets":2462,"mappers":63,"roads":59.6692415195899,"buildings":19056,"edits":19476,"latest":"2017-07-21T09:55:23.000Z"},"geometry":{"type":"Point","coordinates":[26.0720422320165,-15.9727674891682]}},{"type":"Feature","properties":{"id":2633,"title":"Missing Maps: Zambia Malaria Elimination 48","status":"ARCHIVED","created":"2017","lastUpdated":"2017","lastActive":"no","area":32.57131581006427,"changesets":500,"mappers":35,"roads":2.44756255431118,"buildings":3279,"edits":3316,"latest":"2017-03-14T11:37:25.000Z"},"geometry":{"type":"Point","coordinates":[27.537414156998,-16.6966256500116]}},{"type":"Feature","properties":{"id":2564,"title":"Missing Maps: Zambia Malaria Elimination 13","status":"ARCHIVED","created":"2017","lastUpdated":"2017","lastActive":"no","area":56.69497094655045,"changesets":1658,"mappers":79,"roads":7.43757499480842,"buildings":13947,"edits":14009,"latest":"2017-03-27T02:04:28.000Z"},"geometry":{"type":"Point","coordinates":[28.1346276664275,-16.0665704523542]}},{"type":"Feature","properties":{"id":2592,"title":"Missing Maps: Zambia Malaria Elimination 30","status":"ARCHIVED","created":"2017","lastUpdated":"2017","lastActive":"no","area":48.89367966790246,"changesets":929,"mappers":62,"roads":8.39795410362155,"buildings":5011,"edits":5076,"latest":"2017-04-27T22:45:51.000Z"},"geometry":{"type":"Point","coordinates":[27.1605308545981,-16.179257781807]}},{"type":"Feature","properties":{"id":2662,"title":"Missing Maps: Zambia Malaria Elimination 56","status":"ARCHIVED","created":"2017","lastUpdated":"2017","lastActive":"no","area":41.22931300255509,"changesets":473,"mappers":34,"roads":34.9486193133669,"buildings":2297,"edits":2676,"latest":"2017-04-07T14:52:29.000Z"},"geometry":{"type":"Point","coordinates":[26.5769400034605,-16.7034656687689]}},{"type":"Feature","properties":{"id":2696,"title":"Missing Maps: Zambia Malaria Elimination 63","status":"ARCHIVED","created":"2017","lastUpdated":"2017","lastActive":"no","area":40.00701214726156,"changesets":730,"mappers":113,"roads":80.1397702085044,"buildings":2948,"edits":3980,"latest":"2017-03-25T15:14:51.000Z"},"geometry":{"type":"Point","coordinates":[26.3263061356791,-17.0723213651034]}},{"type":"Feature","properties":{"id":2671,"title":"Missing Maps: Zambia Malaria Elimination 59","status":"ARCHIVED","created":"2017","lastUpdated":"2017","lastActive":"no","area":53.983168673328294,"changesets":606,"mappers":52,"roads":55.5653175535778,"buildings":3293,"edits":3585,"latest":"2017-04-10T07:33:21.000Z"},"geometry":{"type":"Point","coordinates":[26.7801556416528,-16.868925492807]}},{"type":"Feature","properties":{"id":2694,"title":"Missing Maps: Zambia Malaria Elimination 61","status":"ARCHIVED","created":"2017","lastUpdated":"2017","lastActive":"no","area":52.12083766112771,"changesets":1071,"mappers":100,"roads":90.3137322450952,"buildings":4021,"edits":5009,"latest":"2017-08-31T14:06:38.000Z"},"geometry":{"type":"Point","coordinates":[27.1939724854381,-16.898602684166]}},{"type":"Feature","properties":{"id":2607,"title":"Missing Maps: Zambia Malaria Elimination 38","status":"ARCHIVED","created":"2017","lastUpdated":"2017","lastActive":"no","area":39.885067149317884,"changesets":2853,"mappers":69,"roads":32.2568933614399,"buildings":16567,"edits":17223,"latest":"2017-06-10T16:37:04.000Z"},"geometry":{"type":"Point","coordinates":[27.3140013351165,-16.4411592545615]}},{"type":"Feature","properties":{"id":2698,"title":"Missing Maps: Zambia Malaria Elimination 65","status":"ARCHIVED","created":"2017","lastUpdated":"2017","lastActive":"no","area":45.4940226768803,"changesets":553,"mappers":37,"roads":38.9228921104259,"buildings":3784,"edits":4078,"latest":"2017-03-27T10:25:14.000Z"},"geometry":{"type":"Point","coordinates":[26.7322447108227,-17.0359700650714]}},{"type":"Feature","properties":{"id":2605,"title":"Missing Maps: Zambia Malaria Elimination 36","status":"ARCHIVED","created":"2017","lastUpdated":"2017","lastActive":"no","area":44.753791671609655,"changesets":843,"mappers":108,"roads":446.771408867532,"buildings":5729,"edits":7002,"latest":"2017-03-25T11:28:00.000Z"},"geometry":{"type":"Point","coordinates":[27.161827481475,-16.4392560957868]}},{"type":"Feature","properties":{"id":2728,"title":"Zambia - Peace Corps Public Health Program","status":"PUBLISHED","created":"2017","lastUpdated":"2018","lastActive":"no","area":1812.3066110321777,"changesets":561,"mappers":95,"roads":712.112904040654,"buildings":6766,"edits":11389,"latest":"2018-10-09T12:40:02.000Z"},"geometry":{"type":"Point","coordinates":[26.0244494385981,-12.8954326004688]}},{"type":"Feature","properties":{"id":5229,"title":"Missing Maps - Zambia - Mongu centre","status":"PUBLISHED","created":"2018","lastUpdated":"2018","lastActive":"no","area":3.8224707121374966,"changesets":617,"mappers":48,"roads":13.3032185168653,"buildings":4537,"edits":4972,"latest":"2018-10-10T20:28:18.000Z"},"geometry":{"type":"Point","coordinates":[23.125782800666,-15.2734182422346]}},{"type":"Feature","properties":{"id":5248,"title":"Missing Maps - Zambia - Mongu North","status":"PUBLISHED","created":"2018","lastUpdated":"2018","lastActive":"no","area":12.321256440928424,"changesets":835,"mappers":52,"roads":63.31169654292,"buildings":8184,"edits":9060,"latest":"2018-10-08T15:05:02.000Z"},"geometry":{"type":"Point","coordinates":[23.1498678596987,-15.2509633149346]}},{"type":"Feature","properties":{"id":5327,"title":"North-west","status":"PUBLISHED","created":"2018","lastUpdated":"2018","lastActive":"no","area":13433.522391139175,"changesets":49,"mappers":21,"roads":13.6969321488564,"buildings":472,"edits":496,"latest":"2018-10-22T15:51:06.000Z"},"geometry":{"type":"Point","coordinates":[24.5495147016021,-13.5993734203055]}},{"type":"Feature","properties":{"id":5343,"title":"Missing Maps - Zambia - Malengwa","status":"PUBLISHED","created":"2018","lastUpdated":"2018","lastActive":"no","area":19.26248831210457,"changesets":403,"mappers":36,"roads":123.197019645997,"buildings":2631,"edits":3980,"latest":"2018-10-22T22:50:37.000Z"},"geometry":{"type":"Point","coordinates":[23.1496450351179,-15.21927210925]}},{"type":"Feature","properties":{"id":4994,"title":"Missing Maps - Zambia - Kalabo","status":"PUBLISHED","created":"2018","lastUpdated":"2018","lastActive":"yes","area":42.40842194753424,"changesets":662,"mappers":35,"roads":401.119656498212,"buildings":4494,"edits":6932,"latest":"2018-10-11T07:10:56.000Z"},"geometry":{"type":"Point","coordinates":[22.6657569509904,-15.0166112347884]}},{"type":"Feature","properties":{"id":2730,"title":"Missing Maps: Zambia Malaria Elimination 67","status":"ARCHIVED","created":"2017","lastUpdated":"2017","lastActive":"no","area":56.33934549915492,"changesets":738,"mappers":86,"roads":373.243600699255,"buildings":3976,"edits":6044,"latest":"2017-03-30T14:10:52.000Z"},"geometry":{"type":"Point","coordinates":[27.0062720546434,-17.0350331230293]}},{"type":"Feature","properties":{"id":2737,"title":"Mistake Do Not Use","status":"ARCHIVED","created":"2017","lastUpdated":"2017","lastActive":"no","area":52.427783564638844,"changesets":0,"mappers":0,"roads":0,"buildings":0,"edits":0,"latest":null},"geometry":{"type":"Point","coordinates":[26.4802715979837,-15.780440516558]}},{"type":"Feature","properties":{"id":2735,"title":"Missing Maps: Zambia Malaria Elimination 69","status":"ARCHIVED","created":"2017","lastUpdated":"2017","lastActive":"no","area":54.456940297073714,"changesets":818,"mappers":41,"roads":829.338060121107,"buildings":8209,"edits":12361,"latest":"2017-04-18T19:55:15.000Z"},"geometry":{"type":"Point","coordinates":[27.0614325223308,-17.1644080663634]}},{"type":"Feature","properties":{"id":1484,"title":"Mayukwayukwa Refugee Camp, Orientale Province, Zambia","status":"PUBLISHED","created":"2016","lastUpdated":"2017","lastActive":"no","area":79.68379557842741,"changesets":456,"mappers":54,"roads":494.708091818574,"buildings":2041,"edits":8445,"latest":"2017-01-17T13:21:46.000Z"},"geometry":{"type":"Point","coordinates":[24.1974973288105,-14.5525750273743]}},{"type":"Feature","properties":{"id":4010,"title":"Zambia Cholera Outbreak 2018","status":"PUBLISHED","created":"2018","lastUpdated":"2018","lastActive":"no","area":5.210083377958257,"changesets":693,"mappers":66,"roads":21.7905925162644,"buildings":11559,"edits":13153,"latest":"2018-01-13T22:26:32.000Z"},"geometry":{"type":"Point","coordinates":[28.2955256322922,-15.3894090810857]}},{"type":"Feature","properties":{"id":2585,"title":"Missing Maps: Zambia Malaria Elimination 24","status":"ARCHIVED","created":"2017","lastUpdated":"2017","lastActive":"no","area":45.640231042502336,"changesets":1130,"mappers":58,"roads":3.23377267316928,"buildings":7223,"edits":7383,"latest":"2017-03-29T02:58:36.000Z"},"geometry":{"type":"Point","coordinates":[27.5837411428749,-16.3334845054347]}},{"type":"Feature","properties":{"id":5064,"title":"Zambia-Sinda Residential Buildings Mapping","status":"PUBLISHED","created":"2018","lastUpdated":"2018","lastActive":"no","area":4029.788113014448,"changesets":1588,"mappers":65,"roads":104.501620490992,"buildings":90389,"edits":90735,"latest":"2018-10-17T19:28:11.000Z"},"geometry":{"type":"Point","coordinates":[31.7262927407117,-14.2579734458589]}},{"type":"Feature","properties":{"id":2473,"title":"Missing Maps: Kanyama, Lusaka, Zambia - Cholera Crisis - Buildings Only - Area 2","status":"ARCHIVED","created":"2017","lastUpdated":"2017","lastActive":"no","area":4.097444955118227,"changesets":960,"mappers":69,"roads":1.24701144334619,"buildings":14460,"edits":14939,"latest":"2017-02-02T00:10:35.000Z"},"geometry":{"type":"Point","coordinates":[28.2347584624704,-15.4362575093508]}},{"type":"Feature","properties":{"id":3184,"title":"Missing Maps: Zambia Malaria Elimination 80","status":"ARCHIVED","created":"2017","lastUpdated":"2017","lastActive":"no","area":740.5068822656518,"changesets":2995,"mappers":163,"roads":86.0025580626029,"buildings":35042,"edits":36444,"latest":"2017-11-04T16:55:47.000Z"},"geometry":{"type":"Point","coordinates":[27.6920513530111,-15.9415376214092]}},{"type":"Feature","properties":{"id":2543,"title":"Missing Maps: Kanyama, Lusaka, Zambia - Cholera Crisis - Buildings Only - Zone 4","status":"PUBLISHED","created":"2017","lastUpdated":"2017","lastActive":"no","area":0.9470639118601474,"changesets":520,"mappers":25,"roads":0.847052105657445,"buildings":10436,"edits":13972,"latest":"2017-04-14T08:01:31.000Z"},"geometry":{"type":"Point","coordinates":[28.2549772567581,-15.4283251911849]}},{"type":"Feature","properties":{"id":4825,"title":"Priority Areas, Southern Province, Zambia Mini Grids Project 05","status":"PUBLISHED","created":"2018","lastUpdated":"2018","lastActive":"no","area":998.2673623663566,"changesets":1440,"mappers":38,"roads":0.0492268614550338,"buildings":21271,"edits":21290,"latest":"2018-07-18T07:05:41.000Z"},"geometry":{"type":"Point","coordinates":[25.7969948236896,-17.3691501275951]}},{"type":"Feature","properties":{"id":4827,"title":"Priority Areas, Southern Province, Zambia Mini Grids Project 06","status":"PUBLISHED","created":"2018","lastUpdated":"2018","lastActive":"no","area":196.74034064721903,"changesets":304,"mappers":33,"roads":0.0373206177418661,"buildings":7085,"edits":7086,"latest":"2018-07-19T09:55:25.000Z"},"geometry":{"type":"Point","coordinates":[27.492882028221,-16.8368382203306]}},{"type":"Feature","properties":{"id":4815,"title":"Priority Areas, Southern Province, Zambia Mini Grids Project 01","status":"PUBLISHED","created":"2018","lastUpdated":"2018","lastActive":"no","area":2421.4759557891675,"changesets":3756,"mappers":40,"roads":0.0343579811795723,"buildings":66955,"edits":66966,"latest":"2018-07-16T14:03:50.000Z"},"geometry":{"type":"Point","coordinates":[26.5621274778074,-16.4445758757379]}},{"type":"Feature","properties":{"id":4820,"title":"Priority Areas, Southern Province, Zambia Mini Grids Project 03","status":"ARCHIVED","created":"2018","lastUpdated":"2018","lastActive":"no","area":1047.4559738575663,"changesets":651,"mappers":35,"roads":0.0143433118122065,"buildings":18881,"edits":18884,"latest":"2018-07-06T07:00:01.000Z"},"geometry":{"type":"Point","coordinates":[28.3420956132482,-16.3836257536732]}},{"type":"Feature","properties":{"id":4853,"title":"Priority Areas, Muchinga Province, Zambia Mini Grids Project 06","status":"PUBLISHED","created":"2018","lastUpdated":"2018","lastActive":"no","area":1817.6416004508362,"changesets":2092,"mappers":37,"roads":0.905534581714069,"buildings":44070,"edits":44266,"latest":"2018-08-17T07:34:09.000Z"},"geometry":{"type":"Point","coordinates":[32.2083821683174,-9.14371619923103]}},{"type":"Feature","properties":{"id":4859,"title":"Priority Areas, Eastern Province, Zambia Mini Grids Project 01","status":"ARCHIVED","created":"2018","lastUpdated":"2018","lastActive":"no","area":1248.2305353046686,"changesets":1213,"mappers":29,"roads":0.0390268800056372,"buildings":50442,"edits":50454,"latest":"2018-07-13T09:25:13.000Z"},"geometry":{"type":"Point","coordinates":[32.7261623523745,-13.2437373001181]}},{"type":"Feature","properties":{"id":4882,"title":"Priority Areas, North-Western Province, Zambia Mini Grids Project 03","status":"PUBLISHED","created":"2018","lastUpdated":"2018","lastActive":"no","area":198.34286749894446,"changesets":313,"mappers":34,"roads":0.00864561254804241,"buildings":9766,"edits":9769,"latest":"2018-08-31T13:24:15.000Z"},"geometry":{"type":"Point","coordinates":[23.3135694879536,-13.2477154515275]}},{"type":"Feature","properties":{"id":4846,"title":"Priority Areas, Muchinga Province, Zambia Mini Grids Project 04","status":"PUBLISHED","created":"2018","lastUpdated":"2018","lastActive":"no","area":929.6291976614265,"changesets":951,"mappers":38,"roads":1.65187851759928,"buildings":14723,"edits":14748,"latest":"2018-08-17T11:43:04.000Z"},"geometry":{"type":"Point","coordinates":[31.5185684989067,-9.85709047863316]}},{"type":"Feature","properties":{"id":4873,"title":"Priority Areas, Eastern Province, Zambia Mini Grids Project 04","status":"ARCHIVED","created":"2018","lastUpdated":"2018","lastActive":"no","area":1351.5505600750143,"changesets":1128,"mappers":33,"roads":0.110256636504698,"buildings":40010,"edits":40023,"latest":"2018-07-19T07:01:18.000Z"},"geometry":{"type":"Point","coordinates":[33.2021522485916,-11.817264674421]}},{"type":"Feature","properties":{"id":4844,"title":"Priority Areas, Muchinga Province, Zambia Mini Grids Project 02","status":"PUBLISHED","created":"2018","lastUpdated":"2018","lastActive":"no","area":117.96969471416107,"changesets":441,"mappers":34,"roads":27.9742743624376,"buildings":13541,"edits":13560,"latest":"2018-07-19T09:12:40.000Z"},"geometry":{"type":"Point","coordinates":[32.248068994447,-10.1170343784785]}},{"type":"Feature","properties":{"id":4915,"title":"Priority Areas, Central Province, Zambia Mini Grids Project 02","status":"PUBLISHED","created":"2018","lastUpdated":"2018","lastActive":"no","area":1208.74971616363,"changesets":650,"mappers":33,"roads":0.13273143039995,"buildings":15301,"edits":15314,"latest":"2018-08-03T14:21:54.000Z"},"geometry":{"type":"Point","coordinates":[30.3576108611969,-12.617836467409]}},{"type":"Feature","properties":{"id":4899,"title":"Priority Areas, Muchinga Province, Zambia Mini Grids Project 07","status":"PUBLISHED","created":"2018","lastUpdated":"2018","lastActive":"no","area":441.1523928389474,"changesets":540,"mappers":36,"roads":0.250215582929794,"buildings":14739,"edits":14765,"latest":"2018-08-03T10:35:37.000Z"},"geometry":{"type":"Point","coordinates":[32.4951177388957,-9.87408339150437]}},{"type":"Feature","properties":{"id":4884,"title":"Priority Areas, North-Western Province, Zambia Mini Grids Project 05","status":"PUBLISHED","created":"2018","lastUpdated":"2018","lastActive":"no","area":125.30507062928119,"changesets":361,"mappers":34,"roads":1.34774179913668,"buildings":9253,"edits":9350,"latest":"2018-09-03T08:43:47.000Z"},"geometry":{"type":"Point","coordinates":[24.4732475183641,-13.4848300645144]}},{"type":"Feature","properties":{"id":4903,"title":"Priority Areas, Muchinga Province, Zambia Mini Grids Project 08","status":"PUBLISHED","created":"2018","lastUpdated":"2018","lastActive":"no","area":195.32850196315457,"changesets":248,"mappers":34,"roads":0.915803661040848,"buildings":3822,"edits":3850,"latest":"2018-08-03T10:01:03.000Z"},"geometry":{"type":"Point","coordinates":[30.6259586514312,-12.2108577580289]}},{"type":"Feature","properties":{"id":4901,"title":"Priority Areas, Western Province, Zambia Mini Grids Project 02","status":"PUBLISHED","created":"2018","lastUpdated":"2018","lastActive":"no","area":86.20979092896107,"changesets":388,"mappers":30,"roads":0.0630880986700207,"buildings":6061,"edits":6064,"latest":"2018-07-31T13:41:57.000Z"},"geometry":{"type":"Point","coordinates":[23.7388563840653,-14.8061782946768]}},{"type":"Feature","properties":{"id":4924,"title":"Priority Areas, Northern Province, Zambia Mini Grids Project 04","status":"PUBLISHED","created":"2018","lastUpdated":"2018","lastActive":"no","area":452.9181756480841,"changesets":560,"mappers":36,"roads":0.0123975514532122,"buildings":16517,"edits":16528,"latest":"2018-08-08T12:42:05.000Z"},"geometry":{"type":"Point","coordinates":[31.797031298858,-10.738388409873]}},{"type":"Feature","properties":{"id":4937,"title":"Priority Areas, Northern Province, Zambia Mini Grids Project 06","status":"PUBLISHED","created":"2018","lastUpdated":"2018","lastActive":"no","area":1185.5772857089414,"changesets":1333,"mappers":34,"roads":0.00506049116688987,"buildings":15523,"edits":15525,"latest":"2018-08-13T11:50:43.000Z"},"geometry":{"type":"Point","coordinates":[30.0872517008454,-10.3611567028287]}},{"type":"Feature","properties":{"id":4905,"title":"Priority Areas, Muchinga Province, Zambia Mini Grids Project 08","status":"PUBLISHED","created":"2018","lastUpdated":"2018","lastActive":"no","area":208.73494423756583,"changesets":342,"mappers":35,"roads":0.236453175417115,"buildings":7886,"edits":7919,"latest":"2018-08-03T12:15:28.000Z"},"geometry":{"type":"Point","coordinates":[30.4084611744672,-12.212950717318]}},{"type":"Feature","properties":{"id":4922,"title":"Priority Areas, Northern Province, Zambia Mini Grids Project 02","status":"PUBLISHED","created":"2018","lastUpdated":"2018","lastActive":"no","area":267.4433204018853,"changesets":322,"mappers":35,"roads":0.00175040133063931,"buildings":5023,"edits":5023,"latest":"2018-08-07T12:28:55.000Z"},"geometry":{"type":"Point","coordinates":[30.2291389871152,-9.46386425129326]}},{"type":"Feature","properties":{"id":4933,"title":"Priority Areas, Northern Province, Zambia Mini Grids Project 05","status":"PUBLISHED","created":"2018","lastUpdated":"2018","lastActive":"no","area":1619.0724840432163,"changesets":1368,"mappers":37,"roads":0.00745079653607594,"buildings":20708,"edits":20715,"latest":"2018-08-10T11:22:25.000Z"},"geometry":{"type":"Point","coordinates":[30.3334124658576,-10.7284504545683]}},{"type":"Feature","properties":{"id":4945,"title":"Priority Areas, Western Province, Zambia Mini Grids Project 04","status":"PUBLISHED","created":"2018","lastUpdated":"2018","lastActive":"no","area":804.0519879215597,"changesets":314,"mappers":40,"roads":0.00317335355418891,"buildings":3346,"edits":3349,"latest":"2018-08-07T08:31:00.000Z"},"geometry":{"type":"Point","coordinates":[23.1534648552369,-14.7914819377237]}},{"type":"Feature","properties":{"id":4926,"title":"Priority Areas, North-Western Province, Zambia Mini Grids Project 06","status":"PUBLISHED","created":"2018","lastUpdated":"2018","lastActive":"no","area":83.59684385397733,"changesets":281,"mappers":34,"roads":0,"buildings":7280,"edits":7280,"latest":"2018-08-09T07:35:58.000Z"},"geometry":{"type":"Point","coordinates":[24.1755828224049,-13.0583515919993]}},{"type":"Feature","properties":{"id":4948,"title":"Priority Areas, Western Province, Zambia Mini Grids Project 07","status":"PUBLISHED","created":"2018","lastUpdated":"2018","lastActive":"no","area":52.856725257049014,"changesets":226,"mappers":40,"roads":0.00342610791336639,"buildings":6747,"edits":6753,"latest":"2018-08-06T11:58:58.000Z"},"geometry":{"type":"Point","coordinates":[22.6439986370809,-14.7876866673254]}},{"type":"Feature","properties":{"id":4950,"title":"Priority Areas, Northern Province, Zambia Mini Grids Project 08","status":"PUBLISHED","created":"2018","lastUpdated":"2018","lastActive":"no","area":234.71948219941723,"changesets":170,"mappers":31,"roads":0.0258509204979465,"buildings":1546,"edits":1554,"latest":"2018-08-02T12:19:31.000Z"},"geometry":{"type":"Point","coordinates":[30.8061614223634,-10.7847189392756]}},{"type":"Feature","properties":{"id":4942,"title":"Priority Areas, Western Province, Zambia Mini Grids Project 05","status":"PUBLISHED","created":"2018","lastUpdated":"2018","lastActive":"no","area":65.6747276055282,"changesets":271,"mappers":41,"roads":0,"buildings":9826,"edits":9826,"latest":"2018-08-07T09:56:48.000Z"},"geometry":{"type":"Point","coordinates":[23.6275817161252,-15.5580334747978]}},{"type":"Feature","properties":{"id":4954,"title":"Priority Areas, Muchinga Province, Zambia Mini Grids Project 09","status":"PUBLISHED","created":"2018","lastUpdated":"2018","lastActive":"no","area":1400.150703741115,"changesets":1440,"mappers":38,"roads":2.31439887632379,"buildings":45766,"edits":45968,"latest":"2018-08-09T11:42:10.000Z"},"geometry":{"type":"Point","coordinates":[33.3890547617494,-10.2793352264361]}},{"type":"Feature","properties":{"id":4959,"title":"Priority Areas, Muchinga Province, Zambia Mini Grids Project 10","status":"PUBLISHED","created":"2018","lastUpdated":"2018","lastActive":"no","area":17.589736562807172,"changesets":1,"mappers":1,"roads":0,"buildings":0,"edits":0,"latest":"2018-08-06T11:16:25.000Z"},"geometry":{"type":"Point","coordinates":[30.6198102841667,-12.4054873343945]}},{"type":"Feature","properties":{"id":4972,"title":"Priority Areas, Northern Province, Zambia Mini Grids Project 09","status":"PUBLISHED","created":"2018","lastUpdated":"2018","lastActive":"no","area":128.6555616326287,"changesets":389,"mappers":29,"roads":0.0168751266411869,"buildings":6113,"edits":6114,"latest":"2018-08-09T13:31:07.000Z"},"geometry":{"type":"Point","coordinates":[33.0220173680045,-10.2276804756312]}},{"type":"Feature","properties":{"id":4968,"title":"Priority Areas, Muchinga, Zambia Mini Grids Project 11","status":"PUBLISHED","created":"2018","lastUpdated":"2018","lastActive":"no","area":1104.3187258348034,"changesets":1521,"mappers":38,"roads":0.0817142328227262,"buildings":46830,"edits":46881,"latest":"2018-08-15T07:39:18.000Z"},"geometry":{"type":"Point","coordinates":[32.9454122077498,-11.2985955740601]}},{"type":"Feature","properties":{"id":4961,"title":"Priority Areas, North-Western Province, Zambia Mini Grids Project 08","status":"PUBLISHED","created":"2018","lastUpdated":"2018","lastActive":"no","area":62.42190994922546,"changesets":213,"mappers":31,"roads":0.0456716403757625,"buildings":4762,"edits":4784,"latest":"2018-08-14T07:27:41.000Z"},"geometry":{"type":"Point","coordinates":[23.7742274914027,-13.2667271386372]}}],"Uruguay":[{"type":"Feature","properties":{"id":4734,"title":"Lavalleja, UY - Missing Roads","status":"PUBLISHED","created":"2018","lastUpdated":"2018","lastActive":"no","area":2.619548477063463,"changesets":1,"mappers":1,"roads":0.920208040317565,"buildings":0,"edits":2,"latest":"2018-06-17T19:35:53.000Z"},"geometry":{"type":"Point","coordinates":[-54.852761135203,-33.8136242865293]}},{"type":"Feature","properties":{"id":4740,"title":"Rocha, UY - Missing Roads","status":"PUBLISHED","created":"2018","lastUpdated":"2018","lastActive":"no","area":4.100013506717109,"changesets":11,"mappers":2,"roads":23.5724183748576,"buildings":2,"edits":39,"latest":"2018-08-01T08:33:54.000Z"},"geometry":{"type":"Point","coordinates":[-54.0481754640001,-33.7565447813606]}},{"type":"Feature","properties":{"id":4738,"title":"RÃ­o Negro, UY - Missing Roads","status":"PUBLISHED","created":"2018","lastUpdated":"2018","lastActive":"no","area":9.574305456459518,"changesets":2,"mappers":1,"roads":2.73826308813931,"buildings":4,"edits":10,"latest":"2018-06-17T19:33:43.000Z"},"geometry":{"type":"Point","coordinates":[-57.5310709506451,-32.7560247653978]}},{"type":"Feature","properties":{"id":4742,"title":"San JosÃ©, UY - Missing Roads","status":"PUBLISHED","created":"2018","lastUpdated":"2018","lastActive":"no","area":2.679374257693063,"changesets":1,"mappers":1,"roads":0.711613488057297,"buildings":2,"edits":4,"latest":"2018-06-17T19:10:06.000Z"},"geometry":{"type":"Point","coordinates":[-56.7218036484626,-34.2122189611892]}},{"type":"Feature","properties":{"id":4733,"title":"Florida, UY - Missing Roads","status":"PUBLISHED","created":"2018","lastUpdated":"2018","lastActive":"no","area":3.582388882317583,"changesets":173,"mappers":10,"roads":155.77113007265,"buildings":3,"edits":263,"latest":"2018-10-22T23:47:02.000Z"},"geometry":{"type":"Point","coordinates":[-55.9567319910784,-33.8067643169784]}},{"type":"Feature","properties":{"id":4739,"title":"Rivera, UY - Missing Roads","status":"PUBLISHED","created":"2018","lastUpdated":"2018","lastActive":"no","area":1.9208193031109262,"changesets":1,"mappers":1,"roads":5.16691936559525,"buildings":0,"edits":4,"latest":"2018-06-17T19:24:19.000Z"},"geometry":{"type":"Point","coordinates":[-55.1070481293185,-31.5306162997209]}},{"type":"Feature","properties":{"id":4729,"title":"Cerro Largo, UY - Missing Roads","status":"PUBLISHED","created":"2018","lastUpdated":"2018","lastActive":"no","area":3.3508047797372877,"changesets":7,"mappers":2,"roads":4.19479695618612,"buildings":6,"edits":14,"latest":"2018-08-16T12:09:08.000Z"},"geometry":{"type":"Point","coordinates":[-54.5387068905652,-32.3200271356573]}},{"type":"Feature","properties":{"id":4731,"title":"Durazno, UY - Missing Roads","status":"PUBLISHED","created":"2018","lastUpdated":"2018","lastActive":"no","area":3.810249057125639,"changesets":1,"mappers":1,"roads":1.77575892862827,"buildings":0,"edits":2,"latest":"2018-06-17T19:41:06.000Z"},"geometry":{"type":"Point","coordinates":[-56.3813909864707,-33.0298559973205]}},{"type":"Feature","properties":{"id":4735,"title":"Maldonado, UY - Missing Roads","status":"PUBLISHED","created":"2018","lastUpdated":"2018","lastActive":"no","area":2.637358520033333,"changesets":1,"mappers":1,"roads":4.62366597098281,"buildings":0,"edits":6,"latest":"2018-06-17T20:16:06.000Z"},"geometry":{"type":"Point","coordinates":[-54.9072884294147,-34.6591531262324]}},{"type":"Feature","properties":{"id":4737,"title":"PaysandÃº, UY - Missing Roads","status":"PUBLISHED","created":"2018","lastUpdated":"2018","lastActive":"no","area":4.925080627008268,"changesets":1,"mappers":1,"roads":3.27465567788371,"buildings":6,"edits":14,"latest":"2018-06-17T19:30:03.000Z"},"geometry":{"type":"Point","coordinates":[-57.4874480525534,-32.0038424681977]}},{"type":"Feature","properties":{"id":4745,"title":"Treinta y Tres, UY - Missing Roads","status":"PUBLISHED","created":"2018","lastUpdated":"2018","lastActive":"no","area":2.328629575129745,"changesets":4,"mappers":2,"roads":13.0377803130286,"buildings":159,"edits":183,"latest":"2018-07-01T11:39:54.000Z"},"geometry":{"type":"Point","coordinates":[-54.2210591047665,-33.0221099733964]}},{"type":"Feature","properties":{"id":4743,"title":"Soriano, UY - Missing Roads","status":"PUBLISHED","created":"2018","lastUpdated":"2018","lastActive":"no","area":9.312488894094873,"changesets":1,"mappers":1,"roads":3.05662815455746,"buildings":6,"edits":11,"latest":"2018-06-17T19:14:31.000Z"},"geometry":{"type":"Point","coordinates":[-57.7948189212049,-33.4673815847698]}}],"Botswana":[{"type":"Feature","properties":{"id":2376,"title":"Missing Maps: BOBIRWA District, Botswana -Part 1/2- Clinton Health Access Initiative - BUILDINGS ONLY  ","status":"ARCHIVED","created":"2016","lastUpdated":"2016","lastActive":"no","area":7146.471227371979,"changesets":2455,"mappers":47,"roads":23.8959178272802,"buildings":20700,"edits":20908,"latest":"2017-02-13T14:31:19.000Z"},"geometry":{"type":"Point","coordinates":[28.5849034996303,-22.1952816839487]}},{"type":"Feature","properties":{"id":2374,"title":"Missing Maps: Ngami District, Botswana -Part 4/5- Clinton Health Access Initiative - BUILDINGS ONLYoject","status":"ARCHIVED","created":"2016","lastUpdated":"2016","lastActive":"no","area":9146.493797836127,"changesets":0,"mappers":0,"roads":0,"buildings":0,"edits":0,"latest":null},"geometry":{"type":"Point","coordinates":[23.2213603571419,-19.783292692621]}},{"type":"Feature","properties":{"id":2506,"title":"Missing Maps: Mmeya, Botswana - Clinton Health Access Initiative","status":"ARCHIVED","created":"2017","lastUpdated":"2017","lastActive":"no","area":216.96412316210098,"changesets":56,"mappers":2,"roads":0,"buildings":847,"edits":847,"latest":"2017-02-13T13:50:00.000Z"},"geometry":{"type":"Point","coordinates":[26.3592516068861,-21.0464601804813]}},{"type":"Feature","properties":{"id":2453,"title":"Missing Maps: Sowa Town, Tutume District, Botswana - Clinton Health Access Initiative","status":"ARCHIVED","created":"2017","lastUpdated":"2017","lastActive":"no","area":1151.1903349965148,"changesets":299,"mappers":4,"roads":2.76491989395842,"buildings":603,"edits":611,"latest":"2017-02-13T14:29:45.000Z"},"geometry":{"type":"Point","coordinates":[26.099684019627,-20.4458761575283]}},{"type":"Feature","properties":{"id":2529,"title":"Missing Maps: GOSHWE, Botswana - Clinton Health Access Initiative","status":"ARCHIVED","created":"2017","lastUpdated":"2017","lastActive":"no","area":240.0800264822955,"changesets":0,"mappers":0,"roads":0,"buildings":0,"edits":0,"latest":null},"geometry":{"type":"Point","coordinates":[27.2381725518904,-20.4791243437741]}},{"type":"Feature","properties":{"id":2537,"title":"Missing Maps: BUILDINGS ONLY (4/5)  Botswana - Clinton Health Access Initiative","status":"ARCHIVED","created":"2017","lastUpdated":"2017","lastActive":"no","area":3107.54735593311,"changesets":0,"mappers":0,"roads":0,"buildings":0,"edits":0,"latest":null},"geometry":{"type":"Point","coordinates":[26.7275872377179,-20.4926988742273]}},{"type":"Feature","properties":{"id":1590,"title":"Peace Corps Botswana - Sepopa","status":"ARCHIVED","created":"2016","lastUpdated":"2016","lastActive":"no","area":4.126976225822726,"changesets":104,"mappers":27,"roads":45.5905205721354,"buildings":947,"edits":1844,"latest":"2016-04-11T16:42:55.000Z"},"geometry":{"type":"Point","coordinates":[22.1725391962034,-18.7398233857328]}},{"type":"Feature","properties":{"id":4317,"title":"Botswana, Chobe District - National Malaria Programme","status":"PUBLISHED","created":"2018","lastUpdated":"2018","lastActive":"no","area":2422.6655366125387,"changesets":1401,"mappers":158,"roads":1981.40636245232,"buildings":5944,"edits":11864,"latest":"2018-04-22T20:13:03.000Z"},"geometry":{"type":"Point","coordinates":[24.9305227330624,-18.3594754240366]}},{"type":"Feature","properties":{"id":4382,"title":"Botswana, Nata Village (re-do) - National Malaria Programme","status":"PUBLISHED","created":"2018","lastUpdated":"2018","lastActive":"no","area":434.7624185220041,"changesets":662,"mappers":110,"roads":697.130695316268,"buildings":3508,"edits":6902,"latest":"2018-04-14T08:01:09.000Z"},"geometry":{"type":"Point","coordinates":[26.1684393154216,-20.392170608413]}},{"type":"Feature","properties":{"id":668,"title":"Peace Corpsâ Stomp Out Malaria - Kachikau","status":"ARCHIVED","created":"2014","lastUpdated":"2015","lastActive":"no","area":8.708858642401118,"changesets":0,"mappers":0,"roads":0,"buildings":0,"edits":0,"latest":null},"geometry":{"type":"Point","coordinates":[24.5006489753723,-18.1552104237701]}},{"type":"Feature","properties":{"id":1994,"title":"Missing Maps: Bobirwa District, Botswana - Clinton Health Access Initiative ","status":"ARCHIVED","created":"2016","lastUpdated":"2017","lastActive":"no","area":12339.749131597708,"changesets":1,"mappers":1,"roads":0,"buildings":1,"edits":1,"latest":"2016-09-15T13:15:36.000Z"},"geometry":{"type":"Point","coordinates":[28.3965859131622,-22.0467954252281]}},{"type":"Feature","properties":{"id":2507,"title":"Missing Maps: Nata, Botswana - Clinton Health Access Initiative","status":"ARCHIVED","created":"2017","lastUpdated":"2017","lastActive":"no","area":3056.121403849905,"changesets":88,"mappers":2,"roads":0.000221877779758245,"buildings":896,"edits":900,"latest":"2017-03-04T12:27:25.000Z"},"geometry":{"type":"Point","coordinates":[26.1401585287195,-20.5135760976171]}},{"type":"Feature","properties":{"id":2518,"title":"Missing Maps: Zone 2A, Botswana - Clinton Health Access Initiative","status":"ARCHIVED","created":"2017","lastUpdated":"2017","lastActive":"no","area":455.6379336094699,"changesets":44,"mappers":5,"roads":123.480967542219,"buildings":399,"edits":563,"latest":"2017-02-15T10:45:11.000Z"},"geometry":{"type":"Point","coordinates":[25.7781965392702,-21.7544639123788]}},{"type":"Feature","properties":{"id":2504,"title":"Kedia, Botswana","status":"ARCHIVED","created":"2017","lastUpdated":"2017","lastActive":"no","area":392.97147653587194,"changesets":83,"mappers":1,"roads":0.0000128968755100445,"buildings":1055,"edits":1061,"latest":"2017-02-09T14:31:56.000Z"},"geometry":{"type":"Point","coordinates":[24.71970858006,-21.3638031480407]}},{"type":"Feature","properties":{"id":2514,"title":"KHUMAGA, Botswana, Clinton Health Access Initiative","status":"ARCHIVED","created":"2017","lastUpdated":"2017","lastActive":"no","area":710.0664176037427,"changesets":258,"mappers":2,"roads":0.001811493892779,"buildings":1308,"edits":1316,"latest":"2017-02-14T14:24:29.000Z"},"geometry":{"type":"Point","coordinates":[24.3560104041127,-20.4869353629065]}},{"type":"Feature","properties":{"id":2531,"title":"Missing Maps: XHUMO, Botswana - Clinton Health Access Initiative","status":"ARCHIVED","created":"2017","lastUpdated":"2017","lastActive":"no","area":671.5956891817073,"changesets":0,"mappers":0,"roads":0,"buildings":0,"edits":0,"latest":null},"geometry":{"type":"Point","coordinates":[24.6124969127515,-21.2394687054567]}},{"type":"Feature","properties":{"id":2509,"title":"Missing Maps: NSWAZWI, Botswana - Clinton Health Access","status":"ARCHIVED","created":"2017","lastUpdated":"2017","lastActive":"no","area":156.20496768189332,"changesets":234,"mappers":4,"roads":0,"buildings":3401,"edits":3401,"latest":"2017-02-14T14:31:34.000Z"},"geometry":{"type":"Point","coordinates":[27.2294703221757,-20.6248308345425]}},{"type":"Feature","properties":{"id":2511,"title":"MAITENGWE, Botswana, Clinton Health Access Initiative","status":"ARCHIVED","created":"2017","lastUpdated":"2017","lastActive":"no","area":742.3407665856527,"changesets":301,"mappers":4,"roads":0,"buildings":8123,"edits":8123,"latest":"2017-02-18T10:04:22.000Z"},"geometry":{"type":"Point","coordinates":[27.0463890362223,-20.1234060013298]}},{"type":"Feature","properties":{"id":2535,"title":"Missing Maps: BUILDINGS ONLY (2/5)  Botswana - Clinton Health Access Initiative","status":"ARCHIVED","created":"2017","lastUpdated":"2017","lastActive":"no","area":9556.26340053368,"changesets":0,"mappers":0,"roads":0,"buildings":0,"edits":0,"latest":null},"geometry":{"type":"Point","coordinates":[24.4424789243268,-20.7495975745094]}},{"type":"Feature","properties":{"id":5161,"title":"Botswana, Ngami Sub-district - National Malaria Programme","status":"ARCHIVED","created":"2018","lastUpdated":"2018","lastActive":"no","area":59183.0670446809,"changesets":1,"mappers":1,"roads":0,"buildings":31,"edits":31,"latest":"2018-09-05T16:22:43.000Z"},"geometry":{"type":"Point","coordinates":[23.3126127780449,-19.9939365031887]}},{"type":"Feature","properties":{"id":2557,"title":"Missing Maps: villages of Tutume district, Botswana - Clinton Health Access Initiative","status":"ARCHIVED","created":"2017","lastUpdated":"2017","lastActive":"no","area":12679.773843905916,"changesets":0,"mappers":0,"roads":0,"buildings":0,"edits":0,"latest":null},"geometry":{"type":"Point","coordinates":[26.215692361954,-20.3998753421187]}},{"type":"Feature","properties":{"id":2396,"title":"Missing Maps: Botswana North-West District","status":"ARCHIVED","created":"2016","lastUpdated":"2018","lastActive":"no","area":214.74479144708752,"changesets":4019,"mappers":173,"roads":3653.7060251264,"buildings":32894,"edits":73530,"latest":"2017-10-10T15:59:31.000Z"},"geometry":{"type":"Point","coordinates":[23.0142359482937,-18.602661096688]}},{"type":"Feature","properties":{"id":5184,"title":"Botswana, Bobirwa Sub-district - 01 - National Malaria Programme","status":"ARCHIVED","created":"2018","lastUpdated":"2018","lastActive":"no","area":5662.561868598544,"changesets":1,"mappers":1,"roads":0,"buildings":9,"edits":9,"latest":"2018-09-09T12:52:54.000Z"},"geometry":{"type":"Point","coordinates":[28.5750267323985,-21.934321446397]}},{"type":"Feature","properties":{"id":5181,"title":"Botswana, Okavango Sub-district - National Malaria Programme","status":"ARCHIVED","created":"2018","lastUpdated":"2018","lastActive":"no","area":32466.830756382315,"changesets":0,"mappers":0,"roads":0,"buildings":0,"edits":0,"latest":null},"geometry":{"type":"Point","coordinates":[22.008151679285,-18.9930660401322]}},{"type":"Feature","properties":{"id":4337,"title":"Botswana, Nata Village - National Malaria Programme","status":"ARCHIVED","created":"2018","lastUpdated":"2018","lastActive":"no","area":434.7624185042024,"changesets":307,"mappers":52,"roads":193.64858375665,"buildings":1256,"edits":1783,"latest":"2018-03-29T17:19:17.000Z"},"geometry":{"type":"Point","coordinates":[26.168439315419,-20.3921706084066]}},{"type":"Feature","properties":{"id":1990,"title":"Missing Maps: Okavango District, Botswana - Clinton Health Access Initiative - BUILDINGS ONLY","status":"ARCHIVED","created":"2016","lastUpdated":"2017","lastActive":"no","area":46246.260994317374,"changesets":2838,"mappers":174,"roads":5970.17288197358,"buildings":35953,"edits":79004,"latest":"2016-12-09T12:53:33.000Z"},"geometry":{"type":"Point","coordinates":[22.0464839391768,-19.0586132232621]}},{"type":"Feature","properties":{"id":1092,"title":"Peace Corps Botswana- Gobojango Area","status":"ARCHIVED","created":"2015","lastUpdated":"2015","lastActive":"no","area":9.305128358812432,"changesets":17,"mappers":4,"roads":110.713328230235,"buildings":1467,"edits":2045,"latest":"2015-07-13T16:23:23.000Z"},"geometry":{"type":"Point","coordinates":[28.7222325653611,-21.8357861895546]}},{"type":"Feature","properties":{"id":1034,"title":"Peace Corps Botswana - Molepolole II","status":"PUBLISHED","created":"2015","lastUpdated":"2017","lastActive":"no","area":18.17702226776811,"changesets":1115,"mappers":72,"roads":43.6190988347351,"buildings":9155,"edits":10457,"latest":"2017-02-24T08:28:42.000Z"},"geometry":{"type":"Point","coordinates":[25.5349743453636,-24.3816556712786]}},{"type":"Feature","properties":{"id":1992,"title":"Missing Maps: Boteti District, Botswana - Clinton Health Access Initiative ","status":"ARCHIVED","created":"2016","lastUpdated":"2017","lastActive":"no","area":33058.27634436169,"changesets":0,"mappers":0,"roads":0,"buildings":0,"edits":0,"latest":null},"geometry":{"type":"Point","coordinates":[24.965312099624,-21.2364967903702]}},{"type":"Feature","properties":{"id":1515,"title":"Peace Corps Botswana - Mochudi","status":"PUBLISHED","created":"2016","lastUpdated":"2018","lastActive":"no","area":55.63006078479333,"changesets":1002,"mappers":74,"roads":254.358048449744,"buildings":23626,"edits":33566,"latest":"2018-02-06T20:54:55.000Z"},"geometry":{"type":"Point","coordinates":[26.1460235690627,-24.3903618778026]}},{"type":"Feature","properties":{"id":950,"title":"Peace Corps Botswana - Thamaga II","status":"ARCHIVED","created":"2015","lastUpdated":"2015","lastActive":"no","area":3.213412678249398,"changesets":0,"mappers":0,"roads":0,"buildings":0,"edits":0,"latest":null},"geometry":{"type":"Point","coordinates":[25.556360448256,-24.6621463738196]}},{"type":"Feature","properties":{"id":1810,"title":"Peace Corps Botswana -- Sefhophe","status":"PUBLISHED","created":"2016","lastUpdated":"2017","lastActive":"no","area":8.936452630346272,"changesets":200,"mappers":17,"roads":118.532249805034,"buildings":2864,"edits":4794,"latest":"2017-07-12T18:27:38.000Z"},"geometry":{"type":"Point","coordinates":[27.9642762535304,-22.1938821742897]}},{"type":"Feature","properties":{"id":2170,"title":"Peace Corps Botswana -- Khudumelapye","status":"PUBLISHED","created":"2016","lastUpdated":"2017","lastActive":"no","area":4.587489905004571,"changesets":157,"mappers":36,"roads":112.430337520258,"buildings":1467,"edits":3993,"latest":"2017-02-23T10:13:16.000Z"},"geometry":{"type":"Point","coordinates":[24.951855163682,-23.9119482311893]}},{"type":"Feature","properties":{"id":2366,"title":"Missing Maps: Ngami District, Botswana -Part 2/5- Clinton Health Access Initiative - BUILDINGS ONLY","status":"ARCHIVED","created":"2016","lastUpdated":"2016","lastActive":"no","area":15888.076213883358,"changesets":404,"mappers":21,"roads":0.481323805501072,"buildings":2069,"edits":2075,"latest":"2016-12-09T11:04:30.000Z"},"geometry":{"type":"Point","coordinates":[21.710124997005,-20.4998549510468]}},{"type":"Feature","properties":{"id":2363,"title":"Missing Maps: Ngami District, Botswana -Part 1/5- Clinton Health Access Initiative - BUILDINGS ONLY","status":"ARCHIVED","created":"2016","lastUpdated":"2016","lastActive":"no","area":17639.184180300872,"changesets":1085,"mappers":36,"roads":25.2342318478336,"buildings":6327,"edits":6525,"latest":"2016-12-12T14:55:03.000Z"},"geometry":{"type":"Point","coordinates":[24.4838406800003,-19.6966158167357]}},{"type":"Feature","properties":{"id":2373,"title":"Missing Maps: Ngami District, Botswana -Part 3/5- Clinton Health Access Initiative - BUILDINGS ONLY","status":"ARCHIVED","created":"2016","lastUpdated":"2016","lastActive":"no","area":9952.112901417055,"changesets":159,"mappers":17,"roads":16.8366647717552,"buildings":1514,"edits":1619,"latest":"2016-12-10T10:09:12.000Z"},"geometry":{"type":"Point","coordinates":[23.3818245133749,-19.067890867191]}},{"type":"Feature","properties":{"id":2494,"title":"NSHAKASHOGWE, Botswana - Clinton Health Access Initiative","status":"ARCHIVED","created":"2017","lastUpdated":"2017","lastActive":"no","area":276.059043186827,"changesets":137,"mappers":3,"roads":0,"buildings":3981,"edits":3981,"latest":"2017-02-13T14:03:34.000Z"},"geometry":{"type":"Point","coordinates":[27.1062052041487,-20.7518845630134]}},{"type":"Feature","properties":{"id":2512,"title":"WMA, Botswana, Clinton Health Access Initiative","status":"ARCHIVED","created":"2017","lastUpdated":"2017","lastActive":"no","area":10119.295625237915,"changesets":10,"mappers":1,"roads":0,"buildings":207,"edits":207,"latest":"2017-02-14T10:28:14.000Z"},"geometry":{"type":"Point","coordinates":[25.6000717391353,-19.4105744561759]}},{"type":"Feature","properties":{"id":2492,"title":"MAKUTA, Botswana - Clinton Health Access Initiative","status":"ARCHIVED","created":"2017","lastUpdated":"2017","lastActive":"no","area":153.19456223528567,"changesets":122,"mappers":1,"roads":0,"buildings":1491,"edits":1491,"latest":"2017-02-10T08:40:37.000Z"},"geometry":{"type":"Point","coordinates":[27.1057033269695,-20.6667945218084]}},{"type":"Feature","properties":{"id":2496,"title":"SENETE, Botswana - Clinton Health Access Initiative","status":"ARCHIVED","created":"2017","lastUpdated":"2017","lastActive":"no","area":939.6750097357702,"changesets":186,"mappers":5,"roads":0,"buildings":5524,"edits":5525,"latest":"2017-02-13T07:32:36.000Z"},"geometry":{"type":"Point","coordinates":[26.9131559523561,-20.2530016726367]}},{"type":"Feature","properties":{"id":2517,"title":"Missing Maps: Mosu, Botswana - Clinton Health Access Initiative","status":"ARCHIVED","created":"2017","lastUpdated":"2017","lastActive":"no","area":2220.4774511050036,"changesets":115,"mappers":10,"roads":15.9142033171499,"buildings":1089,"edits":1153,"latest":"2017-02-20T14:28:30.000Z"},"geometry":{"type":"Point","coordinates":[26.0504000315427,-21.1107601577386]}},{"type":"Feature","properties":{"id":2503,"title":"Orapa, Botswana","status":"ARCHIVED","created":"2017","lastUpdated":"2017","lastActive":"no","area":360.2381174668008,"changesets":111,"mappers":2,"roads":0.000655108738693123,"buildings":3858,"edits":3882,"latest":"2017-02-13T12:35:52.000Z"},"geometry":{"type":"Point","coordinates":[25.3645079634206,-21.2845231070072]}},{"type":"Feature","properties":{"id":2490,"title":"AREA 4B RANCHES, Botswana - Clinton Health Access Initiative","status":"ARCHIVED","created":"2017","lastUpdated":"2017","lastActive":"no","area":3836.410032561603,"changesets":88,"mappers":2,"roads":0.0000404811189038128,"buildings":1347,"edits":1361,"latest":"2017-02-14T14:00:37.000Z"},"geometry":{"type":"Point","coordinates":[24.7496313229452,-21.5772942609693]}},{"type":"Feature","properties":{"id":2498,"title":"SEBINA, Botswana - Clinton Health Access Initiative","status":"ARCHIVED","created":"2017","lastUpdated":"2017","lastActive":"no","area":200.37259382065227,"changesets":259,"mappers":8,"roads":0.00013750512827022,"buildings":4735,"edits":4747,"latest":"2017-02-16T09:01:40.000Z"},"geometry":{"type":"Point","coordinates":[27.1378148368056,-20.8664053247138]}},{"type":"Feature","properties":{"id":2375,"title":"Missing Maps: Ngami District, Botswana -Part 5/5- Clinton Health Access Initiative - BUILDINGS ONLY","status":"ARCHIVED","created":"2016","lastUpdated":"2016","lastActive":"no","area":16415.13618616339,"changesets":505,"mappers":16,"roads":231.125108678811,"buildings":10898,"edits":12011,"latest":"2016-12-12T08:22:38.000Z"},"geometry":{"type":"Point","coordinates":[23.1309478892041,-20.5306070509265]}},{"type":"Feature","properties":{"id":4339,"title":"Botswana, Gumare Village - National Malaria Programme","status":"PUBLISHED","created":"2018","lastUpdated":"2018","lastActive":"no","area":62.94267106863238,"changesets":408,"mappers":51,"roads":114.364259908699,"buildings":2711,"edits":3636,"latest":"2018-04-18T10:29:18.000Z"},"geometry":{"type":"Point","coordinates":[22.1783284839623,-19.3262353380699]}},{"type":"Feature","properties":{"id":1949,"title":"Peace Corps Botswana -- Sowa Town","status":"ARCHIVED","created":"2016","lastUpdated":"2016","lastActive":"no","area":4.1333326806179285,"changesets":173,"mappers":8,"roads":50.222115659427,"buildings":1316,"edits":1707,"latest":"2016-06-30T14:26:04.000Z"},"geometry":{"type":"Point","coordinates":[26.2234834733339,-20.5650549230502]}},{"type":"Feature","properties":{"id":2377,"title":"Missing Maps: BOBIRWA District, Botswana -Part 2/2- Clinton Health Access Initiative - BUILDINGS ONLY","status":"ARCHIVED","created":"2016","lastUpdated":"2016","lastActive":"no","area":7459.172585725824,"changesets":2689,"mappers":73,"roads":225.269073069513,"buildings":48515,"edits":50458,"latest":"2017-02-14T14:26:54.000Z"},"geometry":{"type":"Point","coordinates":[28.0127304627059,-21.8765103614756]}},{"type":"Feature","properties":{"id":2491,"title":"Changate, Botswana - Clinton Health Access Initiative","status":"ARCHIVED","created":"2017","lastUpdated":"2017","lastActive":"no","area":93.80606413322549,"changesets":87,"mappers":1,"roads":0,"buildings":1733,"edits":1733,"latest":"2017-02-10T14:31:35.000Z"},"geometry":{"type":"Point","coordinates":[27.237449845083,-20.29682033743]}},{"type":"Feature","properties":{"id":2495,"title":"ZORGOA, Botswana - Clinton Health Access Initiative","status":"ARCHIVED","created":"2017","lastUpdated":"2017","lastActive":"no","area":2281.5260163522767,"changesets":92,"mappers":2,"roads":0.0000551241330686025,"buildings":364,"edits":366,"latest":"2017-03-02T09:26:45.000Z"},"geometry":{"type":"Point","coordinates":[25.7065765158285,-20.3189219602555]}},{"type":"Feature","properties":{"id":2499,"title":"NKANGE, Botswana - Clinton Health Access Initiative","status":"ARCHIVED","created":"2017","lastUpdated":"2017","lastActive":"no","area":157.52170444706366,"changesets":151,"mappers":4,"roads":0,"buildings":3193,"edits":3193,"latest":"2017-02-13T06:40:52.000Z"},"geometry":{"type":"Point","coordinates":[27.1518789450639,-20.2933744526696]}},