{"totalEdits":44838977,"totalBuildings":37370988,"totalRoads":940500.980124644,"mappersOnline":75,"totalTasksMapped":1782512,"totalMappers":153307,"totalProjects":4312,"Zimbabwe":[{"type":"Feature","properties":{"id":2823,"title":"Missing Maps: Zimbabwe Malaria Elimination 41","status":"ARCHIVED","created":"2017","lastUpdated":"2017","lastActive":"no","area":54.64109539947108,"changesets":877,"mappers":52,"roads":2.73130250220412,"buildings":8237,"edits":8261,"latest":"2017-07-16T21:26:30.000Z"},"geometry":{"type":"Point","coordinates":[27.9261917409197,-18.19937446157]}},{"type":"Feature","properties":{"id":2797,"title":"Missing Maps: Zimbabwe Malaria Elimination 26","status":"ARCHIVED","created":"2017","lastUpdated":"2017","lastActive":"no","area":41.06167340898977,"changesets":564,"mappers":24,"roads":2.55060485020248,"buildings":6515,"edits":6533,"latest":"2017-08-09T20:54:08.000Z"},"geometry":{"type":"Point","coordinates":[28.0037013409184,-18.9878336004839]}},{"type":"Feature","properties":{"id":2799,"title":"Missing Maps: Zimbabwe Malaria Elimination 28","status":"ARCHIVED","created":"2017","lastUpdated":"2017","lastActive":"no","area":49.53888928857819,"changesets":678,"mappers":38,"roads":59.6297227934625,"buildings":4801,"edits":5137,"latest":"2017-04-14T09:33:30.000Z"},"geometry":{"type":"Point","coordinates":[28.802231067226,-18.898359981717]}},{"type":"Feature","properties":{"id":3156,"title":"Missing Maps: Zimbabwe Malaria Elimination 192","status":"ARCHIVED","created":"2017","lastUpdated":"2017","lastActive":"no","area":694.1504036837471,"changesets":2133,"mappers":82,"roads":96.6153843452903,"buildings":19793,"edits":20622,"latest":"2017-06-15T00:40:42.000Z"},"geometry":{"type":"Point","coordinates":[29.3944796089884,-17.9199571439981]}},{"type":"Feature","properties":{"id":3162,"title":"Missing Maps: Zimbabwe Malaria Elimination 195","status":"ARCHIVED","created":"2017","lastUpdated":"2017","lastActive":"no","area":1174.7572055922467,"changesets":1383,"mappers":52,"roads":3.59011559839763,"buildings":12306,"edits":12336,"latest":"2017-06-16T06:41:18.000Z"},"geometry":{"type":"Point","coordinates":[30.0527956897123,-18.5294466417876]}},{"type":"Feature","properties":{"id":3158,"title":"Missing Maps: Zimbabwe Malaria Elimination 194","status":"ARCHIVED","created":"2017","lastUpdated":"2017","lastActive":"no","area":943.6261001263152,"changesets":1554,"mappers":49,"roads":1.47608241892859,"buildings":29809,"edits":29918,"latest":"2017-06-14T12:40:05.000Z"},"geometry":{"type":"Point","coordinates":[29.8945115144606,-18.2341155758634]}},{"type":"Feature","properties":{"id":3164,"title":"Missing Maps: Zimbabwe Malaria Elimination 197","status":"ARCHIVED","created":"2017","lastUpdated":"2017","lastActive":"no","area":1029.4826092486537,"changesets":1936,"mappers":58,"roads":15.6737107491728,"buildings":16063,"edits":16194,"latest":"2017-08-14T12:35:55.000Z"},"geometry":{"type":"Point","coordinates":[30.3548944989636,-18.220109074111]}},{"type":"Feature","properties":{"id":3191,"title":"Missing Maps: Zimbabwe Malaria Elimination 206","status":"ARCHIVED","created":"2017","lastUpdated":"2017","lastActive":"no","area":200.1057875494198,"changesets":1131,"mappers":78,"roads":3.81025624799402,"buildings":24003,"edits":24576,"latest":"2017-06-29T16:08:32.000Z"},"geometry":{"type":"Point","coordinates":[28.642212015928,-20.1626701893723]}},{"type":"Feature","properties":{"id":2924,"title":"Missing Maps: Zimbabwe Malaria Elimination 106","status":"ARCHIVED","created":"2017","lastUpdated":"2017","lastActive":"no","area":692.8571717865406,"changesets":1621,"mappers":39,"roads":9.57999519456574,"buildings":15112,"edits":15160,"latest":"2017-05-02T00:26:27.000Z"},"geometry":{"type":"Point","coordinates":[28.2538906009342,-18.3532722678745]}},{"type":"Feature","properties":{"id":2932,"title":"Missing Maps: Zimbabwe Malaria Elimination 111","status":"ARCHIVED","created":"2017","lastUpdated":"2017","lastActive":"no","area":620.1012392999947,"changesets":1635,"mappers":36,"roads":27.4147371214624,"buildings":22128,"edits":22658,"latest":"2017-05-23T20:09:14.000Z"},"geometry":{"type":"Point","coordinates":[29.0937696478496,-18.1922001742943]}},{"type":"Feature","properties":{"id":2732,"title":"Missing Maps: Zimbabwe Malaria Elimination 5","status":"ARCHIVED","created":"2017","lastUpdated":"2017","lastActive":"no","area":41.71815753787245,"changesets":1137,"mappers":50,"roads":16.9178368204629,"buildings":8332,"edits":8454,"latest":"2017-08-05T21:43:27.000Z"},"geometry":{"type":"Point","coordinates":[26.6283924837683,-18.1336524723816]}},{"type":"Feature","properties":{"id":2758,"title":"Missing Maps: Zimbabwe Malaria Elimination 9","status":"ARCHIVED","created":"2017","lastUpdated":"2017","lastActive":"no","area":45.82807193453851,"changesets":900,"mappers":41,"roads":19.0038743691646,"buildings":9055,"edits":9101,"latest":"2017-04-25T05:41:50.000Z"},"geometry":{"type":"Point","coordinates":[27.1797077255989,-18.5842296424011]}},{"type":"Feature","properties":{"id":2739,"title":"Missing Maps: Zimbabwe Malaria Elimination 7","status":"ARCHIVED","created":"2017","lastUpdated":"2017","lastActive":"no","area":49.15595302659425,"changesets":656,"mappers":30,"roads":261.53430399888,"buildings":12086,"edits":14378,"latest":"2017-08-07T13:49:11.000Z"},"geometry":{"type":"Point","coordinates":[26.8538153160123,-18.5232733367907]}},{"type":"Feature","properties":{"id":5643,"title":"Harare STI prevention: CHIEDZA project 2","status":"PUBLISHED","created":"2018","lastUpdated":"2019","lastActive":"no","area":4.13652118996159,"changesets":204,"mappers":14,"roads":8.1879231395717,"buildings":4986,"edits":5093,"latest":"2019-01-16T14:37:38.000Z"},"geometry":{"type":"Point","coordinates":[31.1056581303077,-17.6912468951822]}},{"type":"Feature","properties":{"id":5674,"title":"Harare STI prevention: CHIEDZA project 4","status":"PUBLISHED","created":"2019","lastUpdated":"2019","lastActive":"yes","area":6.54289488626679,"changesets":2,"mappers":1,"roads":0,"buildings":7,"edits":7,"latest":"2019-01-17T17:53:39.000Z"},"geometry":{"type":"Point","coordinates":[31.1889190680788,-17.8378098689109]}},{"type":"Feature","properties":{"id":4467,"title":"Missing Maps: West Harare, Zimbabwe 2/5","status":"ARCHIVED","created":"2018","lastUpdated":"2018","lastActive":"no","area":4.219669061118951,"changesets":104,"mappers":22,"roads":23.515697663126,"buildings":1282,"edits":1511,"latest":"2018-04-29T11:25:01.000Z"},"geometry":{"type":"Point","coordinates":[30.9351296047106,-17.919704092956]}},{"type":"Feature","properties":{"id":2785,"title":"Missing Maps: Zimbabwe Malaria Elimination 18","status":"ARCHIVED","created":"2017","lastUpdated":"2017","lastActive":"no","area":41.68570309698071,"changesets":709,"mappers":33,"roads":179.50315444901,"buildings":4243,"edits":4409,"latest":"2017-04-23T16:48:00.000Z"},"geometry":{"type":"Point","coordinates":[29.1120376648609,-19.2855348945685]}},{"type":"Feature","properties":{"id":5673,"title":"Harare STI prevention: CHIEDZA project 3","status":"PUBLISHED","created":"2019","lastUpdated":"2019","lastActive":"yes","area":6.48708733098613,"changesets":14,"mappers":2,"roads":0.890203990349448,"buildings":66,"edits":81,"latest":"2019-01-17T18:15:28.000Z"},"geometry":{"type":"Point","coordinates":[30.9362018949561,-17.8926008897415]}},{"type":"Feature","properties":{"id":2791,"title":"Missing Maps: Zimbabwe Malaria Elimination 23","status":"ARCHIVED","created":"2017","lastUpdated":"2017","lastActive":"no","area":52.81408198390934,"changesets":514,"mappers":24,"roads":1.71210764593682,"buildings":7549,"edits":7709,"latest":"2017-08-04T17:30:22.000Z"},"geometry":{"type":"Point","coordinates":[28.6672097053319,-19.0560511698056]}},{"type":"Feature","properties":{"id":4466,"title":"Missing Maps: West Harare, Zimbabwe 1/5","status":"ARCHIVED","created":"2018","lastUpdated":"2018","lastActive":"no","area":6.934755919805506,"changesets":432,"mappers":43,"roads":17.6703416341451,"buildings":7231,"edits":7564,"latest":"2018-05-03T11:12:48.000Z"},"geometry":{"type":"Point","coordinates":[30.8995299705196,-17.8794812737692]}},{"type":"Feature","properties":{"id":4468,"title":"Missing Maps: West Harare, Zimbabwe 3/5","status":"ARCHIVED","created":"2018","lastUpdated":"2018","lastActive":"no","area":5.871127416958808,"changesets":297,"mappers":48,"roads":10.4045277044697,"buildings":4219,"edits":4409,"latest":"2018-05-04T11:27:02.000Z"},"geometry":{"type":"Point","coordinates":[30.9191490199491,-17.8906588959121]}},{"type":"Feature","properties":{"id":4470,"title":"Missing Maps: West Harare, Zimbabwe 5/5","status":"ARCHIVED","created":"2018","lastUpdated":"2018","lastActive":"no","area":7.261962379932375,"changesets":600,"mappers":67,"roads":11.6548363287533,"buildings":7140,"edits":7402,"latest":"2018-05-03T12:03:37.000Z"},"geometry":{"type":"Point","coordinates":[30.9408151333863,-17.90220137385]}},{"type":"Feature","properties":{"id":5675,"title":"Harare STI prevention: CHIEDZA project 5","status":"PUBLISHED","created":"2019","lastUpdated":"2019","lastActive":"yes","area":8.61366948132283,"changesets":2,"mappers":2,"roads":0,"buildings":1,"edits":1,"latest":"2019-01-17T20:50:59.000Z"},"geometry":{"type":"Point","coordinates":[30.9789992348173,-17.8355992814085]}},{"type":"Feature","properties":{"id":4469,"title":"Missing Maps: West Harare, Zimbabwe 4/5","status":"ARCHIVED","created":"2018","lastUpdated":"2018","lastActive":"no","area":10.239595712615673,"changesets":275,"mappers":41,"roads":5.39085425039512,"buildings":7400,"edits":7522,"latest":"2018-05-08T12:48:19.000Z"},"geometry":{"type":"Point","coordinates":[30.9505247033697,-17.9029029929578]}},{"type":"Feature","properties":{"id":3889,"title":"Road network Zimbabwe (1)","status":"ARCHIVED","created":"2017","lastUpdated":"2018","lastActive":"no","area":1245.9465836749403,"changesets":1196,"mappers":156,"roads":4457.27905970678,"buildings":728,"edits":25266,"latest":"2018-03-06T20:27:20.000Z"},"geometry":{"type":"Point","coordinates":[31.1223739425421,-19.5591192978281]}},{"type":"Feature","properties":{"id":2776,"title":"Missing Maps: Zimbabwe Malaria Elimination 13","status":"ARCHIVED","created":"2017","lastUpdated":"2017","lastActive":"no","area":47.76204265750697,"changesets":564,"mappers":32,"roads":37.643946802134,"buildings":4883,"edits":5095,"latest":"2017-04-09T12:08:03.000Z"},"geometry":{"type":"Point","coordinates":[27.7387293405888,-18.9186501626047]}},{"type":"Feature","properties":{"id":2812,"title":"Mistake Do Not Use","status":"ARCHIVED","created":"2017","lastUpdated":"2017","lastActive":"no","area":45.3934103521741,"changesets":0,"mappers":0,"roads":0,"buildings":0,"edits":0,"latest":null},"geometry":{"type":"Point","coordinates":[27.2865359736849,-18.089567727614]}},{"type":"Feature","properties":{"id":2850,"title":"Missing Maps: Zimbabwe Malaria Elimination 61","status":"ARCHIVED","created":"2017","lastUpdated":"2017","lastActive":"no","area":1083.2215509427663,"changesets":2040,"mappers":43,"roads":0.015445127234251,"buildings":31271,"edits":31299,"latest":"2017-08-08T09:31:21.000Z"},"geometry":{"type":"Point","coordinates":[27.9979419050158,-19.9960632094299]}},{"type":"Feature","properties":{"id":2822,"title":"Do Not Use, Replaced","status":"ARCHIVED","created":"2017","lastUpdated":"2017","lastActive":"no","area":31.829364067013838,"changesets":66,"mappers":4,"roads":5.36282874107658,"buildings":498,"edits":558,"latest":"2017-04-14T15:12:47.000Z"},"geometry":{"type":"Point","coordinates":[27.963676673531,-18.1915000434159]}},{"type":"Feature","properties":{"id":2976,"title":"Missing Maps: Zimbabwe Malaria Elimination 132","status":"ARCHIVED","created":"2017","lastUpdated":"2017","lastActive":"no","area":350.88029239505295,"changesets":1179,"mappers":37,"roads":0.0216834195097381,"buildings":16707,"edits":16717,"latest":"2017-05-15T04:27:38.000Z"},"geometry":{"type":"Point","coordinates":[29.4876286195405,-19.3114923056629]}},{"type":"Feature","properties":{"id":3015,"title":"Missing Maps: Zimbabwe Malaria Elimination 144","status":"ARCHIVED","created":"2017","lastUpdated":"2017","lastActive":"no","area":792.5148279888792,"changesets":1883,"mappers":52,"roads":36.7819791267178,"buildings":18172,"edits":18328,"latest":"2017-05-24T14:28:42.000Z"},"geometry":{"type":"Point","coordinates":[30.2063325087928,-19.9151332695338]}},{"type":"Feature","properties":{"id":2928,"title":"Missing Maps: Zimbabwe Malaria Elimination 108","status":"ARCHIVED","created":"2017","lastUpdated":"2017","lastActive":"no","area":634.819969515313,"changesets":1841,"mappers":45,"roads":2.52194463667579,"buildings":23871,"edits":23967,"latest":"2017-05-10T11:19:22.000Z"},"geometry":{"type":"Point","coordinates":[28.6599626882398,-18.4905906736488]}},{"type":"Feature","properties":{"id":3045,"title":"Missing Maps: Zimbabwe Malaria Elimination 148","status":"ARCHIVED","created":"2017","lastUpdated":"2017","lastActive":"no","area":867.2229440148042,"changesets":1674,"mappers":66,"roads":8.86745854044668,"buildings":18308,"edits":18434,"latest":"2017-05-24T20:51:53.000Z"},"geometry":{"type":"Point","coordinates":[30.240926217747,-20.4529750744059]}},{"type":"Feature","properties":{"id":3041,"title":"Missing Maps: Zimbabwe Malaria Elimination 145","status":"ARCHIVED","created":"2017","lastUpdated":"2017","lastActive":"no","area":726.3820103657496,"changesets":1344,"mappers":51,"roads":13.933746840588,"buildings":18366,"edits":18532,"latest":"2017-06-05T05:40:05.000Z"},"geometry":{"type":"Point","coordinates":[30.0091667921279,-20.0923327164619]}},{"type":"Feature","properties":{"id":2930,"title":"Missing Maps: Zimbabwe Malaria Elimination 110","status":"ARCHIVED","created":"2017","lastUpdated":"2017","lastActive":"no","area":678.7600348417029,"changesets":1522,"mappers":15,"roads":0.0151922955693008,"buildings":16664,"edits":16674,"latest":"2017-05-27T01:56:43.000Z"},"geometry":{"type":"Point","coordinates":[28.8533761401118,-18.232939711933]}},{"type":"Feature","properties":{"id":2941,"title":"Missing Maps: Zimbabwe Malaria Elimination 114","status":"ARCHIVED","created":"2017","lastUpdated":"2017","lastActive":"no","area":836.3498563796146,"changesets":1818,"mappers":72,"roads":20.1361360377823,"buildings":21309,"edits":21537,"latest":"2017-08-17T10:26:46.000Z"},"geometry":{"type":"Point","coordinates":[29.222457298371,-18.5487700719139]}},{"type":"Feature","properties":{"id":3180,"title":"Missing Maps: Zimbabwe Malaria Elimination 200","status":"ARCHIVED","created":"2017","lastUpdated":"2017","lastActive":"no","area":468.90085785512247,"changesets":1393,"mappers":52,"roads":24.3441886432429,"buildings":11759,"edits":11941,"latest":"2017-08-11T12:17:42.000Z"},"geometry":{"type":"Point","coordinates":[30.6918659774459,-18.4794704160666]}},{"type":"Feature","properties":{"id":3190,"title":"Missing Maps: Zimbabwe Malaria Elimination 205","status":"ARCHIVED","created":"2017","lastUpdated":"2017","lastActive":"no","area":175.78590806693822,"changesets":1285,"mappers":38,"roads":34.3096475562587,"buildings":56885,"edits":59658,"latest":"2017-08-08T10:52:53.000Z"},"geometry":{"type":"Point","coordinates":[28.5525554958836,-20.1804660797694]}},{"type":"Feature","properties":{"id":3913,"title":"Road network Zimbabwe (3)","status":"ARCHIVED","created":"2017","lastUpdated":"2018","lastActive":"no","area":2008.632313308193,"changesets":578,"mappers":69,"roads":1868.19123915957,"buildings":286,"edits":8883,"latest":"2017-12-15T11:49:54.000Z"},"geometry":{"type":"Point","coordinates":[31.315981342676,-19.7259449244946]}},{"type":"Feature","properties":{"id":3890,"title":"Road network Zimbabwe (2)","status":"ARCHIVED","created":"2017","lastUpdated":"2018","lastActive":"no","area":994.1777468745335,"changesets":975,"mappers":107,"roads":4228.79707078348,"buildings":1284,"edits":20601,"latest":"2018-06-11T14:27:49.000Z"},"geometry":{"type":"Point","coordinates":[30.8705074219935,-19.4741958029124]}},{"type":"Feature","properties":{"id":1668,"title":"Missing Maps: East Harare, Zimbabwe - Step 1 (Buildings)","status":"PUBLISHED","created":"2016","lastUpdated":"2018","lastActive":"no","area":93.59195553967234,"changesets":890,"mappers":128,"roads":45.8394042012416,"buildings":24494,"edits":25375,"latest":"2018-08-29T13:14:12.000Z"},"geometry":{"type":"Point","coordinates":[31.2254495959293,-17.8468300136206]}},{"type":"Feature","properties":{"id":2286,"title":"Missing Maps: Mwezeni District, Zimbabwe (roads and settlements)","status":"PUBLISHED","created":"2016","lastUpdated":"2018","lastActive":"no","area":13275.258682859241,"changesets":4131,"mappers":371,"roads":12590.212089941,"buildings":12704,"edits":42335,"latest":"2018-12-05T12:09:09.000Z"},"geometry":{"type":"Point","coordinates":[30.6917474873179,-21.3654288722803]}}],"totalArea":2404651206.636874,"Afghanistan":[{"type":"Feature","properties":{"id":4164,"title":"Afghanistan Roads Inventory - Ghor Province","status":"PUBLISHED","created":"2018","lastUpdated":"2018","lastActive":"no","area":38960.39036633867,"changesets":129,"mappers":10,"roads":6189.18085125934,"buildings":5,"edits":1548,"latest":"2019-01-15T20:02:07.000Z"},"geometry":{"type":"Point","coordinates":[64.928958701604,34.2238531344689]}},{"type":"Feature","properties":{"id":4928,"title":"Kabul Informal Settlements Mapping â GFDRR","status":"PUBLISHED","created":"2018","lastUpdated":"2018","lastActive":"no","area":185.59623834534284,"changesets":2255,"mappers":39,"roads":7.13983384337993,"buildings":11807,"edits":11993,"latest":"2018-11-17T01:29:43.000Z"},"geometry":{"type":"Point","coordinates":[69.1650625405792,34.5130206085031]}},{"type":"Feature","properties":{"id":4384,"title":"Afghanistan Roads Inventory - Kabul Province","status":"ARCHIVED","created":"2018","lastUpdated":"2018","lastActive":"no","area":4698.461875734463,"changesets":33,"mappers":3,"roads":1063.86804466278,"buildings":12,"edits":943,"latest":"2018-08-28T15:49:17.000Z"},"geometry":{"type":"Point","coordinates":[69.3325935081014,34.5540663522964]}},{"type":"Feature","properties":{"id":1263,"title":"Afghanistan EQ Response 2015, Nangarar Province ","status":"PUBLISHED","created":"2015","lastUpdated":"2018","lastActive":"no","area":7475.098853988431,"changesets":0,"mappers":0,"roads":0,"buildings":0,"edits":0,"latest":null},"geometry":{"type":"Point","coordinates":[70.4586233105746,34.2723855775638]}},{"type":"Feature","properties":{"id":4383,"title":"Afghanistan Roads Inventory - Badakhshan Province","status":"ARCHIVED","created":"2018","lastUpdated":"2018","lastActive":"no","area":43447.969678524954,"changesets":3,"mappers":1,"roads":27.6802989557182,"buildings":1,"edits":22,"latest":"2018-05-22T18:55:12.000Z"},"geometry":{"type":"Point","coordinates":[71.4578075415927,37.0382722975556]}}],"Russia":[{"type":"Feature","properties":{"id":5109,"title":"Khantia-Mansia, RU - Road Alignment","status":"PUBLISHED","created":"2018","lastUpdated":"2018","lastActive":"no","area":30.253087893790546,"changesets":15,"mappers":1,"roads":4.51497994941806,"buildings":10,"edits":99,"latest":"2018-11-06T07:57:43.000Z"},"geometry":{"type":"Point","coordinates":[71.975901037221,61.2624729564418]}},{"type":"Feature","properties":{"id":5093,"title":"Stavropol, RU - Road Alignment","status":"PUBLISHED","created":"2018","lastUpdated":"2018","lastActive":"no","area":39.278249308473754,"changesets":9,"mappers":1,"roads":0.142855842145349,"buildings":0,"edits":56,"latest":"2018-11-01T06:46:47.000Z"},"geometry":{"type":"Point","coordinates":[42.9341936478082,44.7607848987624]}},{"type":"Feature","properties":{"id":5112,"title":"Kemerovo, RU - Road Alignment","status":"PUBLISHED","created":"2018","lastUpdated":"2018","lastActive":"no","area":21.798294661428333,"changesets":45,"mappers":1,"roads":2.23533517272834,"buildings":3,"edits":261,"latest":"2018-10-28T12:56:04.000Z"},"geometry":{"type":"Point","coordinates":[86.6571581706989,54.816528983781]}},{"type":"Feature","properties":{"id":5103,"title":"Perm, RU - Road Alignment","status":"PUBLISHED","created":"2018","lastUpdated":"2018","lastActive":"no","area":19.050963663499118,"changesets":36,"mappers":2,"roads":1.89355946602952,"buildings":10,"edits":284,"latest":"2018-10-17T18:01:41.000Z"},"geometry":{"type":"Point","coordinates":[55.8676360593071,57.9984261773804]}},{"type":"Feature","properties":{"id":5089,"title":"Kabardino-Balkaria, RU - Road Alignment","status":"PUBLISHED","created":"2018","lastUpdated":"2018","lastActive":"no","area":23.622718462797803,"changesets":66,"mappers":1,"roads":24.6938510572666,"buildings":1330,"edits":2024,"latest":"2018-11-23T20:22:29.000Z"},"geometry":{"type":"Point","coordinates":[43.9811521507747,43.5359455756532]}},{"type":"Feature","properties":{"id":5083,"title":"Saratov, RU - Road Alignment","status":"PUBLISHED","created":"2018","lastUpdated":"2018","lastActive":"no","area":32.40097117720466,"changesets":34,"mappers":1,"roads":0.77353210229752,"buildings":6,"edits":341,"latest":"2018-10-28T13:14:20.000Z"},"geometry":{"type":"Point","coordinates":[46.1811223773877,51.5916763633425]}},{"type":"Feature","properties":{"id":5081,"title":"Tambov, RU - Road Alignment","status":"PUBLISHED","created":"2018","lastUpdated":"2018","lastActive":"no","area":26.18715669406076,"changesets":2,"mappers":2,"roads":0.00403649833909725,"buildings":1,"edits":32,"latest":"2018-11-19T18:17:20.000Z"},"geometry":{"type":"Point","coordinates":[41.3729375849855,52.7601922019812]}},{"type":"Feature","properties":{"id":5075,"title":"Lipetsk, RU - Road Alignment","status":"PUBLISHED","created":"2018","lastUpdated":"2018","lastActive":"no","area":12.278823639779748,"changesets":24,"mappers":1,"roads":2.47261798372648,"buildings":281,"edits":652,"latest":"2018-11-10T00:49:57.000Z"},"geometry":{"type":"Point","coordinates":[39.1004986289472,52.6545859654903]}},{"type":"Feature","properties":{"id":5034,"title":"Leningrad, RU - Road Alignment","status":"PUBLISHED","created":"2018","lastUpdated":"2018","lastActive":"no","area":23.54027298174626,"changesets":2,"mappers":1,"roads":0.0224792879778619,"buildings":0,"edits":6,"latest":"2018-10-28T21:26:36.000Z"},"geometry":{"type":"Point","coordinates":[30.839409774744,60.1248894787618]}},{"type":"Feature","properties":{"id":5101,"title":"Orenburg, RU - Road Alignment","status":"PUBLISHED","created":"2018","lastUpdated":"2018","lastActive":"no","area":62.971849944699215,"changesets":22,"mappers":1,"roads":3.45699288107569,"buildings":53,"edits":181,"latest":"2018-10-24T08:43:40.000Z"},"geometry":{"type":"Point","coordinates":[54.8065548783445,52.0610390047715]}},{"type":"Feature","properties":{"id":5119,"title":"Sakha, RU - Road Alignment","status":"PUBLISHED","created":"2018","lastUpdated":"2018","lastActive":"no","area":33.426355275199285,"changesets":0,"mappers":0,"roads":0,"buildings":0,"edits":0,"latest":null},"geometry":{"type":"Point","coordinates":[124.725706215512,61.3401873829566]}},{"type":"Feature","properties":{"id":5099,"title":"Samara, RU - Road Alignment","status":"PUBLISHED","created":"2018","lastUpdated":"2018","lastActive":"no","area":30.485075606543912,"changesets":154,"mappers":1,"roads":22.7766838309259,"buildings":611,"edits":2758,"latest":"2018-12-26T14:53:31.000Z"},"geometry":{"type":"Point","coordinates":[50.3445307565892,53.3708217054506]}},{"type":"Feature","properties":{"id":5037,"title":"Pskov, RU - Road Alignment","status":"PUBLISHED","created":"2018","lastUpdated":"2018","lastActive":"no","area":6.7397348411403035,"changesets":0,"mappers":0,"roads":0,"buildings":0,"edits":0,"latest":null},"geometry":{"type":"Point","coordinates":[28.7196206931114,57.4529744401669]}},{"type":"Feature","properties":{"id":5104,"title":"Sverdlovsk, RU - Road Alignment","status":"PUBLISHED","created":"2018","lastUpdated":"2018","lastActive":"no","area":17.833303273592076,"changesets":82,"mappers":1,"roads":1.41269675484537,"buildings":18,"edits":539,"latest":"2018-10-04T16:03:26.000Z"},"geometry":{"type":"Point","coordinates":[60.7296830055128,57.3551621895813]}},{"type":"Feature","properties":{"id":5050,"title":"Moscow, RU - Road Alignment","status":"PUBLISHED","created":"2018","lastUpdated":"2019","lastActive":"yes","area":67.22729165523474,"changesets":1236,"mappers":30,"roads":399.792742366346,"buildings":2454,"edits":18830,"latest":"2019-01-17T17:01:50.000Z"},"geometry":{"type":"Point","coordinates":[37.5334085802161,55.6984793925584]}},{"type":"Feature","properties":{"id":5076,"title":"Kostroma, RU - Road Alignment","status":"PUBLISHED","created":"2018","lastUpdated":"2018","lastActive":"no","area":16.55786446991269,"changesets":15,"mappers":1,"roads":5.17449485836067,"buildings":50,"edits":265,"latest":"2018-11-13T22:32:46.000Z"},"geometry":{"type":"Point","coordinates":[43.391536924522,58.3815490365323]}},{"type":"Feature","properties":{"id":5039,"title":"Smolensk, RU - Road Alignment","status":"PUBLISHED","created":"2018","lastUpdated":"2018","lastActive":"no","area":28.43951608669756,"changesets":18,"mappers":1,"roads":13.5643616443056,"buildings":128,"edits":711,"latest":"2018-11-06T18:43:12.000Z"},"geometry":{"type":"Point","coordinates":[32.8547004619526,54.8764930805367]}},{"type":"Feature","properties":{"id":5108,"title":"Novosibirsk, RU - Road Alignment","status":"PUBLISHED","created":"2018","lastUpdated":"2018","lastActive":"no","area":42.469762848735236,"changesets":173,"mappers":2,"roads":3.64613396752743,"buildings":69,"edits":670,"latest":"2018-12-11T02:56:30.000Z"},"geometry":{"type":"Point","coordinates":[80.3670447235961,54.8613031461299]}},{"type":"Feature","properties":{"id":5094,"title":"Rostov, RU - Road Alignment","status":"PUBLISHED","created":"2018","lastUpdated":"2018","lastActive":"no","area":62.059436486990585,"changesets":18,"mappers":1,"roads":0.459103509151284,"buildings":1,"edits":86,"latest":"2018-10-09T12:50:48.000Z"},"geometry":{"type":"Point","coordinates":[40.7358927267966,47.7150064178919]}},{"type":"Feature","properties":{"id":5110,"title":"Yamalia, RU - Road Alignment","status":"PUBLISHED","created":"2018","lastUpdated":"2018","lastActive":"no","area":8.273190558193892,"changesets":6,"mappers":3,"roads":8.28800679414206,"buildings":20,"edits":130,"latest":"2018-11-20T10:22:28.000Z"},"geometry":{"type":"Point","coordinates":[75.2427001306948,65.7007370208771]}},{"type":"Feature","properties":{"id":5092,"title":"Krasnodar, RU - Road Alignment","status":"PUBLISHED","created":"2018","lastUpdated":"2018","lastActive":"no","area":65.77382796758191,"changesets":924,"mappers":2,"roads":102.053933053736,"buildings":4010,"edits":11187,"latest":"2018-12-13T20:57:54.000Z"},"geometry":{"type":"Point","coordinates":[39.4116507753946,45.4518856931549]}},{"type":"Feature","properties":{"id":5117,"title":"Zabaykalsk, RU - Road Alignment","status":"PUBLISHED","created":"2018","lastUpdated":"2018","lastActive":"no","area":15.535301906848705,"changesets":0,"mappers":0,"roads":0,"buildings":0,"edits":0,"latest":null},"geometry":{"type":"Point","coordinates":[115.893622536766,50.898877166788]}},{"type":"Feature","properties":{"id":5084,"title":"Astrakhan, RU - Road Alignment","status":"PUBLISHED","created":"2018","lastUpdated":"2018","lastActive":"no","area":5.310775583716296,"changesets":6,"mappers":1,"roads":0.576440915991893,"buildings":4,"edits":39,"latest":"2018-10-09T13:35:52.000Z"},"geometry":{"type":"Point","coordinates":[47.1830142680223,46.8862236799227]}}],"Zambia":[{"type":"Feature","properties":{"id":2730,"title":"Missing Maps: Zambia Malaria Elimination 67","status":"ARCHIVED","created":"2017","lastUpdated":"2017","lastActive":"no","area":56.33934549915492,"changesets":738,"mappers":86,"roads":373.243600699255,"buildings":3976,"edits":6044,"latest":"2017-03-30T14:10:52.000Z"},"geometry":{"type":"Point","coordinates":[27.0062720546434,-17.0350331230293]}},{"type":"Feature","properties":{"id":2641,"title":"Missing Maps: Zambia Malaria Elimination 51","status":"ARCHIVED","created":"2017","lastUpdated":"2017","lastActive":"no","area":31.791115128426945,"changesets":394,"mappers":4,"roads":0.00966484763269278,"buildings":3001,"edits":3101,"latest":"2017-04-20T08:28:56.000Z"},"geometry":{"type":"Point","coordinates":[27.4001075890881,-16.7999763980603]}},{"type":"Feature","properties":{"id":4937,"title":"Priority Areas, Northern Province, Zambia Mini Grids Project 06","status":"PUBLISHED","created":"2018","lastUpdated":"2018","lastActive":"no","area":1185.5772857089414,"changesets":1333,"mappers":34,"roads":0.00506049116688987,"buildings":15523,"edits":15525,"latest":"2018-08-13T11:50:43.000Z"},"geometry":{"type":"Point","coordinates":[30.0872517008454,-10.3611567028287]}},{"type":"Feature","properties":{"id":4945,"title":"Priority Areas, Western Province, Zambia Mini Grids Project 04","status":"PUBLISHED","created":"2018","lastUpdated":"2018","lastActive":"no","area":804.0519879215597,"changesets":314,"mappers":40,"roads":0.00317335355418891,"buildings":3346,"edits":3349,"latest":"2018-08-07T08:31:00.000Z"},"geometry":{"type":"Point","coordinates":[23.1534648552369,-14.7914819377237]}},{"type":"Feature","properties":{"id":2671,"title":"Missing Maps: Zambia Malaria Elimination 59","status":"ARCHIVED","created":"2017","lastUpdated":"2017","lastActive":"no","area":53.983168673328294,"changesets":606,"mappers":52,"roads":55.5653175535778,"buildings":3293,"edits":3585,"latest":"2017-04-10T07:33:21.000Z"},"geometry":{"type":"Point","coordinates":[26.7801556416528,-16.868925492807]}},{"type":"Feature","properties":{"id":2631,"title":"Missing Maps: Zambia Malaria Elimination 46","status":"ARCHIVED","created":"2017","lastUpdated":"2017","lastActive":"no","area":39.983921412768375,"changesets":491,"mappers":67,"roads":73.66628039145,"buildings":1499,"edits":1809,"latest":"2017-03-17T14:59:40.000Z"},"geometry":{"type":"Point","coordinates":[27.2661845406609,-16.5416785036011]}},{"type":"Feature","properties":{"id":4916,"title":"Priority Areas, Northern Province, Zambia Mini Grids Project 01","status":"PUBLISHED","created":"2018","lastUpdated":"2018","lastActive":"no","area":1631.951504666485,"changesets":1173,"mappers":35,"roads":0.328471285378522,"buildings":16208,"edits":16262,"latest":"2018-08-07T09:30:47.000Z"},"geometry":{"type":"Point","coordinates":[30.6429969471774,-9.65034760516237]}},{"type":"Feature","properties":{"id":4923,"title":"Priority Areas, Northern Province, Zambia Mini Grids Project 03","status":"PUBLISHED","created":"2018","lastUpdated":"2018","lastActive":"no","area":108.1972029061993,"changesets":443,"mappers":34,"roads":0.00876400210311584,"buildings":7442,"edits":7450,"latest":"2018-08-08T08:36:24.000Z"},"geometry":{"type":"Point","coordinates":[30.5911459465336,-11.7601390748348]}},{"type":"Feature","properties":{"id":2669,"title":"Missing Maps: Zambia Malaria Elimination 57","status":"ARCHIVED","created":"2017","lastUpdated":"2017","lastActive":"no","area":55.88803814252673,"changesets":1112,"mappers":52,"roads":69.3347912659,"buildings":5338,"edits":5892,"latest":"2017-04-09T11:12:22.000Z"},"geometry":{"type":"Point","coordinates":[26.5525450023961,-16.8546851465236]}},{"type":"Feature","properties":{"id":4900,"title":"Priority Areas, Western Province, Zambia Mini Grids Project 01","status":"PUBLISHED","created":"2018","lastUpdated":"2018","lastActive":"no","area":652.6525934646062,"changesets":731,"mappers":37,"roads":2.20449395581589,"buildings":18813,"edits":19230,"latest":"2018-08-01T13:56:07.000Z"},"geometry":{"type":"Point","coordinates":[24.1479928448816,-14.6050079686209]}},{"type":"Feature","properties":{"id":4883,"title":"Priority Areas, North-Western Province, Zambia Mini Grids Project 04","status":"PUBLISHED","created":"2018","lastUpdated":"2018","lastActive":"no","area":26.577579403472903,"changesets":84,"mappers":28,"roads":0.0327637665611748,"buildings":3703,"edits":3705,"latest":"2018-07-20T12:13:09.000Z"},"geometry":{"type":"Point","coordinates":[24.9483966190181,-13.596002453546]}},{"type":"Feature","properties":{"id":4821,"title":"Priority Areas, Southern Province, Zambia Mini Grids Project 04","status":"PUBLISHED","created":"2018","lastUpdated":"2018","lastActive":"no","area":549.2875270843012,"changesets":501,"mappers":41,"roads":0.00948469099725457,"buildings":15159,"edits":15162,"latest":"2018-08-15T09:09:17.000Z"},"geometry":{"type":"Point","coordinates":[27.9589126126342,-16.4867837275353]}},{"type":"Feature","properties":{"id":4844,"title":"Priority Areas, Muchinga Province, Zambia Mini Grids Project 02","status":"PUBLISHED","created":"2018","lastUpdated":"2018","lastActive":"no","area":117.96969471416107,"changesets":441,"mappers":34,"roads":27.9742743624376,"buildings":13541,"edits":13560,"latest":"2018-07-19T09:12:40.000Z"},"geometry":{"type":"Point","coordinates":[32.248068994447,-10.1170343784785]}},{"type":"Feature","properties":{"id":4819,"title":"Priority Areas, Southern Province, Zambia Mini Grids Project 02","status":"PUBLISHED","created":"2018","lastUpdated":"2018","lastActive":"no","area":772.4887168605584,"changesets":1053,"mappers":42,"roads":0.423693999629926,"buildings":23847,"edits":23889,"latest":"2018-08-17T07:18:48.000Z"},"geometry":{"type":"Point","coordinates":[26.8952553891412,-17.6525178439075]}},{"type":"Feature","properties":{"id":4826,"title":"Priority Areas, Southern Province, Zambia Mini Grids Project 07","status":"PUBLISHED","created":"2018","lastUpdated":"2018","lastActive":"no","area":248.07955230133993,"changesets":295,"mappers":29,"roads":0.11775287620795,"buildings":7464,"edits":7671,"latest":"2018-08-24T13:49:18.000Z"},"geometry":{"type":"Point","coordinates":[27.3753644888465,-16.8788513446297]}},{"type":"Feature","properties":{"id":3183,"title":"Missing Maps: Zambia Malaria Elimination 79","status":"ARCHIVED","created":"2017","lastUpdated":"2017","lastActive":"no","area":978.3907149799423,"changesets":2285,"mappers":192,"roads":52.4306319853615,"buildings":8399,"edits":8880,"latest":"2017-08-19T15:28:24.000Z"},"geometry":{"type":"Point","coordinates":[26.7839004297929,-15.9198612690273]}},{"type":"Feature","properties":{"id":4942,"title":"Priority Areas, Western Province, Zambia Mini Grids Project 05","status":"PUBLISHED","created":"2018","lastUpdated":"2018","lastActive":"no","area":65.6747276055282,"changesets":271,"mappers":41,"roads":0,"buildings":9826,"edits":9826,"latest":"2018-08-07T09:56:48.000Z"},"geometry":{"type":"Point","coordinates":[23.6275817161252,-15.5580334747978]}},{"type":"Feature","properties":{"id":2737,"title":"Mistake Do Not Use","status":"ARCHIVED","created":"2017","lastUpdated":"2017","lastActive":"no","area":52.427783564638844,"changesets":0,"mappers":0,"roads":0,"buildings":0,"edits":0,"latest":null},"geometry":{"type":"Point","coordinates":[26.4802715979837,-15.780440516558]}},{"type":"Feature","properties":{"id":2772,"title":"Missing Maps: Zambia Malaria Elimination 75","status":"ARCHIVED","created":"2017","lastUpdated":"2017","lastActive":"no","area":33.231101952285634,"changesets":341,"mappers":28,"roads":0.297108756357538,"buildings":2085,"edits":2088,"latest":"2017-04-28T08:57:01.000Z"},"geometry":{"type":"Point","coordinates":[26.4695046091455,-17.4157749584222]}},{"type":"Feature","properties":{"id":5602,"title":"Mapping for HIV in peri-urban areas of Zambia","status":"PUBLISHED","created":"2018","lastUpdated":"2018","lastActive":"no","area":4.966176859920596,"changesets":164,"mappers":12,"roads":0.06657012191506,"buildings":9791,"edits":9818,"latest":"2018-12-14T20:36:11.000Z"},"geometry":{"type":"Point","coordinates":[27.8381870309698,-12.5575506300916]}},{"type":"Feature","properties":{"id":5626,"title":"Missing Maps - Zambia - Mongu-Senanga (East bank)","status":"PUBLISHED","created":"2018","lastUpdated":"2019","lastActive":"yes","area":608.1342401312044,"changesets":813,"mappers":44,"roads":722.2646935885,"buildings":18061,"edits":19153,"latest":"2019-01-17T21:39:44.000Z"},"geometry":{"type":"Point","coordinates":[23.2789793304103,-15.7140648588914]}},{"type":"Feature","properties":{"id":5379,"title":"Peri urban Mapping","status":"PUBLISHED","created":"2018","lastUpdated":"2018","lastActive":"no","area":8.38756481341144,"changesets":522,"mappers":58,"roads":15.686081958798,"buildings":9025,"edits":9234,"latest":"2018-12-31T22:49:42.000Z"},"geometry":{"type":"Point","coordinates":[28.277884249817,-15.4664482060259]}},{"type":"Feature","properties":{"id":3899,"title":"Fiwila Health Centre - learn how to efficiently replace node-buildings","status":"PUBLISHED","created":"2017","lastUpdated":"2018","lastActive":"no","area":628.4823419648842,"changesets":62,"mappers":11,"roads":84.3866231672886,"buildings":1172,"edits":1552,"latest":"2018-12-03T02:54:11.000Z"},"geometry":{"type":"Point","coordinates":[29.6330945573751,-14.0154371932199]}},{"type":"Feature","properties":{"id":2549,"title":"Zambia14","status":"ARCHIVED","created":"2017","lastUpdated":"2017","lastActive":"no","area":30.905717274348312,"changesets":0,"mappers":0,"roads":0,"buildings":0,"edits":0,"latest":null},"geometry":{"type":"Point","coordinates":[26.8995524285374,-15.9672565612992]}},{"type":"Feature","properties":{"id":2607,"title":"Missing Maps: Zambia Malaria Elimination 38","status":"ARCHIVED","created":"2017","lastUpdated":"2017","lastActive":"no","area":39.885067149317884,"changesets":2853,"mappers":69,"roads":32.2568933614399,"buildings":16567,"edits":17223,"latest":"2017-06-10T16:37:04.000Z"},"geometry":{"type":"Point","coordinates":[27.3140013351165,-16.4411592545615]}},{"type":"Feature","properties":{"id":2581,"title":"Missing Maps: Zambia Malaria Elimination 20","status":"ARCHIVED","created":"2017","lastUpdated":"2017","lastActive":"no","area":38.16669959165131,"changesets":1058,"mappers":54,"roads":22.504826579566,"buildings":5525,"edits":6767,"latest":"2017-03-27T07:54:59.000Z"},"geometry":{"type":"Point","coordinates":[27.641978536512,-16.123850659574]}},{"type":"Feature","properties":{"id":2764,"title":"Mistake Do Not Use","status":"ARCHIVED","created":"2017","lastUpdated":"2017","lastActive":"no","area":35.92752078925789,"changesets":0,"mappers":0,"roads":0,"buildings":0,"edits":0,"latest":null},"geometry":{"type":"Point","coordinates":[28.1010543332572,-15.9357645571568]}},{"type":"Feature","properties":{"id":2589,"title":"Missing Maps: Zambia Malaria Elimination 28","status":"ARCHIVED","created":"2017","lastUpdated":"2017","lastActive":"no","area":48.38205996241602,"changesets":1278,"mappers":56,"roads":24.505756009633,"buildings":7465,"edits":7886,"latest":"2017-03-30T07:48:05.000Z"},"geometry":{"type":"Point","coordinates":[27.4374700656247,-16.150438096581]}},{"type":"Feature","properties":{"id":2547,"title":"Missing Maps: Zambia Malaria Elimination 7","status":"ARCHIVED","created":"2017","lastUpdated":"2017","lastActive":"no","area":52.427783564638844,"changesets":1886,"mappers":75,"roads":65.5101126680653,"buildings":12773,"edits":13399,"latest":"2017-07-13T01:59:29.000Z"},"geometry":{"type":"Point","coordinates":[26.4802715979837,-15.780440516558]}},{"type":"Feature","properties":{"id":2605,"title":"Missing Maps: Zambia Malaria Elimination 36","status":"ARCHIVED","created":"2017","lastUpdated":"2017","lastActive":"no","area":44.753791671609655,"changesets":843,"mappers":108,"roads":446.771408867532,"buildings":5729,"edits":7002,"latest":"2017-03-25T11:28:00.000Z"},"geometry":{"type":"Point","coordinates":[27.161827481475,-16.4392560957868]}},{"type":"Feature","properties":{"id":2554,"title":"Missing Maps: Zambia Malaria Elimination 9","status":"ARCHIVED","created":"2017","lastUpdated":"2017","lastActive":"no","area":46.63360623178158,"changesets":1400,"mappers":77,"roads":91.0983080137419,"buildings":11789,"edits":12218,"latest":"2017-03-24T12:08:48.000Z"},"geometry":{"type":"Point","coordinates":[27.9162150772687,-15.8650475722509]}},{"type":"Feature","properties":{"id":2545,"title":"Missing Maps: Zambia Malaria Elimination 5","status":"ARCHIVED","created":"2017","lastUpdated":"2017","lastActive":"no","area":29.240261299687603,"changesets":2462,"mappers":63,"roads":59.6692415195899,"buildings":19056,"edits":19476,"latest":"2017-07-21T09:55:23.000Z"},"geometry":{"type":"Point","coordinates":[26.0720422320165,-15.9727674891682]}},{"type":"Feature","properties":{"id":2562,"title":"Missing Maps: Zambia Malaria Elimination 11","status":"ARCHIVED","created":"2017","lastUpdated":"2017","lastActive":"no","area":35.92752078925789,"changesets":651,"mappers":65,"roads":1.58523798925695,"buildings":5055,"edits":5085,"latest":"2017-03-24T06:14:13.000Z"},"geometry":{"type":"Point","coordinates":[28.1010543332572,-15.9357645571568]}},{"type":"Feature","properties":{"id":3992,"title":"Zambia Cholera Outbreak","status":"PUBLISHED","created":"2018","lastUpdated":"2018","lastActive":"no","area":4.036566110310592,"changesets":608,"mappers":32,"roads":29.2512963162562,"buildings":4494,"edits":5618,"latest":"2018-01-08T03:28:50.000Z"},"geometry":{"type":"Point","coordinates":[28.2443472716737,-15.4546130087783]}},{"type":"Feature","properties":{"id":2623,"title":"Missing Maps: Zambia Malaria Elimination 44","status":"ARCHIVED","created":"2017","lastUpdated":"2017","lastActive":"no","area":48.79156262885752,"changesets":716,"mappers":71,"roads":6.99278637098004,"buildings":3963,"edits":4037,"latest":"2017-07-11T19:02:08.000Z"},"geometry":{"type":"Point","coordinates":[27.5674841857883,-16.5988506403521]}},{"type":"Feature","properties":{"id":5611,"title":"Missing Maps - Zambia - Mongu South East","status":"PUBLISHED","created":"2018","lastUpdated":"2018","lastActive":"no","area":10.54996473640858,"changesets":373,"mappers":44,"roads":57.6982841145891,"buildings":7996,"edits":9105,"latest":"2018-12-27T11:47:31.000Z"},"geometry":{"type":"Point","coordinates":[23.1709456017538,-15.2753889193744]}},{"type":"Feature","properties":{"id":5229,"title":"Missing Maps - Zambia - Mongu centre","status":"ARCHIVED","created":"2018","lastUpdated":"2018","lastActive":"no","area":3.8224707121374966,"changesets":617,"mappers":48,"roads":13.3032185168653,"buildings":4537,"edits":4972,"latest":"2018-10-10T20:28:18.000Z"},"geometry":{"type":"Point","coordinates":[23.125782800666,-15.2734182422346]}},{"type":"Feature","properties":{"id":5344,"title":"Missing Maps - Zambia - Limulunga South","status":"PUBLISHED","created":"2018","lastUpdated":"2018","lastActive":"no","area":13.776413579500964,"changesets":208,"mappers":24,"roads":32.3346534475931,"buildings":833,"edits":1170,"latest":"2018-12-03T19:27:45.000Z"},"geometry":{"type":"Point","coordinates":[23.1528373728304,-15.1698460746785]}},{"type":"Feature","properties":{"id":5248,"title":"Missing Maps - Zambia - Mongu North","status":"ARCHIVED","created":"2018","lastUpdated":"2018","lastActive":"no","area":12.321256440928424,"changesets":835,"mappers":52,"roads":63.31169654292,"buildings":8184,"edits":9060,"latest":"2018-10-08T15:05:02.000Z"},"geometry":{"type":"Point","coordinates":[23.1498678596987,-15.2509633149346]}},{"type":"Feature","properties":{"id":2778,"title":"Missing Maps: Zambia Malaria Elimination 77","status":"ARCHIVED","created":"2017","lastUpdated":"2017","lastActive":"no","area":42.26158786311957,"changesets":561,"mappers":33,"roads":2.15378939549018,"buildings":3404,"edits":3418,"latest":"2017-04-10T14:45:32.000Z"},"geometry":{"type":"Point","coordinates":[26.0331956739105,-17.2965993386355]}},{"type":"Feature","properties":{"id":3743,"title":"Mapping Chinsali Council, Muchinga Province, Zambia","status":"PUBLISHED","created":"2017","lastUpdated":"2018","lastActive":"no","area":18.90041308791517,"changesets":185,"mappers":12,"roads":115.037378693772,"buildings":4142,"edits":7226,"latest":"2018-01-11T15:23:55.000Z"},"geometry":{"type":"Point","coordinates":[32.0699920470507,-10.5493463883295]}},{"type":"Feature","properties":{"id":3778,"title":"Mufulira Council Mapping, Copperbelt Province, Zambia","status":"PUBLISHED","created":"2017","lastUpdated":"2018","lastActive":"no","area":97.0872592384034,"changesets":1330,"mappers":142,"roads":319.628642034384,"buildings":32431,"edits":37645,"latest":"2018-12-12T12:27:47.000Z"},"geometry":{"type":"Point","coordinates":[28.2357100974126,-12.554366800172]}},{"type":"Feature","properties":{"id":5172,"title":"Missing Maps - Zambia - Limulunga","status":"ARCHIVED","created":"2018","lastUpdated":"2018","lastActive":"no","area":12.712710414575804,"changesets":149,"mappers":18,"roads":39.4267387243411,"buildings":2634,"edits":3095,"latest":"2018-09-11T13:11:05.000Z"},"geometry":{"type":"Point","coordinates":[23.1467113223816,-15.1304589194704]}},{"type":"Feature","properties":{"id":2612,"title":"Missing Maps: Zambia Malaria Elimination 41","status":"ARCHIVED","created":"2017","lastUpdated":"2017","lastActive":"no","area":39.12071193861273,"changesets":1201,"mappers":50,"roads":38.6208702735164,"buildings":8369,"edits":8715,"latest":"2017-08-07T12:21:04.000Z"},"geometry":{"type":"Point","coordinates":[27.6376904065045,-16.4473867460371]}},{"type":"Feature","properties":{"id":4972,"title":"Priority Areas, Northern Province, Zambia Mini Grids Project 09","status":"PUBLISHED","created":"2018","lastUpdated":"2018","lastActive":"no","area":128.6555616326287,"changesets":389,"mappers":29,"roads":0.0168751266411869,"buildings":6113,"edits":6114,"latest":"2018-08-09T13:31:07.000Z"},"geometry":{"type":"Point","coordinates":[33.0220173680045,-10.2276804756312]}},{"type":"Feature","properties":{"id":5327,"title":"North-west","status":"PUBLISHED","created":"2018","lastUpdated":"2018","lastActive":"no","area":13433.522391139175,"changesets":66,"mappers":27,"roads":36.5202921965932,"buildings":1492,"edits":1537,"latest":"2018-11-07T11:13:03.000Z"},"geometry":{"type":"Point","coordinates":[24.5495147016021,-13.5993734203055]}},{"type":"Feature","properties":{"id":4968,"title":"Priority Areas, Muchinga, Zambia Mini Grids Project 11","status":"PUBLISHED","created":"2018","lastUpdated":"2018","lastActive":"no","area":1104.3187258348034,"changesets":1521,"mappers":38,"roads":0.0817142328227262,"buildings":46830,"edits":46881,"latest":"2018-08-15T07:39:18.000Z"},"geometry":{"type":"Point","coordinates":[32.9454122077498,-11.2985955740601]}},{"type":"Feature","properties":{"id":4949,"title":"Priority Areas, Northern Province, Zambia Mini Grids Project 07","status":"PUBLISHED","created":"2018","lastUpdated":"2018","lastActive":"no","area":339.45238810279517,"changesets":767,"mappers":39,"roads":0.0434383106502137,"buildings":13417,"edits":13438,"latest":"2018-08-03T12:45:03.000Z"},"geometry":{"type":"Point","coordinates":[30.5470506290675,-11.0575128068587]}},{"type":"Feature","properties":{"id":2611,"title":"Missing Maps: Zambia Malaria Elimination 40","status":"ARCHIVED","created":"2017","lastUpdated":"2017","lastActive":"no","area":46.032921401337944,"changesets":1214,"mappers":68,"roads":93.1964349675993,"buildings":9730,"edits":11380,"latest":"2017-04-10T00:49:03.000Z"},"geometry":{"type":"Point","coordinates":[27.5760387640245,-16.4560598833974]}},{"type":"Feature","properties":{"id":2639,"title":"Missing Maps: Zambia Malaria Elimination 49","status":"ARCHIVED","created":"2017","lastUpdated":"2017","lastActive":"no","area":52.814073050735566,"changesets":852,"mappers":67,"roads":23.8160874785416,"buildings":5854,"edits":6222,"latest":"2017-03-28T13:32:47.000Z"},"geometry":{"type":"Point","coordinates":[27.2697037774623,-16.746202197447]}},{"type":"Feature","properties":{"id":1630,"title":"Meheba Refugee Camp, Orientale Province, Zambia","status":"PUBLISHED","created":"2016","lastUpdated":"2018","lastActive":"no","area":571.3092959181358,"changesets":1266,"mappers":46,"roads":1338.14496774085,"buildings":8517,"edits":18055,"latest":"2018-07-18T13:01:51.000Z"},"geometry":{"type":"Point","coordinates":[25.8799543120095,-12.4909479937957]}},{"type":"Feature","properties":{"id":2633,"title":"Missing Maps: Zambia Malaria Elimination 48","status":"ARCHIVED","created":"2017","lastUpdated":"2017","lastActive":"no","area":32.57131581006427,"changesets":500,"mappers":35,"roads":2.44756255431118,"buildings":3279,"edits":3316,"latest":"2017-03-14T11:37:25.000Z"},"geometry":{"type":"Point","coordinates":[27.537414156998,-16.6966256500116]}},{"type":"Feature","properties":{"id":2592,"title":"Missing Maps: Zambia Malaria Elimination 30","status":"ARCHIVED","created":"2017","lastUpdated":"2017","lastActive":"no","area":48.89367966790246,"changesets":929,"mappers":62,"roads":8.39795410362155,"buildings":5011,"edits":5076,"latest":"2017-04-27T22:45:51.000Z"},"geometry":{"type":"Point","coordinates":[27.1605308545981,-16.179257781807]}},{"type":"Feature","properties":{"id":2594,"title":"Missing Maps: Zambia Malaria Elimination 32","status":"ARCHIVED","created":"2017","lastUpdated":"2017","lastActive":"no","area":43.26936567615261,"changesets":1273,"mappers":70,"roads":18.9927893029869,"buildings":7488,"edits":7992,"latest":"2017-04-08T00:18:09.000Z"},"geometry":{"type":"Point","coordinates":[27.3457489157097,-16.2479875735404]}},{"type":"Feature","properties":{"id":4903,"title":"Priority Areas, Muchinga Province, Zambia Mini Grids Project 08","status":"PUBLISHED","created":"2018","lastUpdated":"2018","lastActive":"no","area":195.32850196315457,"changesets":248,"mappers":34,"roads":0.915803661040848,"buildings":3822,"edits":3850,"latest":"2018-08-03T10:01:03.000Z"},"geometry":{"type":"Point","coordinates":[30.6259586514312,-12.2108577580289]}},{"type":"Feature","properties":{"id":2585,"title":"Missing Maps: Zambia Malaria Elimination 24","status":"ARCHIVED","created":"2017","lastUpdated":"2017","lastActive":"no","area":45.640231042502336,"changesets":1130,"mappers":58,"roads":3.23377267316928,"buildings":7223,"edits":7383,"latest":"2017-03-29T02:58:36.000Z"},"geometry":{"type":"Point","coordinates":[27.5837411428749,-16.3334845054347]}},{"type":"Feature","properties":{"id":2596,"title":"Missing Maps: Zambia Malaria Elimination 34","status":"ARCHIVED","created":"2017","lastUpdated":"2017","lastActive":"no","area":41.75863317020604,"changesets":595,"mappers":57,"roads":69.4666263553352,"buildings":2590,"edits":2841,"latest":"2017-05-12T13:20:22.000Z"},"geometry":{"type":"Point","coordinates":[27.2748432297805,-16.343342308143]}},{"type":"Feature","properties":{"id":1850,"title":"Peace Corps Zambia -- Chongwe","status":"ARCHIVED","created":"2016","lastUpdated":"2016","lastActive":"no","area":15.78878457562414,"changesets":157,"mappers":33,"roads":24.2593874468821,"buildings":788,"edits":1127,"latest":"2016-06-21T19:38:32.000Z"},"geometry":{"type":"Point","coordinates":[28.6757137724548,-15.3323089385514]}},{"type":"Feature","properties":{"id":2582,"title":"Missing Maps: Zambia Malaria Elimination 21","status":"ARCHIVED","created":"2017","lastUpdated":"2017","lastActive":"no","area":33.664759342899956,"changesets":1117,"mappers":45,"roads":3.11622270231003,"buildings":6257,"edits":6323,"latest":"2017-03-24T06:47:38.000Z"},"geometry":{"type":"Point","coordinates":[27.6071403992898,-16.2228775931531]}},{"type":"Feature","properties":{"id":2587,"title":"Missing Maps: Zambia Malaria Elimination 26","status":"ARCHIVED","created":"2017","lastUpdated":"2017","lastActive":"no","area":48.47737778370312,"changesets":1359,"mappers":51,"roads":14.6576054579623,"buildings":9391,"edits":9515,"latest":"2017-03-28T13:22:21.000Z"},"geometry":{"type":"Point","coordinates":[28.1794821130395,-15.8658428913252]}},{"type":"Feature","properties":{"id":2566,"title":"Missing Maps: Zambia Malaria Elimination 14","status":"ARCHIVED","created":"2017","lastUpdated":"2017","lastActive":"no","area":57.65449460173831,"changesets":1552,"mappers":63,"roads":2.83580702588112,"buildings":16749,"edits":16926,"latest":"2017-04-07T12:01:50.000Z"},"geometry":{"type":"Point","coordinates":[28.122352304328,-16.2042708842274]}},{"type":"Feature","properties":{"id":2570,"title":"Missing Maps: Zambia Malaria Elimination 18","status":"ARCHIVED","created":"2017","lastUpdated":"2017","lastActive":"no","area":40.265860179426525,"changesets":1259,"mappers":53,"roads":11.0265424356229,"buildings":9511,"edits":9739,"latest":"2017-03-23T04:33:37.000Z"},"geometry":{"type":"Point","coordinates":[27.7552911263455,-16.2151912459413]}},{"type":"Feature","properties":{"id":5579,"title":"Missing Maps - Zambia - Mongu South","status":"PUBLISHED","created":"2018","lastUpdated":"2018","lastActive":"no","area":5.528955925534255,"changesets":303,"mappers":28,"roads":50.698206356033,"buildings":3825,"edits":4901,"latest":"2018-12-10T09:05:54.000Z"},"geometry":{"type":"Point","coordinates":[23.1540142439464,-15.2964120301994]}},{"type":"Feature","properties":{"id":5627,"title":"Missing Maps - Zambia - Kalabo-Senanga (west bank)","status":"PUBLISHED","created":"2018","lastUpdated":"2019","lastActive":"yes","area":736.628893365769,"changesets":301,"mappers":21,"roads":105.141350662138,"buildings":2890,"edits":3073,"latest":"2019-01-17T18:51:55.000Z"},"geometry":{"type":"Point","coordinates":[23.0037907453831,-15.6094822340813]}},{"type":"Feature","properties":{"id":4370,"title":"Lusaka Sanitation Program","status":"PUBLISHED","created":"2018","lastUpdated":"2018","lastActive":"no","area":14.119248751588133,"changesets":1712,"mappers":99,"roads":34.7652639071055,"buildings":24002,"edits":24532,"latest":"2018-10-10T15:34:30.000Z"},"geometry":{"type":"Point","coordinates":[28.2520662029724,-15.3709668980874]}},{"type":"Feature","properties":{"id":4815,"title":"Priority Areas, Southern Province, Zambia Mini Grids Project 01","status":"PUBLISHED","created":"2018","lastUpdated":"2018","lastActive":"no","area":2421.4759557891675,"changesets":3756,"mappers":40,"roads":0.0343579811795723,"buildings":66955,"edits":66966,"latest":"2018-07-16T14:03:50.000Z"},"geometry":{"type":"Point","coordinates":[26.5621274778074,-16.4445758757379]}},{"type":"Feature","properties":{"id":4926,"title":"Priority Areas, North-Western Province, Zambia Mini Grids Project 06","status":"PUBLISHED","created":"2018","lastUpdated":"2018","lastActive":"no","area":83.59684385397733,"changesets":281,"mappers":34,"roads":0,"buildings":7280,"edits":7280,"latest":"2018-08-09T07:35:58.000Z"},"geometry":{"type":"Point","coordinates":[24.1755828224049,-13.0583515919993]}},{"type":"Feature","properties":{"id":4899,"title":"Priority Areas, Muchinga Province, Zambia Mini Grids Project 07","status":"PUBLISHED","created":"2018","lastUpdated":"2018","lastActive":"no","area":441.1523928389474,"changesets":540,"mappers":36,"roads":0.250215582929794,"buildings":14739,"edits":14765,"latest":"2018-08-03T10:35:37.000Z"},"geometry":{"type":"Point","coordinates":[32.4951177388957,-9.87408339150437]}},{"type":"Feature","properties":{"id":4820,"title":"Priority Areas, Southern Province, Zambia Mini Grids Project 03","status":"ARCHIVED","created":"2018","lastUpdated":"2018","lastActive":"no","area":1047.4559738575663,"changesets":651,"mappers":35,"roads":0.0143433118122065,"buildings":18881,"edits":18884,"latest":"2018-07-06T07:00:01.000Z"},"geometry":{"type":"Point","coordinates":[28.3420956132482,-16.3836257536732]}},{"type":"Feature","properties":{"id":4846,"title":"Priority Areas, Muchinga Province, Zambia Mini Grids Project 04","status":"PUBLISHED","created":"2018","lastUpdated":"2018","lastActive":"no","area":929.6291976614265,"changesets":951,"mappers":38,"roads":1.65187851759928,"buildings":14723,"edits":14748,"latest":"2018-08-17T11:43:04.000Z"},"geometry":{"type":"Point","coordinates":[31.5185684989067,-9.85709047863316]}},{"type":"Feature","properties":{"id":1236,"title":"Peace Corps Zambia- Kagunda Area","status":"PUBLISHED","created":"2015","lastUpdated":"2017","lastActive":"no","area":16.40709299151716,"changesets":131,"mappers":11,"roads":101.257164895652,"buildings":990,"edits":1987,"latest":"2018-01-23T13:38:54.000Z"},"geometry":{"type":"Point","coordinates":[32.6028885808639,-13.710229156854]}},{"type":"Feature","properties":{"id":3293,"title":"Livingstone mapping - OSM Zambia","status":"PUBLISHED","created":"2017","lastUpdated":"2017","lastActive":"no","area":101.17010264284768,"changesets":994,"mappers":12,"roads":308.983608542543,"buildings":36591,"edits":45782,"latest":"2017-08-23T14:14:19.000Z"},"geometry":{"type":"Point","coordinates":[25.8585971206155,-17.8421540120287]}},{"type":"Feature","properties":{"id":2543,"title":"Missing Maps: Kanyama, Lusaka, Zambia - Cholera Crisis - Buildings Only - Zone 4","status":"PUBLISHED","created":"2017","lastUpdated":"2017","lastActive":"no","area":0.9470639118601474,"changesets":520,"mappers":25,"roads":0.847052105657445,"buildings":10436,"edits":13972,"latest":"2017-04-14T08:01:31.000Z"},"geometry":{"type":"Point","coordinates":[28.2549772567581,-15.4283251911849]}},{"type":"Feature","properties":{"id":2728,"title":"Zambia - Peace Corps Public Health Program","status":"PUBLISHED","created":"2017","lastUpdated":"2018","lastActive":"no","area":1812.3066110321777,"changesets":561,"mappers":95,"roads":712.112904040654,"buildings":6766,"edits":11389,"latest":"2018-10-09T12:40:02.000Z"},"geometry":{"type":"Point","coordinates":[26.0244494385981,-12.8954326004688]}}],"Tanzania":[{"type":"Feature","properties":{"id":5529,"title":"Tanzania missing buildings Simanjiro District","status":"PUBLISHED","created":"2018","lastUpdated":"2019","lastActive":"yes","area":1446.0821011615285,"changesets":5710,"mappers":381,"roads":469.468978634377,"buildings":39854,"edits":41181,"latest":"2019-01-17T21:19:29.000Z"},"geometry":{"type":"Point","coordinates":[36.977133550602,-4.08798441021924]}},{"type":"Feature","properties":{"id":3159,"title":"Tanzania Development Trust: Singida district community mapping project ","status":"PUBLISHED","created":"2017","lastUpdated":"2018","lastActive":"no","area":746.5381861519145,"changesets":8158,"mappers":373,"roads":10510.3568767361,"buildings":97706,"edits":203282,"latest":"2019-01-01T06:32:47.000Z"},"geometry":{"type":"Point","coordinates":[34.973843496759,-4.67540763811596]}},{"type":"Feature","properties":{"id":4896,"title":"Tanzania Development Trust:  Manyara FGM 3","status":"PUBLISHED","created":"2018","lastUpdated":"2018","lastActive":"no","area":2283.4732623040454,"changesets":1771,"mappers":168,"roads":225.333231420998,"buildings":15423,"edits":15979,"latest":"2018-10-24T12:40:31.000Z"},"geometry":{"type":"Point","coordinates":[37.0771755450608,-5.56656722298389]}},{"type":"Feature","properties":{"id":4722,"title":"Njombe Region, Tanzania Mini Grids Project 01","status":"PUBLISHED","created":"2018","lastUpdated":"2018","lastActive":"no","area":1960.7678476372357,"changesets":1187,"mappers":61,"roads":1.07364951171986,"buildings":57724,"edits":57843,"latest":"2018-06-14T13:57:46.000Z"},"geometry":{"type":"Point","coordinates":[34.6300177951371,-8.83922964032332]}},{"type":"Feature","properties":{"id":4868,"title":"Kasuku Building Import Workflow Test (South))","status":"ARCHIVED","created":"2018","lastUpdated":"2018","lastActive":"no","area":1.6123125790816706,"changesets":18,"mappers":6,"roads":0.534707746129971,"buildings":276,"edits":281,"latest":"2018-10-09T23:04:15.000Z"},"geometry":{"type":"Point","coordinates":[29.741340447652,-4.90496095600047]}},{"type":"Feature","properties":{"id":4720,"title":"Songea Rural, Ruvuma, Tanzania Mini Grids Project 06","status":"PUBLISHED","created":"2018","lastUpdated":"2018","lastActive":"no","area":2093.4548563322423,"changesets":1609,"mappers":64,"roads":0.38231113496823,"buildings":15223,"edits":15257,"latest":"2018-08-16T09:02:58.000Z"},"geometry":{"type":"Point","coordinates":[35.5405077869131,-11.013967365302]}},{"type":"Feature","properties":{"id":4705,"title":"Songea Rural, Ruvuma, Tanzania Mini Grids Project 04","status":"PUBLISHED","created":"2018","lastUpdated":"2018","lastActive":"no","area":2147.5450650948856,"changesets":969,"mappers":50,"roads":0.278493274043511,"buildings":10699,"edits":10720,"latest":"2018-06-11T13:01:29.000Z"},"geometry":{"type":"Point","coordinates":[35.4447477894203,-10.3729329651658]}},{"type":"Feature","properties":{"id":4700,"title":"Songea Rural, Ruvuma, Tanzania Mini Grids Project 02","status":"PUBLISHED","created":"2018","lastUpdated":"2018","lastActive":"no","area":2220.7880799927716,"changesets":626,"mappers":55,"roads":0.0918395441376388,"buildings":12459,"edits":12476,"latest":"2018-06-11T08:13:36.000Z"},"geometry":{"type":"Point","coordinates":[35.4739876463384,-9.76106243057685]}},{"type":"Feature","properties":{"id":4715,"title":"Unkuku, Tanzania Mini Grids Project","status":"PUBLISHED","created":"2018","lastUpdated":"2018","lastActive":"no","area":61.28019264301011,"changesets":97,"mappers":36,"roads":0.0672879206278469,"buildings":5732,"edits":5741,"latest":"2018-06-11T07:40:02.000Z"},"geometry":{"type":"Point","coordinates":[35.8233061615055,-4.89298874417756]}},{"type":"Feature","properties":{"id":4698,"title":"Muheza and Pangani Districts, Tanzania Mini Grids Project","status":"PUBLISHED","created":"2018","lastUpdated":"2018","lastActive":"no","area":2694.389967520607,"changesets":1847,"mappers":63,"roads":19.9499914416186,"buildings":72673,"edits":72965,"latest":"2018-06-27T14:24:02.000Z"},"geometry":{"type":"Point","coordinates":[38.8076759403722,-5.35019575878246]}},{"type":"Feature","properties":{"id":4703,"title":"Songea Rural, Ruvuma, Tanzania Mini Grids Project 01","status":"PUBLISHED","created":"2018","lastUpdated":"2018","lastActive":"no","area":1371.4453556338517,"changesets":58,"mappers":25,"roads":0,"buildings":427,"edits":427,"latest":"2018-06-11T08:40:02.000Z"},"geometry":{"type":"Point","coordinates":[35.7177908333874,-9.44419853155089]}},{"type":"Feature","properties":{"id":4724,"title":"Njombe Region, Tanzania Mini Grids Project 03","status":"PUBLISHED","created":"2018","lastUpdated":"2018","lastActive":"no","area":2136.028082871833,"changesets":1147,"mappers":62,"roads":0.108975939233081,"buildings":37781,"edits":37805,"latest":"2018-07-20T14:13:03.000Z"},"geometry":{"type":"Point","coordinates":[34.6733502170824,-9.09889819240757]}},{"type":"Feature","properties":{"id":4068,"title":"Kagera_Goziba","status":"PUBLISHED","created":"2018","lastUpdated":"2018","lastActive":"no","area":1.2825061201820658,"changesets":1,"mappers":1,"roads":0,"buildings":0,"edits":0,"latest":"2018-01-27T17:01:56.000Z"},"geometry":{"type":"Point","coordinates":[32.6139163551729,-1.47155678215259]}},{"type":"Feature","properties":{"id":4073,"title":"Mara","status":"PUBLISHED","created":"2018","lastUpdated":"2018","lastActive":"no","area":3.087873440053216,"changesets":2,"mappers":1,"roads":0.00231401197004213,"buildings":0,"edits":3,"latest":"2018-11-04T20:32:08.000Z"},"geometry":{"type":"Point","coordinates":[33.7069399133208,-1.4020095593245]}},{"type":"Feature","properties":{"id":4070,"title":"kagera_1","status":"PUBLISHED","created":"2018","lastUpdated":"2018","lastActive":"no","area":36.69351653109927,"changesets":104,"mappers":15,"roads":21.2106946154807,"buildings":1058,"edits":1199,"latest":"2018-11-16T15:00:56.000Z"},"geometry":{"type":"Point","coordinates":[31.8764181723125,-1.66503615309336]}},{"type":"Feature","properties":{"id":4799,"title":"Priority Villages, Arusha Region, Tanzania Mini Grids Project","status":"PUBLISHED","created":"2018","lastUpdated":"2018","lastActive":"no","area":188.40438855389118,"changesets":190,"mappers":24,"roads":0.065129375727978,"buildings":5995,"edits":6000,"latest":"2018-06-27T08:53:12.000Z"},"geometry":{"type":"Point","coordinates":[35.7093307611836,-2.32524942071168]}},{"type":"Feature","properties":{"id":4082,"title":"Kigoma_1","status":"PUBLISHED","created":"2018","lastUpdated":"2018","lastActive":"no","area":3.220895758602432,"changesets":128,"mappers":5,"roads":0,"buildings":3113,"edits":3113,"latest":"2018-02-19T11:05:31.000Z"},"geometry":{"type":"Point","coordinates":[30.4406843233075,-6.82013200035033]}},{"type":"Feature","properties":{"id":4090,"title":"Kigoma_9","status":"PUBLISHED","created":"2018","lastUpdated":"2018","lastActive":"no","area":1.722690665551124,"changesets":290,"mappers":6,"roads":0.249339693562493,"buildings":1929,"edits":1941,"latest":"2018-02-15T09:43:50.000Z"},"geometry":{"type":"Point","coordinates":[29.8251364406655,-6.00624785298935]}},{"type":"Feature","properties":{"id":4752,"title":"Njombe Region, Tanzania Mini Grids Project 06","status":"PUBLISHED","created":"2018","lastUpdated":"2018","lastActive":"no","area":1905.0649927180077,"changesets":959,"mappers":31,"roads":0.380572673185506,"buildings":29189,"edits":29249,"latest":"2018-07-02T08:52:44.000Z"},"geometry":{"type":"Point","coordinates":[34.7557342888488,-9.41123960482513]}},{"type":"Feature","properties":{"id":4086,"title":"Kigoma_5","status":"PUBLISHED","created":"2018","lastUpdated":"2018","lastActive":"no","area":3.7491092848574272,"changesets":156,"mappers":6,"roads":0.459783989828362,"buildings":1942,"edits":1948,"latest":"2018-02-07T11:29:30.000Z"},"geometry":{"type":"Point","coordinates":[30.0140478228083,-6.47067176048628]}},{"type":"Feature","properties":{"id":4105,"title":"Kigoma_17","status":"PUBLISHED","created":"2018","lastUpdated":"2018","lastActive":"no","area":4.227050493859274,"changesets":84,"mappers":8,"roads":0.193564177598396,"buildings":1322,"edits":1325,"latest":"2018-02-22T12:12:21.000Z"},"geometry":{"type":"Point","coordinates":[29.9287252179311,-5.73757948308089]}},{"type":"Feature","properties":{"id":4178,"title":"Mahenye-Njombe","status":"PUBLISHED","created":"2018","lastUpdated":"2018","lastActive":"no","area":419.20452177017404,"changesets":557,"mappers":14,"roads":2.81615930013736,"buildings":28307,"edits":28364,"latest":"2018-02-23T12:45:33.000Z"},"geometry":{"type":"Point","coordinates":[34.8017620296947,-9.5332813093719]}},{"type":"Feature","properties":{"id":4366,"title":"Urambo, Tabora, Tanzania Mini Grids Project 04","status":"PUBLISHED","created":"2018","lastUpdated":"2018","lastActive":"no","area":1540.7875686482291,"changesets":1920,"mappers":73,"roads":6.2619827819317,"buildings":42229,"edits":42283,"latest":"2018-04-23T12:45:52.000Z"},"geometry":{"type":"Point","coordinates":[31.8054731800531,-5.12467103545177]}},{"type":"Feature","properties":{"id":4392,"title":"Rungwe, Mbeya, Tanzania Mini Grids Project 01","status":"PUBLISHED","created":"2018","lastUpdated":"2018","lastActive":"no","area":1330.3320402972577,"changesets":2885,"mappers":74,"roads":21.3821929149524,"buildings":119621,"edits":120470,"latest":"2018-05-30T06:51:18.000Z"},"geometry":{"type":"Point","coordinates":[33.5980998902635,-9.19753847018188]}},{"type":"Feature","properties":{"id":4412,"title":"Tunduru, Ruvuma, Tanzania Mini Grids Project 04","status":"PUBLISHED","created":"2018","lastUpdated":"2018","lastActive":"no","area":1554.890184050325,"changesets":1325,"mappers":68,"roads":0.398203610661417,"buildings":26966,"edits":27033,"latest":"2018-04-30T08:47:26.000Z"},"geometry":{"type":"Point","coordinates":[37.4224539441367,-11.00877356754]}},{"type":"Feature","properties":{"id":4400,"title":"Katumba Songwe, Mbeya, Tanzania Mini Grids Project 01","status":"PUBLISHED","created":"2018","lastUpdated":"2018","lastActive":"no","area":38.180931167498045,"changesets":477,"mappers":58,"roads":1.86573763751187,"buildings":9477,"edits":9737,"latest":"2018-04-12T09:09:50.000Z"},"geometry":{"type":"Point","coordinates":[33.8507065038712,-9.64367875509911]}},{"type":"Feature","properties":{"id":4387,"title":"Heru Shingo Ward, Kigoma, Tanzania Mini Grids Project 01","status":"PUBLISHED","created":"2018","lastUpdated":"2018","lastActive":"no","area":789.0955168862893,"changesets":1455,"mappers":37,"roads":4.58334806253399,"buildings":33003,"edits":33301,"latest":"2018-06-01T13:26:31.000Z"},"geometry":{"type":"Point","coordinates":[30.2968792423321,-4.12596556962405]}},{"type":"Feature","properties":{"id":4423,"title":"Tunduru, Ruvuma, Tanzania Mini Grids Project 01","status":"PUBLISHED","created":"2018","lastUpdated":"2018","lastActive":"no","area":1513.3163670277308,"changesets":748,"mappers":73,"roads":0.672637130613432,"buildings":15105,"edits":15129,"latest":"2018-06-29T11:40:17.000Z"},"geometry":{"type":"Point","coordinates":[37.2136110366055,-11.5541265436822]}},{"type":"Feature","properties":{"id":4352,"title":"Urambo, Tabora, Tanzania Mini Grids Project 05","status":"PUBLISHED","created":"2018","lastUpdated":"2018","lastActive":"no","area":1522.3866868404682,"changesets":1812,"mappers":63,"roads":47.1194316793102,"buildings":61111,"edits":61203,"latest":"2018-07-02T05:53:02.000Z"},"geometry":{"type":"Point","coordinates":[31.8042353832352,-5.02258852707333]}},{"type":"Feature","properties":{"id":4354,"title":"Urambo, Tabora, Tanzania Mini Grids Project 07","status":"PUBLISHED","created":"2018","lastUpdated":"2018","lastActive":"no","area":1417.644733786158,"changesets":1438,"mappers":66,"roads":0.235986987394966,"buildings":40728,"edits":40743,"latest":"2018-07-02T08:15:16.000Z"},"geometry":{"type":"Point","coordinates":[31.9202678045656,-4.79835296039164]}},{"type":"Feature","properties":{"id":4529,"title":"Central Singida, Singida, Tanzania Mini Grids Project 05 East","status":"PUBLISHED","created":"2018","lastUpdated":"2018","lastActive":"no","area":1299.832349107584,"changesets":829,"mappers":53,"roads":0.392972178332061,"buildings":16651,"edits":16659,"latest":"2018-05-17T11:23:30.000Z"},"geometry":{"type":"Point","coordinates":[35.1179914040598,-5.06313234776918]}},{"type":"Feature","properties":{"id":4519,"title":"Central Singida, Singida, Tanzania Mini Grids Project 03","status":"PUBLISHED","created":"2018","lastUpdated":"2018","lastActive":"no","area":2105.041518258272,"changesets":1720,"mappers":63,"roads":0.0426727988520717,"buildings":55117,"edits":55135,"latest":"2018-05-16T14:10:04.000Z"},"geometry":{"type":"Point","coordinates":[34.7550897662119,-5.11082585293485]}},{"type":"Feature","properties":{"id":4286,"title":"Mbozi, Mbeya, Tanzania Mini Grids Project 01","status":"PUBLISHED","created":"2018","lastUpdated":"2018","lastActive":"no","area":1427.754247465411,"changesets":3571,"mappers":68,"roads":3017.76610954661,"buildings":84064,"edits":91962,"latest":"2018-06-14T11:11:25.000Z"},"geometry":{"type":"Point","coordinates":[32.9022184031242,-9.22410127231269]}},{"type":"Feature","properties":{"id":4290,"title":"Mbozi, Mbeya, Tanzania Mini Grids Project 04","status":"PUBLISHED","created":"2018","lastUpdated":"2018","lastActive":"no","area":1211.7161084477548,"changesets":1961,"mappers":76,"roads":1447.81448250183,"buildings":48428,"edits":51301,"latest":"2018-07-03T09:24:27.000Z"},"geometry":{"type":"Point","coordinates":[32.6205051070244,-8.88427358395356]}},{"type":"Feature","properties":{"id":4487,"title":"Lindi, Lindi, Tanzania Mini Grids Project 01","status":"PUBLISHED","created":"2018","lastUpdated":"2018","lastActive":"no","area":2262.000623549842,"changesets":1674,"mappers":68,"roads":0.902342152134417,"buildings":56663,"edits":56749,"latest":"2018-05-14T14:03:37.000Z"},"geometry":{"type":"Point","coordinates":[38.9173096989872,-10.0781727355739]}},{"type":"Feature","properties":{"id":4377,"title":"Urambo, Tabora, Tanzania Mini Grids Project 09-10","status":"PUBLISHED","created":"2018","lastUpdated":"2018","lastActive":"no","area":1677.5206088742302,"changesets":1703,"mappers":67,"roads":0.363745706229784,"buildings":26610,"edits":26624,"latest":"2018-05-21T13:49:44.000Z"},"geometry":{"type":"Point","coordinates":[32.1987393372539,-4.49824794936506]}},{"type":"Feature","properties":{"id":4349,"title":"Mbozi, Mbeya, Tanzania Mini Grids Project 06","status":"PUBLISHED","created":"2018","lastUpdated":"2018","lastActive":"no","area":1339.4689946738515,"changesets":1043,"mappers":62,"roads":742.110448134302,"buildings":21213,"edits":22569,"latest":"2018-07-20T11:18:36.000Z"},"geometry":{"type":"Point","coordinates":[32.5514871956246,-8.64808769274579]}},{"type":"Feature","properties":{"id":3251,"title":"Tanzania Development Trust: Masasi district, Mtwara Region","status":"PUBLISHED","created":"2017","lastUpdated":"2018","lastActive":"no","area":1622.139093292662,"changesets":2463,"mappers":183,"roads":4785.67042099275,"buildings":85492,"edits":125435,"latest":"2018-11-21T20:33:24.000Z"},"geometry":{"type":"Point","coordinates":[38.7777142279862,-10.7640181242256]}},{"type":"Feature","properties":{"id":4508,"title":"Central Singida, Singida, Tanzania Mini Grids Project 00 North","status":"PUBLISHED","created":"2018","lastUpdated":"2018","lastActive":"no","area":2138.0235797080213,"changesets":2429,"mappers":66,"roads":2.19560796896209,"buildings":85349,"edits":85596,"latest":"2018-07-13T13:11:37.000Z"},"geometry":{"type":"Point","coordinates":[34.4849350763114,-4.77933065140117]}},{"type":"Feature","properties":{"id":4402,"title":"Karema Ward, Katavi, Tanzania Mini Grids Project 01","status":"PUBLISHED","created":"2018","lastUpdated":"2018","lastActive":"no","area":49.87575499116186,"changesets":83,"mappers":11,"roads":0,"buildings":1985,"edits":1985,"latest":"2018-04-12T09:55:03.000Z"},"geometry":{"type":"Point","coordinates":[30.4412659655361,-6.79922870485028]}},{"type":"Feature","properties":{"id":4420,"title":"Tunduru, Ruvuma, Tanzania Mini Grids Project 06-07","status":"PUBLISHED","created":"2018","lastUpdated":"2018","lastActive":"no","area":2221.546325309108,"changesets":2472,"mappers":65,"roads":8.35441218309258,"buildings":33151,"edits":33219,"latest":"2018-06-26T09:49:39.000Z"},"geometry":{"type":"Point","coordinates":[37.2482470470671,-10.7299370452289]}},{"type":"Feature","properties":{"id":3331,"title":"Missing Maps: Dar es Salaam - Ramani Huria 2.0 - 01","status":"ARCHIVED","created":"2017","lastUpdated":"2017","lastActive":"no","area":21.198059977554916,"changesets":1016,"mappers":59,"roads":3.20397694021402,"buildings":11745,"edits":12359,"latest":"2017-09-13T06:44:46.000Z"},"geometry":{"type":"Point","coordinates":[39.1533126101187,-6.63201450487923]}},{"type":"Feature","properties":{"id":4418,"title":"Mpwapwa, Dodoma, Tanzania Mini Grids Project 08","status":"PUBLISHED","created":"2018","lastUpdated":"2018","lastActive":"no","area":69.68255741962724,"changesets":1926,"mappers":103,"roads":18.7990415103299,"buildings":25541,"edits":25683,"latest":"2018-05-19T20:41:29.000Z"},"geometry":{"type":"Point","coordinates":[36.4532594329466,-5.95045585855322]}},{"type":"Feature","properties":{"id":4479,"title":"S. Monduli, Simanjiro, Tanzania Mini Grids - MapSwipe Project 04 - 02","status":"PUBLISHED","created":"2018","lastUpdated":"2018","lastActive":"no","area":131.2262807333246,"changesets":136,"mappers":50,"roads":0.000165500103078919,"buildings":1412,"edits":1414,"latest":"2018-05-04T09:36:27.000Z"},"geometry":{"type":"Point","coordinates":[37.1526786235933,-4.96896345542438]}},{"type":"Feature","properties":{"id":4710,"title":"Tanzania Development Trust: Rubale Community Mapping Project","status":"ARCHIVED","created":"2018","lastUpdated":"2018","lastActive":"no","area":2.8694421907196968,"changesets":223,"mappers":15,"roads":47.6921069447722,"buildings":1026,"edits":1672,"latest":"2018-06-10T20:40:39.000Z"},"geometry":{"type":"Point","coordinates":[31.5198154824657,-1.60317363606181]}},{"type":"Feature","properties":{"id":4477,"title":"S. Monduli, Simanjiro, Tanzania Mini Grids - MapSwipe Project 04 - 04","status":"PUBLISHED","created":"2018","lastUpdated":"2018","lastActive":"no","area":139.74141127398454,"changesets":352,"mappers":54,"roads":0,"buildings":4700,"edits":4700,"latest":"2018-05-04T08:40:26.000Z"},"geometry":{"type":"Point","coordinates":[37.9774679014572,-5.07008836053818]}},{"type":"Feature","properties":{"id":2177,"title":"Earthquake in Uganda and Tanzania, 10/09/2016 - SE of Epicenter Buildings Mapping","status":"ARCHIVED","created":"2016","lastUpdated":"2016","lastActive":"no","area":40.23315767364361,"changesets":615,"mappers":44,"roads":80.1324630799427,"buildings":4510,"edits":6507,"latest":"2016-09-29T09:44:41.000Z"},"geometry":{"type":"Point","coordinates":[31.6705138437158,-1.26898587395043]}},{"type":"Feature","properties":{"id":4368,"title":"Tanzania Development Trust: Morogoro Community Mapping Project","status":"ARCHIVED","created":"2018","lastUpdated":"2018","lastActive":"no","area":6.725652855463129,"changesets":1281,"mappers":89,"roads":81.8895955188457,"buildings":19328,"edits":20942,"latest":"2018-07-08T14:32:19.000Z"},"geometry":{"type":"Point","coordinates":[37.6521283051778,-6.82130428335325]}},{"type":"Feature","properties":{"id":4978,"title":"Tanzania Development Trust: Magata Karutonga  Community Mapping Project","status":"ARCHIVED","created":"2018","lastUpdated":"2018","lastActive":"no","area":34.0634342157299,"changesets":760,"mappers":56,"roads":433.264175834421,"buildings":3163,"edits":6211,"latest":"2018-08-19T16:59:22.000Z"},"geometry":{"type":"Point","coordinates":[31.6336096442559,-1.87369450984158]}},{"type":"Feature","properties":{"id":4336,"title":"Tanzania Development Trust: Mingoyo Community Mapping Project","status":"ARCHIVED","created":"2018","lastUpdated":"2018","lastActive":"no","area":6.093244915676354,"changesets":452,"mappers":71,"roads":108.978266720093,"buildings":3373,"edits":5105,"latest":"2018-03-25T17:50:56.000Z"},"geometry":{"type":"Point","coordinates":[39.6150235515117,-10.1073176624119]}},{"type":"Feature","properties":{"id":4404,"title":"Tanzania Development Trust: Kiyebe Community Mapping Project","status":"ARCHIVED","created":"2018","lastUpdated":"2018","lastActive":"no","area":14.54425632534702,"changesets":165,"mappers":25,"roads":179.882131248454,"buildings":904,"edits":2112,"latest":"2018-04-12T18:26:16.000Z"},"geometry":{"type":"Point","coordinates":[31.5213611368364,-2.01443774986169]}},{"type":"Feature","properties":{"id":5588,"title":"Tanzania missing buildings Babati District","status":"PUBLISHED","created":"2018","lastUpdated":"2019","lastActive":"yes","area":1517.0501880287118,"changesets":3635,"mappers":284,"roads":248.395309889652,"buildings":33067,"edits":34355,"latest":"2019-01-17T22:05:46.000Z"},"geometry":{"type":"Point","coordinates":[35.6567410589608,-4.14263266870681]}},{"type":"Feature","properties":{"id":4293,"title":"Tanzania Development Trust: Kibirizi Community Mapping Project","status":"ARCHIVED","created":"2018","lastUpdated":"2018","lastActive":"no","area":75.76463029779623,"changesets":932,"mappers":112,"roads":628.528332051034,"buildings":2461,"edits":8182,"latest":"2018-03-25T15:01:12.000Z"},"geometry":{"type":"Point","coordinates":[31.4031606875565,-1.63216015619948]}},{"type":"Feature","properties":{"id":4208,"title":"Mbeya minigrids","status":"PUBLISHED","created":"2018","lastUpdated":"2018","lastActive":"no","area":381.3150730146897,"changesets":8229,"mappers":81,"roads":545.472150450803,"buildings":454625,"edits":458780,"latest":"2018-03-29T12:55:24.000Z"},"geometry":{"type":"Point","coordinates":[33.2834313083823,-8.86666978309615]}},{"type":"Feature","properties":{"id":4284,"title":"Tanzania Development Trust: Nyakigando Ikimba Community Mapping Project","status":"ARCHIVED","created":"2018","lastUpdated":"2018","lastActive":"no","area":9.041298427344486,"changesets":320,"mappers":21,"roads":159.247797886851,"buildings":1179,"edits":3057,"latest":"2018-03-12T21:12:54.000Z"},"geometry":{"type":"Point","coordinates":[31.5705837031557,-1.51810455931155]}},{"type":"Feature","properties":{"id":4654,"title":"Chemba and Bahi Districts, Tanzania Mini Grids Project 03","status":"PUBLISHED","created":"2018","lastUpdated":"2018","lastActive":"no","area":1954.525377556312,"changesets":1245,"mappers":41,"roads":0.106920348528221,"buildings":20636,"edits":20657,"latest":"2018-06-05T14:25:23.000Z"},"geometry":{"type":"Point","coordinates":[35.5847311116868,-5.42682995375007]}},{"type":"Feature","properties":{"id":5550,"title":"Chikola","status":"PUBLISHED","created":"2018","lastUpdated":"2018","lastActive":"no","area":364.54472047107805,"changesets":0,"mappers":0,"roads":0,"buildings":0,"edits":0,"latest":null},"geometry":{"type":"Point","coordinates":[35.3432190143094,-6.13969848411729]}},{"type":"Feature","properties":{"id":4642,"title":"Villages in Pangani District, Tanzania Mini Grids Project","status":"PUBLISHED","created":"2018","lastUpdated":"2018","lastActive":"no","area":3.2853624864693787,"changesets":85,"mappers":27,"roads":0.0728887891265449,"buildings":3068,"edits":3101,"latest":"2018-06-08T10:05:47.000Z"},"geometry":{"type":"Point","coordinates":[38.9510503654064,-5.45416108609809]}},{"type":"Feature","properties":{"id":4716,"title":"Buigiri, Tanzania Mini Grids Project","status":"PUBLISHED","created":"2018","lastUpdated":"2018","lastActive":"no","area":70.76658506869626,"changesets":35,"mappers":19,"roads":0,"buildings":1370,"edits":1370,"latest":"2018-06-11T06:47:36.000Z"},"geometry":{"type":"Point","coordinates":[36.0912871642792,-6.16102193778322]}},{"type":"Feature","properties":{"id":4307,"title":"Tanzania Development Trust: Burungura Community Mapping Project","status":"ARCHIVED","created":"2018","lastUpdated":"2018","lastActive":"no","area":12.132811235880215,"changesets":422,"mappers":60,"roads":224.496584040424,"buildings":934,"edits":2752,"latest":"2018-03-15T22:38:18.000Z"},"geometry":{"type":"Point","coordinates":[31.4863826867625,-1.89364869788793]}},{"type":"Feature","properties":{"id":5370,"title":"Pwani_METEOR","status":"PUBLISHED","created":"2018","lastUpdated":"2018","lastActive":"no","area":1.857301592423365,"changesets":150,"mappers":19,"roads":26.9283625898123,"buildings":740,"edits":1247,"latest":"2018-10-31T08:49:13.000Z"},"geometry":{"type":"Point","coordinates":[39.3251033855678,-6.98577812479199]}},{"type":"Feature","properties":{"id":4611,"title":"Tabora, Tabora, Tanzania Mini Grids Project 04","status":"PUBLISHED","created":"2018","lastUpdated":"2018","lastActive":"no","area":1431.5287309262178,"changesets":1290,"mappers":60,"roads":17.4569544106012,"buildings":23456,"edits":24034,"latest":"2018-06-21T06:42:56.000Z"},"geometry":{"type":"Point","coordinates":[32.9989006523097,-5.09063064812292]}},{"type":"Feature","properties":{"id":5356,"title":"Kimanga","status":"PUBLISHED","created":"2018","lastUpdated":"2018","lastActive":"no","area":9.377792323494011,"changesets":1,"mappers":1,"roads":0,"buildings":2,"edits":2,"latest":"2018-10-16T13:25:26.000Z"},"geometry":{"type":"Point","coordinates":[39.1889734397382,-6.82488295475237]}},{"type":"Feature","properties":{"id":5546,"title":"msisi_pilot","status":"PUBLISHED","created":"2018","lastUpdated":"2018","lastActive":"no","area":299.23019148117373,"changesets":0,"mappers":0,"roads":0,"buildings":0,"edits":0,"latest":null},"geometry":{"type":"Point","coordinates":[35.6507594031343,-5.81195430714583]}},{"type":"Feature","properties":{"id":5394,"title":"Mtakuja_METEOR","status":"PUBLISHED","created":"2018","lastUpdated":"2018","lastActive":"no","area":0.12654256421525886,"changesets":111,"mappers":10,"roads":0.154747279215324,"buildings":1165,"edits":1365,"latest":"2018-10-26T12:56:08.000Z"},"geometry":{"type":"Point","coordinates":[39.2311664932879,-6.84526241829827]}},{"type":"Feature","properties":{"id":4571,"title":"Kasulu, Kasulu, Tanzania Mini Grids Project 04","status":"PUBLISHED","created":"2018","lastUpdated":"2018","lastActive":"no","area":2136.1760422465886,"changesets":2503,"mappers":67,"roads":13.868987608162,"buildings":55856,"edits":56705,"latest":"2018-09-05T09:57:12.000Z"},"geometry":{"type":"Point","coordinates":[30.0208203583934,-4.68429365785836]}},{"type":"Feature","properties":{"id":5396,"title":"Sinza_METEOR","status":"PUBLISHED","created":"2018","lastUpdated":"2018","lastActive":"no","area":0.11495287086645402,"changesets":65,"mappers":15,"roads":0.115200681951529,"buildings":130,"edits":194,"latest":"2018-11-01T13:14:45.000Z"},"geometry":{"type":"Point","coordinates":[39.2245824861265,-6.7834148800241]}},{"type":"Feature","properties":{"id":5338,"title":"Tabata_Msimbazi","status":"PUBLISHED","created":"2018","lastUpdated":"2018","lastActive":"no","area":2.7361327645312596,"changesets":598,"mappers":22,"roads":1.52976158880248,"buildings":5381,"edits":5750,"latest":"2018-10-29T18:04:45.000Z"},"geometry":{"type":"Point","coordinates":[39.2210232072559,-6.83783297253043]}},{"type":"Feature","properties":{"id":4563,"title":"Kasulu, Kasulu, Tanzania Mini Grids Project 01","status":"PUBLISHED","created":"2018","lastUpdated":"2018","lastActive":"no","area":1132.117945620699,"changesets":1683,"mappers":62,"roads":6.80675700959666,"buildings":46061,"edits":46543,"latest":"2018-06-22T13:37:34.000Z"},"geometry":{"type":"Point","coordinates":[30.223387298585,-4.60036034805499]}},{"type":"Feature","properties":{"id":5422,"title":"Tanzania Mbinga Test","status":"ARCHIVED","created":"2018","lastUpdated":"2018","lastActive":"no","area":0.09678392301278596,"changesets":0,"mappers":0,"roads":0,"buildings":0,"edits":0,"latest":null},"geometry":{"type":"Point","coordinates":[35.0530360761986,-10.9293321539577]}},{"type":"Feature","properties":{"id":5441,"title":"Kinondoni","status":"PUBLISHED","created":"2018","lastUpdated":"2018","lastActive":"no","area":1.9111633153129555,"changesets":723,"mappers":19,"roads":0.51286613158573,"buildings":5979,"edits":6448,"latest":"2018-11-09T12:51:55.000Z"},"geometry":{"type":"Point","coordinates":[39.270133890838,-6.78485592342873]}},{"type":"Feature","properties":{"id":5539,"title":"mwitirika","status":"PUBLISHED","created":"2018","lastUpdated":"2018","lastActive":"no","area":310.08409917434227,"changesets":0,"mappers":0,"roads":0,"buildings":0,"edits":0,"latest":null},"geometry":{"type":"Point","coordinates":[35.6729879289732,-6.56534479236094]}},{"type":"Feature","properties":{"id":4489,"title":"Lindi, Lindi, Tanzania Mini Grids Project 03","status":"PUBLISHED","created":"2018","lastUpdated":"2018","lastActive":"no","area":1972.6554027241687,"changesets":1117,"mappers":68,"roads":0.712816430807669,"buildings":37574,"edits":37626,"latest":"2018-07-04T09:33:22.000Z"},"geometry":{"type":"Point","coordinates":[39.2489990334018,-10.1470862126786]}},{"type":"Feature","properties":{"id":4555,"title":"Manyoni, Singida, Tanzania Mini Grids Project 05","status":"PUBLISHED","created":"2018","lastUpdated":"2018","lastActive":"no","area":2172.2334385231957,"changesets":1476,"mappers":57,"roads":0.354646008845444,"buildings":32058,"edits":32104,"latest":"2018-05-24T13:46:32.000Z"},"geometry":{"type":"Point","coordinates":[34.8967568144049,-6.27611532228966]}},{"type":"Feature","properties":{"id":4569,"title":"Kasulu, Kasulu, Tanzania Mini Grids Project 02","status":"PUBLISHED","created":"2018","lastUpdated":"2018","lastActive":"no","area":1983.2479906601172,"changesets":1354,"mappers":62,"roads":1.61439788714098,"buildings":46289,"edits":46619,"latest":"2018-06-20T13:13:28.000Z"},"geometry":{"type":"Point","coordinates":[30.212024270479,-4.1763726716107]}},{"type":"Feature","properties":{"id":5558,"title":"Makanda","status":"PUBLISHED","created":"2018","lastUpdated":"2018","lastActive":"no","area":303.7760037608982,"changesets":9,"mappers":3,"roads":0,"buildings":22,"edits":28,"latest":"2018-11-29T21:06:37.000Z"},"geometry":{"type":"Point","coordinates":[35.3810498816351,-5.746704775747]}},{"type":"Feature","properties":{"id":3698,"title":"Missing Maps: Kyela - Data Zetu","status":"PUBLISHED","created":"2017","lastUpdated":"2018","lastActive":"no","area":251.55720854707542,"changesets":802,"mappers":12,"roads":5.58626698624379,"buildings":29269,"edits":29469,"latest":"2018-07-19T11:51:17.000Z"},"geometry":{"type":"Point","coordinates":[33.8935261689772,-9.52003925109173]}},{"type":"Feature","properties":{"id":4621,"title":"Rufiji, Pwani, Tanzania Mini Grids Project 01","status":"PUBLISHED","created":"2018","lastUpdated":"2018","lastActive":"no","area":1421.848754938379,"changesets":1507,"mappers":57,"roads":0.314447651645533,"buildings":35066,"edits":35135,"latest":"2018-06-28T09:05:26.000Z"},"geometry":{"type":"Point","coordinates":[38.9356958199981,-7.64921563567404]}},{"type":"Feature","properties":{"id":3666,"title":"Zanzibar Roads - Unguja Island - 02","status":"PUBLISHED","created":"2017","lastUpdated":"2017","lastActive":"no","area":467.0999763333136,"changesets":182,"mappers":13,"roads":1127.1061948184,"buildings":5,"edits":6570,"latest":"2017-10-04T08:29:26.000Z"},"geometry":{"type":"Point","coordinates":[39.2879567596863,-5.91889676940709]}},{"type":"Feature","properties":{"id":5548,"title":"Chali","status":"PUBLISHED","created":"2018","lastUpdated":"2018","lastActive":"no","area":293.026474967643,"changesets":0,"mappers":0,"roads":0,"buildings":0,"edits":0,"latest":null},"geometry":{"type":"Point","coordinates":[35.2630727303968,-6.26212970964754]}},{"type":"Feature","properties":{"id":4613,"title":"Tabora, Tabora, Tanzania Mini Grids Project 06","status":"PUBLISHED","created":"2018","lastUpdated":"2018","lastActive":"no","area":1436.2802264029842,"changesets":1238,"mappers":65,"roads":0.181888238898926,"buildings":23073,"edits":23084,"latest":"2018-07-02T12:11:10.000Z"},"geometry":{"type":"Point","coordinates":[33.8103198291512,-5.1010027795118]}},{"type":"Feature","properties":{"id":5554,"title":"Ibugule","status":"PUBLISHED","created":"2018","lastUpdated":"2018","lastActive":"no","area":216.3150509902929,"changesets":0,"mappers":0,"roads":0,"buildings":0,"edits":0,"latest":null},"geometry":{"type":"Point","coordinates":[35.5318205113061,-6.39091426956685]}},{"type":"Feature","properties":{"id":5532,"title":"Bahi_Pilot","status":"PUBLISHED","created":"2018","lastUpdated":"2018","lastActive":"no","area":332.82676510382277,"changesets":1,"mappers":1,"roads":159.338500420196,"buildings":0,"edits":2,"latest":"2018-11-22T18:13:15.000Z"},"geometry":{"type":"Point","coordinates":[35.8282202770526,-5.78331947358886]}},{"type":"Feature","properties":{"id":4335,"title":"Tanzania Development Trust: Urambo Community Mapping Project","status":"ARCHIVED","created":"2018","lastUpdated":"2018","lastActive":"no","area":22.72434812488303,"changesets":539,"mappers":76,"roads":209.42903890829,"buildings":7236,"edits":9333,"latest":"2018-03-25T09:46:55.000Z"},"geometry":{"type":"Point","coordinates":[32.0763834649408,-5.08236418614099]}},{"type":"Feature","properties":{"id":4329,"title":"Tanzania Development Trust: Chabuhora Karagwe Community Mapping Project","status":"ARCHIVED","created":"2018","lastUpdated":"2018","lastActive":"no","area":29.098942849205926,"changesets":337,"mappers":36,"roads":136.59546293545,"buildings":2260,"edits":3376,"latest":"2018-03-20T08:56:00.000Z"},"geometry":{"type":"Point","coordinates":[30.9793967385239,-1.78282439868476]}},{"type":"Feature","properties":{"id":2142,"title":"Earthquake in Uganda and Tanzania, 10/09/2016 - Road Network Mapping","status":"ARCHIVED","created":"2016","lastUpdated":"2016","lastActive":"no","area":4547.282461398547,"changesets":2055,"mappers":153,"roads":8021.40300882304,"buildings":8543,"edits":65009,"latest":"2016-09-29T20:47:06.000Z"},"geometry":{"type":"Point","coordinates":[31.5381716128231,-1.0830246554389]}},{"type":"Feature","properties":{"id":2149,"title":"Earthquake in Uganda and Tanzania, 10/09/2016 - Bukoba Buildings Mapping","status":"ARCHIVED","created":"2016","lastUpdated":"2016","lastActive":"no","area":31.690178701237453,"changesets":993,"mappers":43,"roads":31.6646699010167,"buildings":26227,"edits":27057,"latest":"2017-01-06T13:44:11.000Z"},"geometry":{"type":"Point","coordinates":[31.8096442169796,-1.32589362270035]}},{"type":"Feature","properties":{"id":2159,"title":"Earthquake in Uganda and Tanzania, 10/09/2016 - NW of Bukoba Buildings Mapping","status":"ARCHIVED","created":"2016","lastUpdated":"2016","lastActive":"no","area":35.25230685743545,"changesets":692,"mappers":35,"roads":17.305928804687,"buildings":7977,"edits":8616,"latest":"2016-09-19T09:02:48.000Z"},"geometry":{"type":"Point","coordinates":[31.764514331462,-1.30982429531606]}},{"type":"Feature","properties":{"id":4357,"title":"Tanzania Development Trust: Rungwe Kasulu Community Mapping Project","status":"ARCHIVED","created":"2018","lastUpdated":"2018","lastActive":"no","area":1013.1767777919853,"changesets":5552,"mappers":409,"roads":4999.48387166668,"buildings":20822,"edits":49162,"latest":"2018-06-17T14:10:03.000Z"},"geometry":{"type":"Point","coordinates":[30.2493018751241,-4.77015701562809]}},{"type":"Feature","properties":{"id":4406,"title":"Tanzania Development Trust: Kyaibumba Community Mapping Project","status":"ARCHIVED","created":"2018","lastUpdated":"2018","lastActive":"no","area":14.678296379059542,"changesets":158,"mappers":30,"roads":133.357573789262,"buildings":795,"edits":1536,"latest":"2018-04-09T12:26:56.000Z"},"geometry":{"type":"Point","coordinates":[31.4548536327291,-1.9073101465972]}},{"type":"Feature","properties":{"id":4325,"title":"Tanzania Development Trust: Kakuraijo Karagwe Community Mapping Project","status":"ARCHIVED","created":"2018","lastUpdated":"2018","lastActive":"no","area":26.03432942227103,"changesets":294,"mappers":21,"roads":200.728606871569,"buildings":2268,"edits":3280,"latest":"2018-03-19T17:29:04.000Z"},"geometry":{"type":"Point","coordinates":[30.9998529759753,-1.76362344469638]}},{"type":"Feature","properties":{"id":4316,"title":"Tanzania Development Trust: Ngara Community Mapping Project","status":"ARCHIVED","created":"2018","lastUpdated":"2018","lastActive":"no","area":5.680090353476652,"changesets":293,"mappers":44,"roads":80.4486420340574,"buildings":3478,"edits":4114,"latest":"2018-03-30T14:34:54.000Z"},"geometry":{"type":"Point","coordinates":[30.6563660461257,-2.51312893241178]}},{"type":"Feature","properties":{"id":5647,"title":"Tanzania missing buildings Siha District","status":"PUBLISHED","created":"2019","lastUpdated":"2019","lastActive":"yes","area":404.1893876351622,"changesets":1536,"mappers":105,"roads":18.5677903791601,"buildings":13108,"edits":13249,"latest":"2019-01-17T21:56:13.000Z"},"geometry":{"type":"Point","coordinates":[37.0437639036429,-3.1655500182464]}},{"type":"Feature","properties":{"id":5011,"title":"Jangwani","status":"PUBLISHED","created":"2018","lastUpdated":"2018","lastActive":"no","area":0.6459967593125133,"changesets":490,"mappers":40,"roads":0.568461679535798,"buildings":3198,"edits":3929,"latest":"2018-09-21T12:34:17.000Z"},"geometry":{"type":"Point","coordinates":[39.2733984600485,-6.81599868171233]}},{"type":"Feature","properties":{"id":5027,"title":"Ilala","status":"PUBLISHED","created":"2018","lastUpdated":"2018","lastActive":"no","area":2.1401569895589914,"changesets":990,"mappers":36,"roads":0.685158972388243,"buildings":8391,"edits":9512,"latest":"2018-09-05T11:06:57.000Z"},"geometry":{"type":"Point","coordinates":[39.2595696928926,-6.82787629400169]}},{"type":"Feature","properties":{"id":4281,"title":"Tanzania Development Trust: Muleba Community Mapping Project","status":"ARCHIVED","created":"2018","lastUpdated":"2018","lastActive":"no","area":7.595025994574089,"changesets":807,"mappers":46,"roads":152.380940730158,"buildings":3685,"edits":5608,"latest":"2018-03-14T04:07:41.000Z"},"geometry":{"type":"Point","coordinates":[31.6560461932452,-1.84575729647524]}},{"type":"Feature","properties":{"id":4260,"title":"Lindi - Mini Grids","status":"PUBLISHED","created":"2018","lastUpdated":"2019","lastActive":"no","area":235.67207484051517,"changesets":188,"mappers":25,"roads":23.0772655825376,"buildings":5991,"edits":6412,"latest":"2019-01-08T10:18:31.000Z"},"geometry":{"type":"Point","coordinates":[39.1930035755225,-10.7075182203544]}},{"type":"Feature","properties":{"id":5029,"title":"Kigogo","status":"PUBLISHED","created":"2018","lastUpdated":"2018","lastActive":"no","area":1.919044857626449,"changesets":1335,"mappers":37,"roads":2.99758976000865,"buildings":13712,"edits":15491,"latest":"2018-08-31T08:16:38.000Z"},"geometry":{"type":"Point","coordinates":[39.245687327176,-6.81863004202305]}},{"type":"Feature","properties":{"id":4955,"title":"Msigani, Dar es Salaam - Ramani Huria 2.0","status":"PUBLISHED","created":"2018","lastUpdated":"2019","lastActive":"no","area":14.732300581422955,"changesets":75,"mappers":19,"roads":0.408947956373816,"buildings":768,"edits":791,"latest":"2018-08-31T08:18:28.000Z"},"geometry":{"type":"Point","coordinates":[39.1166689708451,-6.80285279520175]}},{"type":"Feature","properties":{"id":3459,"title":"Tanzania Development Trust: Nshamba Community Mapping Project","status":"ARCHIVED","created":"2017","lastUpdated":"2017","lastActive":"no","area":46.014908284249266,"changesets":1320,"mappers":99,"roads":645.897463633865,"buildings":7191,"edits":20283,"latest":"2017-09-08T21:24:18.000Z"},"geometry":{"type":"Point","coordinates":[31.5612210026871,-1.7322936400178]}},{"type":"Feature","properties":{"id":5423,"title":"Tanzania missing buildings Karatu District","status":"ARCHIVED","created":"2018","lastUpdated":"2019","lastActive":"no","area":0.4165335894023015,"changesets":12,"mappers":1,"roads":0,"buildings":22,"edits":22,"latest":"2019-01-04T20:37:22.000Z"},"geometry":{"type":"Point","coordinates":[35.4373928599897,-3.66531133905769]}},{"type":"Feature","properties":{"id":5556,"title":"Kigwe","status":"PUBLISHED","created":"2018","lastUpdated":"2018","lastActive":"no","area":162.81242472936432,"changesets":1,"mappers":1,"roads":0,"buildings":2,"edits":2,"latest":"2018-12-06T16:28:42.000Z"},"geometry":{"type":"Point","coordinates":[35.5034119238305,-6.15149765637834]}},{"type":"Feature","properties":{"id":4495,"title":"Lindi, Lindi, Tanzania Mini Grids Project 04","status":"PUBLISHED","created":"2018","lastUpdated":"2018","lastActive":"no","area":2400.161505147141,"changesets":1774,"mappers":65,"roads":3.81934683994176,"buildings":47301,"edits":47458,"latest":"2018-06-29T06:39:00.000Z"},"geometry":{"type":"Point","coordinates":[39.6414025297716,-10.1822589125545]}},{"type":"Feature","properties":{"id":5541,"title":"Babayu","status":"PUBLISHED","created":"2018","lastUpdated":"2018","lastActive":"no","area":291.1572465623741,"changesets":0,"mappers":0,"roads":0,"buildings":0,"edits":0,"latest":null},"geometry":{"type":"Point","coordinates":[35.6844455201668,-5.68286034293222]}},{"type":"Feature","properties":{"id":5493,"title":"Tanzania missing buildings Kiteto District","status":"PUBLISHED","created":"2018","lastUpdated":"2018","lastActive":"no","area":1290.482831031305,"changesets":4946,"mappers":402,"roads":284.299512866383,"buildings":24586,"edits":26179,"latest":"2018-12-30T07:19:30.000Z"},"geometry":{"type":"Point","coordinates":[36.7472050387162,-5.46671531227146]}},{"type":"Feature","properties":{"id":5131,"title":"Mwanga","status":"PUBLISHED","created":"2018","lastUpdated":"2018","lastActive":"no","area":3782.6420454970325,"changesets":569,"mappers":80,"roads":7.81830506173643,"buildings":21219,"edits":21349,"latest":"2018-09-05T19:32:28.000Z"},"geometry":{"type":"Point","coordinates":[37.5770749373082,-3.7639028140101]}},{"type":"Feature","properties":{"id":5174,"title":"Mbeya_Mbalizi","status":"PUBLISHED","created":"2018","lastUpdated":"2018","lastActive":"no","area":0.31206553705644136,"changesets":208,"mappers":40,"roads":1.60956563124592,"buildings":951,"edits":970,"latest":"2018-09-07T11:27:13.000Z"},"geometry":{"type":"Point","coordinates":[33.35435503872,-8.94534240301126]}},{"type":"Feature","properties":{"id":3670,"title":"Zanzibar Roads - Unguja Island - 03","status":"PUBLISHED","created":"2017","lastUpdated":"2018","lastActive":"no","area":891.0473088683418,"changesets":412,"mappers":18,"roads":2063.39671273259,"buildings":162,"edits":11431,"latest":"2018-09-29T05:14:47.000Z"},"geometry":{"type":"Point","coordinates":[39.4232119996911,-6.23876844212124]}},