{"totalEdits":44341303,"totalBuildings":36909353,"totalRoads":930718.378740419,"mappersOnline":81,"totalTasksMapped":1760901,"totalMappers":151801,"totalProjects":4291,"Philippines":[{"type":"Feature","properties":{"id":5482,"title":"Samar Western, Philippines - Mapping for Food Security","status":"PUBLISHED","created":"2018","lastUpdated":"2018","lastActive":"no","area":5475.406235248917,"changesets":253,"mappers":54,"roads":39.9657951245532,"buildings":2105,"edits":2340,"latest":"2018-12-16T20:16:36.000Z"},"geometry":{"type":"Point","coordinates":[124.94054745821,11.8428113562351]}},{"type":"Feature","properties":{"id":768,"title":"Bohol Island, Philippines OpenRoad project, Part I -- MapGive","status":"PUBLISHED","created":"2014","lastUpdated":"2017","lastActive":"no","area":457.54507236444925,"changesets":0,"mappers":0,"roads":0,"buildings":0,"edits":0,"latest":null},"geometry":{"type":"Point","coordinates":[124.329666907057,9.77175880408418]}},{"type":"Feature","properties":{"id":1509,"title":"Northern Cebu Risk Mapping Project - Daanbantayan and Medellin","status":"PUBLISHED","created":"2016","lastUpdated":"2018","lastActive":"no","area":165.4687088247908,"changesets":738,"mappers":125,"roads":62.7229363982263,"buildings":15949,"edits":19110,"latest":"2018-08-25T04:09:52.000Z"},"geometry":{"type":"Point","coordinates":[124.000804368288,11.18293581575]}},{"type":"Feature","properties":{"id":504,"title":"General Santos City, Philippines","status":"PUBLISHED","created":"2014","lastUpdated":"2017","lastActive":"no","area":41.853759664341574,"changesets":0,"mappers":0,"roads":0,"buildings":0,"edits":0,"latest":null},"geometry":{"type":"Point","coordinates":[125.166194433626,6.1255914338959]}},{"type":"Feature","properties":{"id":130,"title":"Montevista - Typhoon Bopha/Pablo","status":"ARCHIVED","created":"2012","lastUpdated":"2018","lastActive":"no","area":110.23855036305432,"changesets":82,"mappers":10,"roads":4.82485946046969,"buildings":20218,"edits":20373,"latest":"2018-04-15T04:17:20.000Z"},"geometry":{"type":"Point","coordinates":[125.991462794654,7.70103952234117]}},{"type":"Feature","properties":{"id":5458,"title":"Mindanao Region, Misamis Oriental (southern), Philippines - Food Security","status":"PUBLISHED","created":"2018","lastUpdated":"2018","lastActive":"no","area":1277.0811871734315,"changesets":107,"mappers":11,"roads":12.3446250735719,"buildings":247,"edits":296,"latest":"2018-12-06T14:25:01.000Z"},"geometry":{"type":"Point","coordinates":[124.513786993793,8.45080046521423]}},{"type":"Feature","properties":{"id":1458,"title":"Northern Cebu Risk Mapping Project - Bogo City","status":"ARCHIVED","created":"2016","lastUpdated":"2018","lastActive":"no","area":185.2414334365492,"changesets":579,"mappers":66,"roads":60.0266484741038,"buildings":23617,"edits":26886,"latest":"2017-02-15T08:51:57.000Z"},"geometry":{"type":"Point","coordinates":[123.993777935566,11.0245272303029]}},{"type":"Feature","properties":{"id":4792,"title":"CRS-UP NOAH Building Footprints Mapping - Navotas","status":"PUBLISHED","created":"2018","lastUpdated":"2018","lastActive":"no","area":10.600105663775858,"changesets":89,"mappers":24,"roads":2.5162272456996,"buildings":3294,"edits":3363,"latest":"2018-10-22T01:34:25.000Z"},"geometry":{"type":"Point","coordinates":[120.935847530772,14.6751386840264]}},{"type":"Feature","properties":{"id":5234,"title":"Typhoon Ompong: Isabela Structures 1","status":"PUBLISHED","created":"2018","lastUpdated":"2018","lastActive":"yes","area":3692.327955202936,"changesets":7765,"mappers":369,"roads":1333.03687661383,"buildings":66972,"edits":71775,"latest":"2018-12-20T14:46:26.000Z"},"geometry":{"type":"Point","coordinates":[122.204399806909,16.9572292235093]}},{"type":"Feature","properties":{"id":5256,"title":"Post-Disaster Mapping in Brgy. Naalad and Brgy. Tinaan, Naga City, Cebu","status":"ARCHIVED","created":"2018","lastUpdated":"2018","lastActive":"no","area":4.081334180056122,"changesets":81,"mappers":14,"roads":0.541248657808227,"buildings":2559,"edits":2569,"latest":"2018-09-21T20:43:42.000Z"},"geometry":{"type":"Point","coordinates":[123.744010558498,10.2094401920945]}},{"type":"Feature","properties":{"id":2109,"title":"DOST-Project NOAH (ISAIAH) Structures Map Up Leyte Island","status":"PUBLISHED","created":"2016","lastUpdated":"2017","lastActive":"no","area":15287.575096873534,"changesets":1323,"mappers":77,"roads":6.95731933027256,"buildings":115847,"edits":116459,"latest":"2017-02-24T15:20:26.000Z"},"geometry":{"type":"Point","coordinates":[124.828453753641,10.6947256509807]}},{"type":"Feature","properties":{"id":4614,"title":"CRS-UP NOAH Building Footprints Mapping - Taytay, Rizal","status":"PUBLISHED","created":"2018","lastUpdated":"2018","lastActive":"no","area":28.563349406234973,"changesets":1480,"mappers":18,"roads":4.80807505973405,"buildings":12745,"edits":13466,"latest":"2018-12-01T19:12:43.000Z"},"geometry":{"type":"Point","coordinates":[121.134490228351,14.5550143740611]}},{"type":"Feature","properties":{"id":5414,"title":"Luzon, Philippines - Missing Roads Validation","status":"PUBLISHED","created":"2018","lastUpdated":"2018","lastActive":"no","area":248.88650639067384,"changesets":0,"mappers":0,"roads":0,"buildings":0,"edits":0,"latest":null},"geometry":{"type":"Point","coordinates":[120.98845026101,14.837542318174]}},{"type":"Feature","properties":{"id":4993,"title":"Settlement mapping exercise - Lake Sebu, SCO, PH","status":"ARCHIVED","created":"2018","lastUpdated":"2018","lastActive":"no","area":12.139239685454037,"changesets":267,"mappers":30,"roads":70.6333937889701,"buildings":3978,"edits":4426,"latest":"2018-09-20T04:03:14.000Z"},"geometry":{"type":"Point","coordinates":[124.674894947625,6.24324411286153]}},{"type":"Feature","properties":{"id":5233,"title":"Typhoon Ompong Pre-Disaster Mapping","status":"ARCHIVED","created":"2018","lastUpdated":"2018","lastActive":"no","area":127819.30061766622,"changesets":41,"mappers":7,"roads":11.7899762817965,"buildings":1658,"edits":1702,"latest":"2018-09-14T07:52:55.000Z"},"geometry":{"type":"Point","coordinates":[121.330786294589,17.5606666310015]}},{"type":"Feature","properties":{"id":1888,"title":"DOST-Project NOAH (ISAIAH) Structures Map Up Bataan","status":"PUBLISHED","created":"2016","lastUpdated":"2017","lastActive":"no","area":2696.6107231235264,"changesets":1334,"mappers":27,"roads":8.19466885708856,"buildings":178984,"edits":180369,"latest":"2017-05-08T03:38:27.000Z"},"geometry":{"type":"Point","coordinates":[120.439364744064,14.5994934293397]}},{"type":"Feature","properties":{"id":5459,"title":"Mindanao Region, Bukindon, Philippines - Mapping for Food Security","status":"PUBLISHED","created":"2018","lastUpdated":"2018","lastActive":"no","area":9159.72862244662,"changesets":10103,"mappers":66,"roads":214.213544223019,"buildings":42752,"edits":43616,"latest":"2018-12-03T20:11:56.000Z"},"geometry":{"type":"Point","coordinates":[124.998487237751,8.02006279209236]}},{"type":"Feature","properties":{"id":5450,"title":"Palawan Region, Puerto Princesa, Philippines - Mapping for Food Security","status":"PUBLISHED","created":"2018","lastUpdated":"2018","lastActive":"no","area":2190.244662288019,"changesets":741,"mappers":58,"roads":531.023365959974,"buildings":9671,"edits":10956,"latest":"2018-12-18T13:39:14.000Z"},"geometry":{"type":"Point","coordinates":[118.768679315277,9.90739394513733]}},{"type":"Feature","properties":{"id":1636,"title":"DOST-Project NOAH (ISAIAH) Structures Map Up Cavite","status":"PUBLISHED","created":"2016","lastUpdated":"2017","lastActive":"no","area":1236.7930267854183,"changesets":11018,"mappers":38,"roads":25.913009487454,"buildings":811687,"edits":826206,"latest":"2018-07-25T08:21:28.000Z"},"geometry":{"type":"Point","coordinates":[120.869224835751,14.2555520122718]}},{"type":"Feature","properties":{"id":5463,"title":"Mountain Province, Philippines - Mapping for Food Security","status":"PUBLISHED","created":"2018","lastUpdated":"2018","lastActive":"no","area":2140.5000592203664,"changesets":585,"mappers":37,"roads":56.8467069600774,"buildings":4437,"edits":4909,"latest":"2018-12-11T13:40:01.000Z"},"geometry":{"type":"Point","coordinates":[121.132380011647,17.1004779818524]}},{"type":"Feature","properties":{"id":5461,"title":"South Cotabato, Philippines - Mapping for Food Security","status":"PUBLISHED","created":"2018","lastUpdated":"2018","lastActive":"no","area":4377.041737939115,"changesets":234,"mappers":53,"roads":138.819512245299,"buildings":4225,"edits":4771,"latest":"2018-12-10T13:32:03.000Z"},"geometry":{"type":"Point","coordinates":[124.84600611185,6.2825458303774]}},{"type":"Feature","properties":{"id":1684,"title":"DOST-Project NOAH (ISAIAH) Structures Map Up Camiguin","status":"ARCHIVED","created":"2016","lastUpdated":"2016","lastActive":"no","area":351.61522584790544,"changesets":0,"mappers":0,"roads":0,"buildings":0,"edits":0,"latest":null},"geometry":{"type":"Point","coordinates":[124.724050743749,9.17473306441151]}},{"type":"Feature","properties":{"id":2979,"title":"Barangay Lanawan, MacArthur, Leyte - Missing Maps","status":"ARCHIVED","created":"2017","lastUpdated":"2017","lastActive":"no","area":0.0917228914938338,"changesets":21,"mappers":5,"roads":0.469853684785577,"buildings":200,"edits":230,"latest":"2017-07-06T18:56:17.000Z"},"geometry":{"type":"Point","coordinates":[124.859780631027,10.8566078034693]}},{"type":"Feature","properties":{"id":1055,"title":"Bohol Island, Philippines OpenRoad project, Part III -- MapGive","status":"PUBLISHED","created":"2015","lastUpdated":"2017","lastActive":"no","area":167.18586226424708,"changesets":0,"mappers":0,"roads":0,"buildings":0,"edits":0,"latest":null},"geometry":{"type":"Point","coordinates":[124.050913486072,9.6513521536648]}},{"type":"Feature","properties":{"id":5523,"title":"Post-Disaster Mapping in Brgy Cantao-An, Naga City, Cebu","status":"PUBLISHED","created":"2018","lastUpdated":"2018","lastActive":"no","area":8.578373136287787,"changesets":257,"mappers":8,"roads":0.0144907976786474,"buildings":1560,"edits":1566,"latest":"2018-11-26T21:11:14.000Z"},"geometry":{"type":"Point","coordinates":[123.751319151188,10.2496391615833]}},{"type":"Feature","properties":{"id":969,"title":"Maguindanao Internally Displaced People Mapping","status":"ARCHIVED","created":"2015","lastUpdated":"2015","lastActive":"no","area":874.6779099535637,"changesets":70,"mappers":15,"roads":48.0968166399096,"buildings":1242,"edits":1584,"latest":"2017-02-03T14:07:13.000Z"},"geometry":{"type":"Point","coordinates":[124.455666113863,6.93376559749209]}},{"type":"Feature","properties":{"id":5465,"title":"Samar North, Philippines - Mapping for Food Security","status":"PUBLISHED","created":"2018","lastUpdated":"2018","lastActive":"no","area":3415.086756157814,"changesets":221,"mappers":59,"roads":51.0077313274416,"buildings":5597,"edits":6024,"latest":"2018-12-04T13:37:13.000Z"},"geometry":{"type":"Point","coordinates":[124.789879432047,12.4134374698783]}},{"type":"Feature","properties":{"id":5483,"title":"Samar Eastern, Philippines - Mapping for Food Security","status":"PUBLISHED","created":"2018","lastUpdated":"2018","lastActive":"no","area":4305.267408054197,"changesets":173,"mappers":55,"roads":28.1269868083261,"buildings":1318,"edits":1570,"latest":"2018-12-11T21:42:16.000Z"},"geometry":{"type":"Point","coordinates":[125.380313420073,11.6564103271826]}},{"type":"Feature","properties":{"id":4875,"title":"Lake Sebu village mapping exercise - P.M. Session","status":"ARCHIVED","created":"2018","lastUpdated":"2018","lastActive":"no","area":0.32577374851661883,"changesets":105,"mappers":17,"roads":12.6115966598724,"buildings":832,"edits":887,"latest":"2018-09-04T00:32:09.000Z"},"geometry":{"type":"Point","coordinates":[124.716714184942,6.271670922273]}},{"type":"Feature","properties":{"id":3087,"title":"Barangay San Isidro, MacArthur, Leyte - Missing Maps","status":"ARCHIVED","created":"2017","lastUpdated":"2017","lastActive":"no","area":0.674632620070128,"changesets":57,"mappers":3,"roads":2.50378810972398,"buildings":602,"edits":761,"latest":"2017-07-06T20:26:56.000Z"},"geometry":{"type":"Point","coordinates":[124.991284417095,10.8352369625479]}},{"type":"Feature","properties":{"id":4874,"title":"Lake Sebu village mapping exercise - A.M. Session","status":"ARCHIVED","created":"2018","lastUpdated":"2018","lastActive":"no","area":0.3850677131208663,"changesets":89,"mappers":12,"roads":2.37643701969865,"buildings":293,"edits":329,"latest":"2018-07-31T11:08:31.000Z"},"geometry":{"type":"Point","coordinates":[124.724594976853,6.29004664300618]}},{"type":"Feature","properties":{"id":5569,"title":"Post-Disaster Mapping in Brgy Uling and Brgy. Pangdan, Naga City, Cebu","status":"PUBLISHED","created":"2018","lastUpdated":"2018","lastActive":"no","area":15.048594361484898,"changesets":191,"mappers":17,"roads":1.59122621032686,"buildings":2435,"edits":2450,"latest":"2018-12-05T04:51:57.000Z"},"geometry":{"type":"Point","coordinates":[123.721821915621,10.267601668473]}},{"type":"Feature","properties":{"id":4793,"title":"CRS-UP NOAH Building Footprints Mapping - Meycauayan, Bulacan","status":"PUBLISHED","created":"2018","lastUpdated":"2018","lastActive":"no","area":31.969074351640266,"changesets":571,"mappers":62,"roads":18.1002836567397,"buildings":9560,"edits":10821,"latest":"2018-09-28T05:07:19.000Z"},"geometry":{"type":"Point","coordinates":[120.967937667105,14.752384032173]}},{"type":"Feature","properties":{"id":1886,"title":"DOST-Project NOAH (ISAIAH) Structures Map Up Batangas","status":"PUBLISHED","created":"2016","lastUpdated":"2017","lastActive":"no","area":6798.780760709117,"changesets":10003,"mappers":40,"roads":94.9559896570111,"buildings":588946,"edits":597194,"latest":"2017-02-10T08:57:51.000Z"},"geometry":{"type":"Point","coordinates":[120.950002895498,13.8394478780543]}},{"type":"Feature","properties":{"id":5435,"title":"Mindanao Region, Misamis Oriental (northern), Philippines - Mapping for Food Security","status":"PUBLISHED","created":"2018","lastUpdated":"2018","lastActive":"no","area":2072.929989519479,"changesets":339,"mappers":39,"roads":179.949825684978,"buildings":7380,"edits":7898,"latest":"2018-11-29T20:40:41.000Z"},"geometry":{"type":"Point","coordinates":[124.994799793291,8.76680642717642]}},{"type":"Feature","properties":{"id":1996,"title":"DOST-Project NOAH (ISAIAH) Structures Map Up Ilocos Norte","status":"PUBLISHED","created":"2016","lastUpdated":"2017","lastActive":"no","area":5561.793445652042,"changesets":1561,"mappers":31,"roads":43.1422797282113,"buildings":176734,"edits":180128,"latest":"2017-05-31T02:07:52.000Z"},"geometry":{"type":"Point","coordinates":[120.666972769811,18.2736938402559]}},{"type":"Feature","properties":{"id":5451,"title":"Post-Disaster Mapping in Naga City, Cebu","status":"PUBLISHED","created":"2018","lastUpdated":"2018","lastActive":"no","area":19.413583273770467,"changesets":495,"mappers":4,"roads":0.0923940195778522,"buildings":8062,"edits":8079,"latest":"2018-11-28T03:21:09.000Z"},"geometry":{"type":"Point","coordinates":[123.73523094522,10.2051171544122]}},{"type":"Feature","properties":{"id":5421,"title":"PRC-VCAD project sites","status":"PUBLISHED","created":"2018","lastUpdated":"2018","lastActive":"no","area":1978.0745869605585,"changesets":9,"mappers":2,"roads":23.8884778366055,"buildings":184,"edits":542,"latest":"2018-11-06T15:36:38.000Z"},"geometry":{"type":"Point","coordinates":[122.624235299629,12.3256284958559]}},{"type":"Feature","properties":{"id":2726,"title":"NOAH-UNICEF: Mapping Paracale, Camarines Norte","status":"PUBLISHED","created":"2017","lastUpdated":"2018","lastActive":"no","area":158.35118879223091,"changesets":63,"mappers":3,"roads":104.215381930902,"buildings":29534,"edits":30496,"latest":"2018-05-19T20:34:57.000Z"},"geometry":{"type":"Point","coordinates":[122.774434936295,14.2544603824519]}},{"type":"Feature","properties":{"id":3771,"title":"Missing Maps: Barangay Santiago, Alang Alang, Leyte, Philippines","status":"PUBLISHED","created":"2017","lastUpdated":"2018","lastActive":"no","area":0.8479729148703923,"changesets":14,"mappers":4,"roads":5.85505912721407,"buildings":335,"edits":456,"latest":"2017-11-04T23:35:40.000Z"},"geometry":{"type":"Point","coordinates":[124.810036729202,11.2001524051639]}},{"type":"Feature","properties":{"id":806,"title":"Untitled project","status":"ARCHIVED","created":"2014","lastUpdated":"2014","lastActive":"no","area":190.12562277909845,"changesets":0,"mappers":0,"roads":0,"buildings":0,"edits":0,"latest":null},"geometry":{"type":"Point","coordinates":[124.307229605675,12.5248439779651]}},{"type":"Feature","properties":{"id":323,"title":"Candaba OSM Training","status":"ARCHIVED","created":"2013","lastUpdated":"2018","lastActive":"no","area":209.77469668523733,"changesets":52,"mappers":10,"roads":20.1433307318058,"buildings":1994,"edits":2151,"latest":"2018-08-30T10:09:20.000Z"},"geometry":{"type":"Point","coordinates":[120.873071297064,15.1025593388547]}},{"type":"Feature","properties":{"id":1887,"title":"DOST-Project NOAH (ISAIAH) Structures Map Up Biliran","status":"ARCHIVED","created":"2016","lastUpdated":"2016","lastActive":"no","area":1928.294953086056,"changesets":517,"mappers":14,"roads":1.01840649614272,"buildings":48559,"edits":48868,"latest":"2016-11-27T13:52:51.000Z"},"geometry":{"type":"Point","coordinates":[124.424880553559,11.6437158228028]}},{"type":"Feature","properties":{"id":5509,"title":"Davao Del Norte, Philippines - Mapping for Food Security","status":"PUBLISHED","created":"2018","lastUpdated":"2018","lastActive":"no","area":3417.6948638592276,"changesets":322,"mappers":45,"roads":252.374496190855,"buildings":4504,"edits":5385,"latest":"2018-12-18T13:40:01.000Z"},"geometry":{"type":"Point","coordinates":[125.637002427792,7.58944067290552]}},{"type":"Feature","properties":{"id":1884,"title":"DOST-Project NOAH (ISAIAH) Structures Map Up Abra","status":"PUBLISHED","created":"2016","lastUpdated":"2017","lastActive":"no","area":3947.985752759589,"changesets":667,"mappers":23,"roads":15.8749668209089,"buildings":113153,"edits":113454,"latest":"2017-02-17T09:44:19.000Z"},"geometry":{"type":"Point","coordinates":[120.803133991024,17.5732312331836]}},{"type":"Feature","properties":{"id":3240,"title":"Barangay Penalosa, Alang Alang, Leyte, Philippines - Missing Maps","status":"ARCHIVED","created":"2017","lastUpdated":"2017","lastActive":"no","area":0.6747688693036419,"changesets":80,"mappers":10,"roads":6.15107538342412,"buildings":577,"edits":820,"latest":"2017-11-10T18:21:36.000Z"},"geometry":{"type":"Point","coordinates":[124.850142059389,11.1631329700222]}},{"type":"Feature","properties":{"id":1129,"title":"Missing Maps: Leyte, Philippines","status":"ARCHIVED","created":"2015","lastUpdated":"2018","lastActive":"no","area":2074.0908593867607,"changesets":1476,"mappers":138,"roads":311.791256576186,"buildings":44244,"edits":48213,"latest":"2016-11-14T07:34:35.000Z"},"geometry":{"type":"Point","coordinates":[124.910418932556,10.55833419935]}},{"type":"Feature","properties":{"id":3300,"title":"Barangay Marasbaras, Tacloban, Leyte - Missing Maps","status":"PUBLISHED","created":"2017","lastUpdated":"2018","lastActive":"no","area":7.807989010258504,"changesets":126,"mappers":9,"roads":5.10115868250806,"buildings":3434,"edits":3775,"latest":"2018-06-28T16:24:02.000Z"},"geometry":{"type":"Point","coordinates":[125.011197546024,11.2052982929983]}},{"type":"Feature","properties":{"id":378,"title":"Mapping in Cavite, Philippines - SA activities","status":"PUBLISHED","created":"2013","lastUpdated":"2018","lastActive":"no","area":347.85007544928436,"changesets":0,"mappers":0,"roads":0,"buildings":0,"edits":0,"latest":null},"geometry":{"type":"Point","coordinates":[120.96912122858,14.4290195177527]}},{"type":"Feature","properties":{"id":1157,"title":"Philippines: Silvinos Lobos","status":"PUBLISHED","created":"2015","lastUpdated":"2017","lastActive":"no","area":6.207303897148626,"changesets":292,"mappers":16,"roads":26.35312779277,"buildings":544,"edits":804,"latest":"2015-12-16T07:22:58.000Z"},"geometry":{"type":"Point","coordinates":[124.83818270349,12.3273031786335]}},{"type":"Feature","properties":{"id":1885,"title":"DOST-Project NOAH (ISAIAH) Structures Map Up La Union","status":"PUBLISHED","created":"2016","lastUpdated":"2018","lastActive":"no","area":2912.909394539788,"changesets":301,"mappers":21,"roads":2.28880777917863,"buildings":40198,"edits":41302,"latest":"2018-06-24T04:08:57.000Z"},"geometry":{"type":"Point","coordinates":[120.344232157866,16.5775015179722]}},{"type":"Feature","properties":{"id":2059,"title":"DOST-Project NOAH (ISAIAH) Structures Map Up Taguig City","status":"PUBLISHED","created":"2016","lastUpdated":"2017","lastActive":"no","area":36.87283084272823,"changesets":4328,"mappers":22,"roads":2.4293822761857,"buildings":85702,"edits":88012,"latest":"2017-01-13T04:08:01.000Z"},"geometry":{"type":"Point","coordinates":[121.060318398119,14.5189720719609]}},{"type":"Feature","properties":{"id":115,"title":"Typhoon Bopha/Pablo Response Eastern Mindanao Philippines","status":"ARCHIVED","created":"2012","lastUpdated":"2014","lastActive":"no","area":16387.592340836713,"changesets":292,"mappers":13,"roads":276.234321336455,"buildings":39143,"edits":41774,"latest":"2018-11-28T01:53:49.000Z"},"geometry":{"type":"Point","coordinates":[126.210497930795,7.78677618840503]}},{"type":"Feature","properties":{"id":133,"title":"Baganga - Typhoon Bopha/Pablo","status":"ARCHIVED","created":"2012","lastUpdated":"2018","lastActive":"no","area":148.7861752355768,"changesets":69,"mappers":12,"roads":133.600912887323,"buildings":13328,"edits":13762,"latest":"2018-11-23T08:46:03.000Z"},"geometry":{"type":"Point","coordinates":[126.545160760843,7.60391729996262]}},{"type":"Feature","properties":{"id":2724,"title":"NOAH-UNICEF: Mapping Mapanas, Northern Samar","status":"PUBLISHED","created":"2017","lastUpdated":"2017","lastActive":"no","area":132.45656122565023,"changesets":36,"mappers":2,"roads":0.547703860688767,"buildings":1607,"edits":1629,"latest":"2017-04-11T03:23:10.000Z"},"geometry":{"type":"Point","coordinates":[125.209204222824,12.4396239184066]}},{"type":"Feature","properties":{"id":3829,"title":"Barangay Talisay, Mayorga, Leyte - Missing Maps","status":"ARCHIVED","created":"2017","lastUpdated":"2018","lastActive":"no","area":2.270534722569991,"changesets":62,"mappers":14,"roads":4.94881595160742,"buildings":741,"edits":934,"latest":"2018-08-06T14:08:59.000Z"},"geometry":{"type":"Point","coordinates":[124.977423942551,10.9167877028129]}},{"type":"Feature","properties":{"id":3819,"title":"Barangay San Roque, Mayorga, Leyte  - Missing Maps","status":"ARCHIVED","created":"2017","lastUpdated":"2018","lastActive":"no","area":2.7046745085410087,"changesets":214,"mappers":36,"roads":17.6226150916672,"buildings":1551,"edits":2139,"latest":"2018-01-26T21:18:46.000Z"},"geometry":{"type":"Point","coordinates":[125.00829785497,10.890503893545]}},{"type":"Feature","properties":{"id":132,"title":"Cateel - Typhoon Bopha/Pablo","status":"ARCHIVED","created":"2012","lastUpdated":"2018","lastActive":"no","area":118.05073540481972,"changesets":611,"mappers":32,"roads":675096.121518929,"buildings":18286,"edits":47562,"latest":"2018-05-25T15:48:17.000Z"},"geometry":{"type":"Point","coordinates":[126.420080755638,7.78840326075831]}},{"type":"Feature","properties":{"id":505,"title":"Davao City, Philippines","status":"PUBLISHED","created":"2014","lastUpdated":"2017","lastActive":"no","area":62.25155048812598,"changesets":0,"mappers":0,"roads":0,"buildings":0,"edits":0,"latest":null},"geometry":{"type":"Point","coordinates":[125.611011823409,7.08791274995429]}},{"type":"Feature","properties":{"id":1966,"title":"DOST-Project NOAH (ISAIAH) Structures Map Up Zambales","status":"PUBLISHED","created":"2016","lastUpdated":"2017","lastActive":"no","area":4983.089272993,"changesets":1435,"mappers":43,"roads":365.581973632518,"buildings":214854,"edits":219213,"latest":"2018-01-23T07:13:14.000Z"},"geometry":{"type":"Point","coordinates":[120.101114604021,15.3021294986862]}},{"type":"Feature","properties":{"id":363,"title":"Typhoon Haiyan - Eastern Side of Panay Island ","status":"ARCHIVED","created":"2013","lastUpdated":"2017","lastActive":"no","area":5119.451144114698,"changesets":0,"mappers":0,"roads":0,"buildings":0,"edits":0,"latest":null},"geometry":{"type":"Point","coordinates":[122.82016392368,11.2188614872727]}},{"type":"Feature","properties":{"id":377,"title":"Mapping in San Nicolas, Philippines - SA activities","status":"PUBLISHED","created":"2013","lastUpdated":"2017","lastActive":"no","area":23.251952235661427,"changesets":0,"mappers":0,"roads":0,"buildings":0,"edits":0,"latest":null},"geometry":{"type":"Point","coordinates":[120.935493640075,13.933195025614]}},{"type":"Feature","properties":{"id":387,"title":"Mapping in Taal volcano, Philippines","status":"PUBLISHED","created":"2013","lastUpdated":"2016","lastActive":"no","area":71.85336636220062,"changesets":0,"mappers":0,"roads":0,"buildings":0,"edits":0,"latest":null},"geometry":{"type":"Point","coordinates":[120.99507413733,14.007640175295]}},{"type":"Feature","properties":{"id":4202,"title":"Mayon Volcano USAID & USGS","status":"PUBLISHED","created":"2018","lastUpdated":"2018","lastActive":"no","area":23.191221545963582,"changesets":509,"mappers":108,"roads":38.4903837034172,"buildings":8863,"edits":9277,"latest":"2018-12-06T02:41:21.000Z"},"geometry":{"type":"Point","coordinates":[123.716571523024,13.3049864402658]}}],"totalArea":2405433908.5695133,"Sri Lanka":[{"type":"Feature","properties":{"id":4898,"title":"Sri Lanka Flood Response 2018 Project 5a","status":"ARCHIVED","created":"2018","lastUpdated":"2018","lastActive":"no","area":179.65163946290278,"changesets":2927,"mappers":248,"roads":193.069581639356,"buildings":34905,"edits":36650,"latest":"2018-08-15T23:56:23.000Z"},"geometry":{"type":"Point","coordinates":[80.1312414069927,7.63594991832034]}},{"type":"Feature","properties":{"id":4634,"title":"Mapping tasks in Sri Lanka under HOT micro grant program â South Eastern University Mapathon","status":"PUBLISHED","created":"2018","lastUpdated":"2018","lastActive":"no","area":6.106000328591522,"changesets":0,"mappers":0,"roads":0,"buildings":0,"edits":0,"latest":null},"geometry":{"type":"Point","coordinates":[81.8575770996822,7.29290164413181]}},{"type":"Feature","properties":{"id":291,"title":"Colombo Training Tasks August 14-15","status":"ARCHIVED","created":"2013","lastUpdated":"2014","lastActive":"no","area":0.6142599677602866,"changesets":776,"mappers":22,"roads":820.126369521277,"buildings":407,"edits":8133,"latest":"2018-02-08T09:33:41.000Z"},"geometry":{"type":"Point","coordinates":[79.86747992742,6.91231626986856]}},{"type":"Feature","properties":{"id":5608,"title":"Mannar_OSM_training","status":"PUBLISHED","created":"2018","lastUpdated":"2018","lastActive":"yes","area":184.65988662474675,"changesets":7,"mappers":1,"roads":5.96962400847333,"buildings":35,"edits":47,"latest":"2018-12-20T11:28:23.000Z"},"geometry":{"type":"Point","coordinates":[80.0481820880392,8.76213373987731]}},{"type":"Feature","properties":{"id":2039,"title":"Sri Lanka: Mapping Road and Infrastructures for Disaster Preparedness and Resilience Part 5","status":"ARCHIVED","created":"2016","lastUpdated":"2017","lastActive":"no","area":1.3020853104475527,"changesets":85,"mappers":15,"roads":0.63917575763412,"buildings":742,"edits":780,"latest":"2016-08-03T06:18:25.000Z"},"geometry":{"type":"Point","coordinates":[79.8695816723527,6.90095151426009]}},{"type":"Feature","properties":{"id":3094,"title":"2017 Sri Lanka Floods: Mapping Road Network in Matara District, Southern Province (1/4)","status":"ARCHIVED","created":"2017","lastUpdated":"2017","lastActive":"no","area":57.82051916752654,"changesets":189,"mappers":32,"roads":228.347644818034,"buildings":1705,"edits":6497,"latest":"2017-11-07T16:32:25.000Z"},"geometry":{"type":"Point","coordinates":[80.5617580088427,5.96275227535477]}},{"type":"Feature","properties":{"id":2289,"title":"Eravur Pattu-Batticaloa ","status":"PUBLISHED","created":"2016","lastUpdated":"2016","lastActive":"no","area":612.1522617694706,"changesets":1638,"mappers":30,"roads":869.866514314418,"buildings":22373,"edits":31875,"latest":"2016-12-20T09:22:15.000Z"},"geometry":{"type":"Point","coordinates":[81.4678098651883,7.7096844283444]}},{"type":"Feature","properties":{"id":1913,"title":"Sri Lanka Floods: Western Kelani River Basin ","status":"ARCHIVED","created":"2016","lastUpdated":"2016","lastActive":"no","area":23.059058528392796,"changesets":2344,"mappers":203,"roads":135.372524192739,"buildings":62222,"edits":71497,"latest":"2016-07-19T09:11:19.000Z"},"geometry":{"type":"Point","coordinates":[79.9072588993895,6.95420045476413]}},{"type":"Feature","properties":{"id":977,"title":"SLIIT Class Project (Sri Lanka) / GIS  (IT402)  Assignment 2","status":"PUBLISHED","created":"2015","lastUpdated":"2017","lastActive":"no","area":164.98687359553134,"changesets":4,"mappers":1,"roads":0,"buildings":13,"edits":13,"latest":"2017-02-13T07:54:10.000Z"},"geometry":{"type":"Point","coordinates":[79.97452675,6.9145054]}},{"type":"Feature","properties":{"id":3708,"title":"Households Affected by the Rehabilitation of the Kelani Valley Railway Line in Sri Lanka (Phase I)","status":"PUBLISHED","created":"2017","lastUpdated":"2018","lastActive":"no","area":5.995576025848344,"changesets":2311,"mappers":515,"roads":41.6680929416682,"buildings":23957,"edits":26859,"latest":"2018-12-16T19:05:50.000Z"},"geometry":{"type":"Point","coordinates":[79.9209105034567,6.87211966062466]}},{"type":"Feature","properties":{"id":2598,"title":"OSM Training for IUCN Staffs","status":"PUBLISHED","created":"2017","lastUpdated":"2018","lastActive":"no","area":58.18505631979341,"changesets":0,"mappers":0,"roads":0,"buildings":0,"edits":0,"latest":null},"geometry":{"type":"Point","coordinates":[80.1602447183062,7.2019516446464]}},{"type":"Feature","properties":{"id":313,"title":"SAS Step3 Mini Project - Sri Lanka : OSM Training","status":"ARCHIVED","created":"2013","lastUpdated":"2017","lastActive":"no","area":48.0807668557531,"changesets":0,"mappers":0,"roads":0,"buildings":0,"edits":0,"latest":null},"geometry":{"type":"Point","coordinates":[79.9690480025353,6.6242133251257]}},{"type":"Feature","properties":{"id":4985,"title":"Sri Lanka Flood Response 2018 Project 5b","status":"ARCHIVED","created":"2018","lastUpdated":"2018","lastActive":"no","area":142.5021116333357,"changesets":2763,"mappers":265,"roads":152.565672610415,"buildings":26005,"edits":27550,"latest":"2018-09-17T03:44:15.000Z"},"geometry":{"type":"Point","coordinates":[80.2313798532753,7.54109684951636]}},{"type":"Feature","properties":{"id":332,"title":"Diyatalawa City Mapping - OSM Training, ISM Diyatalawa Nov 2013","status":"PUBLISHED","created":"2013","lastUpdated":"2017","lastActive":"no","area":7.288178889261445,"changesets":0,"mappers":0,"roads":0,"buildings":0,"edits":0,"latest":null},"geometry":{"type":"Point","coordinates":[80.9625900273405,6.80056904210767]}},{"type":"Feature","properties":{"id":4840,"title":"Sri Lanka Flood Response 2018 Project 4","status":"ARCHIVED","created":"2018","lastUpdated":"2018","lastActive":"no","area":597.8616558006948,"changesets":5007,"mappers":345,"roads":888.524929288393,"buildings":55918,"edits":60566,"latest":"2018-08-12T16:09:02.000Z"},"geometry":{"type":"Point","coordinates":[80.0806153944357,7.78809405408543]}},{"type":"Feature","properties":{"id":5404,"title":"ACAD_CSIAP_Anuradhapura","status":"PUBLISHED","created":"2018","lastUpdated":"2018","lastActive":"no","area":399.6231271330612,"changesets":156,"mappers":35,"roads":197.764264338451,"buildings":1609,"edits":2215,"latest":"2018-12-17T17:44:46.000Z"},"geometry":{"type":"Point","coordinates":[80.8028884410021,8.36854310592587]}},{"type":"Feature","properties":{"id":5388,"title":"Vavuniya_North_DS","status":"PUBLISHED","created":"2018","lastUpdated":"2018","lastActive":"no","area":658.7962746926382,"changesets":53,"mappers":16,"roads":130.371005664854,"buildings":1098,"edits":1889,"latest":"2018-12-19T09:02:21.000Z"},"geometry":{"type":"Point","coordinates":[80.5687869329996,9.00735565572628]}},{"type":"Feature","properties":{"id":1915,"title":"Sri Lanka Floods: Eastern Kelani River Basin ","status":"ARCHIVED","created":"2016","lastUpdated":"2017","lastActive":"no","area":59.888759762112365,"changesets":1108,"mappers":89,"roads":322.748928984902,"buildings":18157,"edits":22831,"latest":"2016-07-06T09:04:11.000Z"},"geometry":{"type":"Point","coordinates":[80.11932745338,6.9479771989806]}},{"type":"Feature","properties":{"id":5253,"title":"Sri Lanka Flood Response 2018 Project 6b","status":"ARCHIVED","created":"2018","lastUpdated":"2018","lastActive":"no","area":243.89814902158875,"changesets":6368,"mappers":648,"roads":194.8230915555,"buildings":70903,"edits":72807,"latest":"2018-11-14T20:19:30.000Z"},"geometry":{"type":"Point","coordinates":[80.2105580696691,7.35809774281115]}},{"type":"Feature","properties":{"id":3174,"title":"Community Landslide Risk Mitigation Project in Sri Lanka - Mapping Buildings and Roads in Haldummulla DS Division ","status":"PUBLISHED","created":"2017","lastUpdated":"2018","lastActive":"no","area":417.79066099162685,"changesets":203,"mappers":1,"roads":46.5544876677984,"buildings":2898,"edits":3322,"latest":"2018-05-02T09:25:50.000Z"},"geometry":{"type":"Point","coordinates":[80.9644692129254,6.7009520637358]}},{"type":"Feature","properties":{"id":5222,"title":"Vavuniya_DS_Division","status":"PUBLISHED","created":"2018","lastUpdated":"2018","lastActive":"no","area":620.7932164546746,"changesets":349,"mappers":38,"roads":93.3078472570484,"buildings":7925,"edits":8329,"latest":"2018-10-17T06:36:23.000Z"},"geometry":{"type":"Point","coordinates":[80.4565357171172,8.83371638580543]}},{"type":"Feature","properties":{"id":1920,"title":"Sri Lanka Floods: Aranayake Landslide Area","status":"ARCHIVED","created":"2016","lastUpdated":"2016","lastActive":"no","area":2.461558194887652,"changesets":52,"mappers":14,"roads":43.6192516680412,"buildings":1379,"edits":1782,"latest":"2016-05-24T20:20:29.000Z"},"geometry":{"type":"Point","coordinates":[80.4345710558472,7.16244406789406]}},{"type":"Feature","properties":{"id":1676,"title":"Manmunai West -- Batticaloa District Training","status":"ARCHIVED","created":"2016","lastUpdated":"2017","lastActive":"no","area":291.61525696151733,"changesets":2656,"mappers":50,"roads":887.902622248488,"buildings":14424,"edits":23907,"latest":"2017-06-02T09:09:57.000Z"},"geometry":{"type":"Point","coordinates":[81.598405286445,7.63164585257703]}},{"type":"Feature","properties":{"id":1706,"title":"Survey Department Training Task","status":"PUBLISHED","created":"2016","lastUpdated":"2017","lastActive":"no","area":0.29902540214274553,"changesets":72,"mappers":11,"roads":1.23540183349306,"buildings":314,"edits":416,"latest":"2017-12-11T22:38:32.000Z"},"geometry":{"type":"Point","coordinates":[79.8733520507812,6.89258355603989]}},{"type":"Feature","properties":{"id":1914,"title":"Sri Lanka Floods: Central Kelani River Basin ","status":"ARCHIVED","created":"2016","lastUpdated":"2016","lastActive":"no","area":55.654706466764075,"changesets":1949,"mappers":156,"roads":359.431394213726,"buildings":51517,"edits":63311,"latest":"2016-07-19T10:41:50.000Z"},"geometry":{"type":"Point","coordinates":[79.9938729302159,6.92473802544413]}},{"type":"Feature","properties":{"id":1923,"title":"Sri Lanka: Mapping Road and Infrastructures for Disaster Preparedness and Resilience Part 4","status":"ARCHIVED","created":"2016","lastUpdated":"2017","lastActive":"no","area":134.09126087468601,"changesets":5364,"mappers":113,"roads":599.507412787949,"buildings":65038,"edits":80938,"latest":"2016-11-03T00:54:26.000Z"},"geometry":{"type":"Point","coordinates":[79.9790091904922,7.15468759943429]}},{"type":"Feature","properties":{"id":376,"title":"Peradeniya University Workshop","status":"PUBLISHED","created":"2013","lastUpdated":"2017","lastActive":"no","area":6.599060076634558,"changesets":0,"mappers":0,"roads":0,"buildings":0,"edits":0,"latest":null},"geometry":{"type":"Point","coordinates":[80.5948337397285,7.26097206975122]}},{"type":"Feature","properties":{"id":5144,"title":"ACAD_CSIAP_Killinochchi","status":"PUBLISHED","created":"2018","lastUpdated":"2018","lastActive":"no","area":193.3228121457643,"changesets":132,"mappers":8,"roads":133.165143248202,"buildings":3087,"edits":3400,"latest":"2018-12-03T05:09:30.000Z"},"geometry":{"type":"Point","coordinates":[80.2054912817065,9.37264837619135]}},{"type":"Feature","properties":{"id":3135,"title":"2017 Sri Lanka Floods: Mapping Buildings in Matara District, Southern Province - Proj. 3","status":"ARCHIVED","created":"2017","lastUpdated":"2017","lastActive":"no","area":36.03266486036546,"changesets":476,"mappers":78,"roads":85.3519969445948,"buildings":9077,"edits":10043,"latest":"2017-06-08T22:12:44.000Z"},"geometry":{"type":"Point","coordinates":[80.5449602354143,6.05622329472135]}},{"type":"Feature","properties":{"id":1382,"title":"Sri Lanka - Mapping Road and Infrastructures for Disaster Preparedness and Resilience","status":"PUBLISHED","created":"2015","lastUpdated":"2018","lastActive":"no","area":91.6697241373826,"changesets":659,"mappers":15,"roads":377.168854961005,"buildings":4557,"edits":13187,"latest":"2018-05-02T14:59:41.000Z"},"geometry":{"type":"Point","coordinates":[79.9933363199441,7.07099461235604]}},{"type":"Feature","properties":{"id":1704,"title":"Sri Lanka Survey Department Task 1","status":"PUBLISHED","created":"2016","lastUpdated":"2018","lastActive":"no","area":1.013363862848424,"changesets":7,"mappers":3,"roads":0.0863833152163373,"buildings":33,"edits":36,"latest":"2018-11-14T11:30:11.000Z"},"geometry":{"type":"Point","coordinates":[79.8733520507812,6.89258355603988]}},{"type":"Feature","properties":{"id":1379,"title":"Sentinel Asia Mini-Project: Uva Panaragama, Sri Lanka ","status":"PUBLISHED","created":"2015","lastUpdated":"2018","lastActive":"no","area":138.89619821181384,"changesets":709,"mappers":62,"roads":244.464592028869,"buildings":9147,"edits":10627,"latest":"2018-10-17T04:08:05.000Z"},"geometry":{"type":"Point","coordinates":[80.9169361521956,6.9656774754007]}},{"type":"Feature","properties":{"id":2953,"title":"Haputhale DS Division, Sri Lanka - NBRO (National Building Research Organization) OSM Training 2017","status":"PUBLISHED","created":"2017","lastUpdated":"2017","lastActive":"no","area":70.79941725158203,"changesets":844,"mappers":21,"roads":269.612800455079,"buildings":26187,"edits":29157,"latest":"2017-12-23T18:52:08.000Z"},"geometry":{"type":"Point","coordinates":[80.9628251962593,6.79216975609474]}},{"type":"Feature","properties":{"id":4936,"title":"Mathugama Pradeshiya Sabha boundary for create Development Plan","status":"PUBLISHED","created":"2018","lastUpdated":"2018","lastActive":"no","area":135.28280540726848,"changesets":168,"mappers":15,"roads":22.4940783088305,"buildings":723,"edits":983,"latest":"2018-12-17T19:28:46.000Z"},"geometry":{"type":"Point","coordinates":[80.0888283437966,6.48763196162689]}},{"type":"Feature","properties":{"id":2502,"title":"Koralai Pattu Central ","status":"PUBLISHED","created":"2017","lastUpdated":"2017","lastActive":"no","area":205.46381684851346,"changesets":823,"mappers":11,"roads":208.035920050261,"buildings":2405,"edits":7280,"latest":"2017-10-29T14:52:46.000Z"},"geometry":{"type":"Point","coordinates":[81.5438353235841,7.93430184522799]}},{"type":"Feature","properties":{"id":4008,"title":"Eravur_Pattu_DS_Land_Use","status":"PUBLISHED","created":"2018","lastUpdated":"2018","lastActive":"no","area":610.855514890442,"changesets":0,"mappers":0,"roads":0,"buildings":0,"edits":0,"latest":null},"geometry":{"type":"Point","coordinates":[81.4676667713541,7.70945030139895]}},{"type":"Feature","properties":{"id":3109,"title":"2017 Sri Lanka Floods: Mapping Buildings in Matara District, Southern Province","status":"ARCHIVED","created":"2017","lastUpdated":"2017","lastActive":"no","area":89.05884751182215,"changesets":904,"mappers":104,"roads":99.7500449016578,"buildings":28020,"edits":31371,"latest":"2017-06-06T22:43:16.000Z"},"geometry":{"type":"Point","coordinates":[80.5692401271459,5.96308812651865]}},{"type":"Feature","properties":{"id":333,"title":"Bandarawela City Mapping by ISM Diyatalawa Nov 2013","status":"PUBLISHED","created":"2013","lastUpdated":"2017","lastActive":"no","area":5.404416842798238,"changesets":0,"mappers":0,"roads":0,"buildings":0,"edits":0,"latest":null},"geometry":{"type":"Point","coordinates":[80.9947350027375,6.83316631835344]}},{"type":"Feature","properties":{"id":281,"title":"Colombo Exposure Data Training","status":"ARCHIVED","created":"2013","lastUpdated":"2014","lastActive":"no","area":0.281462681159609,"changesets":888,"mappers":25,"roads":2557.35463513901,"buildings":7937,"edits":43854,"latest":"2018-01-29T07:35:04.000Z"},"geometry":{"type":"Point","coordinates":[79.8743602441261,6.90930379462689]}},{"type":"Feature","properties":{"id":4880,"title":"Venkalachedikulam","status":"PUBLISHED","created":"2018","lastUpdated":"2018","lastActive":"no","area":248.02523319809347,"changesets":548,"mappers":14,"roads":1422.19305672638,"buildings":12101,"edits":13296,"latest":"2018-12-14T04:04:12.000Z"},"geometry":{"type":"Point","coordinates":[80.2983992864439,8.68312375239797]}},{"type":"Feature","properties":{"id":1411,"title":"EWB / IUG - Rose Villa, Uduvil, Jaffna ","status":"ARCHIVED","created":"2015","lastUpdated":"2016","lastActive":"no","area":18.23079530652106,"changesets":222,"mappers":28,"roads":117.316272323212,"buildings":6093,"edits":8177,"latest":"2016-05-17T16:59:35.000Z"},"geometry":{"type":"Point","coordinates":[80.0155004840121,9.73027033623049]}},{"type":"Feature","properties":{"id":5002,"title":"Sri Lanka Flood Response 2018 Project 6a","status":"ARCHIVED","created":"2018","lastUpdated":"2018","lastActive":"no","area":273.98265695086076,"changesets":4745,"mappers":363,"roads":326.951544947589,"buildings":66946,"edits":69598,"latest":"2018-09-18T01:26:38.000Z"},"geometry":{"type":"Point","coordinates":[80.1062369105081,7.48849236869336]}},{"type":"Feature","properties":{"id":2372,"title":"Manmunai_South_West","status":"ARCHIVED","created":"2016","lastUpdated":"2016","lastActive":"no","area":142.50295080867124,"changesets":1362,"mappers":27,"roads":502.287474069319,"buildings":12785,"edits":19181,"latest":"2016-12-06T11:00:10.000Z"},"geometry":{"type":"Point","coordinates":[81.6552565570545,7.5638182429826]}},{"type":"Feature","properties":{"id":2357,"title":"Porativu_Pattu","status":"ARCHIVED","created":"2016","lastUpdated":"2017","lastActive":"no","area":165.9777097638617,"changesets":2530,"mappers":32,"roads":1063.64901979218,"buildings":23226,"edits":35412,"latest":"2016-12-05T06:02:49.000Z"},"geometry":{"type":"Point","coordinates":[81.7067615486679,7.49965821716783]}},{"type":"Feature","properties":{"id":2387,"title":"Koralai Pattu North","status":"ARCHIVED","created":"2016","lastUpdated":"2016","lastActive":"no","area":513.2151303330346,"changesets":1396,"mappers":26,"roads":722.561945319948,"buildings":7928,"edits":12986,"latest":"2017-01-29T17:00:56.000Z"},"geometry":{"type":"Point","coordinates":[81.3936644836643,8.08225375272086]}}],"Indonesia":[{"type":"Feature","properties":{"id":1149,"title":"Exposure Mapping in Lembata District, NTT","status":"PUBLISHED","created":"2015","lastUpdated":"2017","lastActive":"no","area":1267.3428895525565,"changesets":560,"mappers":14,"roads":478.898477952848,"buildings":35341,"edits":38868,"latest":"2018-03-03T19:23:11.000Z"},"geometry":{"type":"Point","coordinates":[123.54234419197,-8.38028074282829]}},{"type":"Feature","properties":{"id":1064,"title":"Lokon Eruption, Tomohon, North Sulawesi","status":"ARCHIVED","created":"2015","lastUpdated":"2017","lastActive":"no","area":301.05854055841337,"changesets":107,"mappers":8,"roads":103.342312368624,"buildings":1987,"edits":2744,"latest":"2015-07-30T02:44:33.000Z"},"geometry":{"type":"Point","coordinates":[124.777879000023,1.37015517859608]}},{"type":"Feature","properties":{"id":3018,"title":"Missing Maps: Cipayung Sub Districs #PDC Jakarta","status":"ARCHIVED","created":"2017","lastUpdated":"2017","lastActive":"no","area":28.30154903074125,"changesets":275,"mappers":8,"roads":83.3339668041295,"buildings":74181,"edits":77136,"latest":"2017-08-30T03:44:15.000Z"},"geometry":{"type":"Point","coordinates":[106.903499743806,-6.32573709887508]}},{"type":"Feature","properties":{"id":3022,"title":"Missing Maps: Pademangan Sub Districs #PDC Jakarta","status":"ARCHIVED","created":"2017","lastUpdated":"2017","lastActive":"no","area":17.827098830040605,"changesets":346,"mappers":8,"roads":153.407026575275,"buildings":30590,"edits":39877,"latest":"2017-10-26T09:33:55.000Z"},"geometry":{"type":"Point","coordinates":[106.852281816423,-6.12226440717232]}},{"type":"Feature","properties":{"id":300,"title":"The entire extent of July 2 earthquake zone (Above MMI5)","status":"PUBLISHED","created":"2013","lastUpdated":"2017","lastActive":"no","area":2961.7402540220824,"changesets":671,"mappers":25,"roads":731.527821867883,"buildings":346,"edits":4681,"latest":"2018-02-19T03:30:22.000Z"},"geometry":{"type":"Point","coordinates":[96.6923185835241,4.69253019250577]}},{"type":"Feature","properties":{"id":466,"title":"Yogyakarta Mapathon","status":"PUBLISHED","created":"2014","lastUpdated":"2017","lastActive":"no","area":142.75935044863726,"changesets":0,"mappers":0,"roads":0,"buildings":0,"edits":0,"latest":null},"geometry":{"type":"Point","coordinates":[110.375303592361,-7.79467828464764]}},{"type":"Feature","properties":{"id":750,"title":"Mount Sinabung USAID/OFDA & VDAP (New 2016 Imagery)","status":"PUBLISHED","created":"2014","lastUpdated":"2018","lastActive":"no","area":170.26266065591648,"changesets":0,"mappers":0,"roads":0,"buildings":0,"edits":0,"latest":null},"geometry":{"type":"Point","coordinates":[98.5020310030641,3.13610999922194]}},{"type":"Feature","properties":{"id":242,"title":"Papandayan_Garut","status":"ARCHIVED","created":"2013","lastUpdated":"2014","lastActive":"no","area":1049.3592609346736,"changesets":0,"mappers":0,"roads":0,"buildings":0,"edits":0,"latest":null},"geometry":{"type":"Point","coordinates":[107.783160742384,-7.35616027202178]}},{"type":"Feature","properties":{"id":577,"title":"Indonesian Red Cross Flood Risk Mapping (Bidara Cina)","status":"PUBLISHED","created":"2014","lastUpdated":"2014","lastActive":"no","area":3.31536323642304,"changesets":0,"mappers":0,"roads":0,"buildings":0,"edits":0,"latest":null},"geometry":{"type":"Point","coordinates":[106.870534807231,-6.23547240761778]}},{"type":"Feature","properties":{"id":563,"title":"Training Institut Teknologi Medan","status":"PUBLISHED","created":"2014","lastUpdated":"2017","lastActive":"no","area":112.12145232801778,"changesets":0,"mappers":0,"roads":0,"buildings":0,"edits":0,"latest":null},"geometry":{"type":"Point","coordinates":[98.6762461832554,3.57004939198182]}},{"type":"Feature","properties":{"id":4053,"title":"Missing Maps: Semarang Barat Sub Districts #PDC Semarang","status":"ARCHIVED","created":"2018","lastUpdated":"2018","lastActive":"no","area":22.83940614309307,"changesets":397,"mappers":3,"roads":63.8038792305447,"buildings":6232,"edits":7341,"latest":"2018-07-23T08:57:57.000Z"},"geometry":{"type":"Point","coordinates":[110.384285030972,-6.97881389583904]}},{"type":"Feature","properties":{"id":2076,"title":"Missing Maps: Tenggilis Mejoyo Sub Districts #PDC Surabaya","status":"ARCHIVED","created":"2016","lastUpdated":"2017","lastActive":"no","area":5.81606387737379,"changesets":231,"mappers":7,"roads":20.1319289322623,"buildings":17498,"edits":19337,"latest":"2017-02-24T07:01:54.000Z"},"geometry":{"type":"Point","coordinates":[112.754039565117,-7.32446207213862]}},{"type":"Feature","properties":{"id":231,"title":"Help with Contingency Planning in Eastern Java","status":"PUBLISHED","created":"2013","lastUpdated":"2014","lastActive":"no","area":301.06733622926146,"changesets":110,"mappers":10,"roads":53.1352950638241,"buildings":36669,"edits":37246,"latest":"2018-11-27T17:12:26.000Z"},"geometry":{"type":"Point","coordinates":[112.012253917137,-7.16443300449215]}},{"type":"Feature","properties":{"id":4057,"title":"Missing Maps: Semarang Utara Sub Districts #PDC Semarang","status":"PUBLISHED","created":"2018","lastUpdated":"2018","lastActive":"no","area":11.395719492311404,"changesets":219,"mappers":6,"roads":50.7096016227286,"buildings":3929,"edits":4597,"latest":"2018-06-25T10:56:51.000Z"},"geometry":{"type":"Point","coordinates":[110.417310280136,-6.95817966495625]}},{"type":"Feature","properties":{"id":1011,"title":"Aktivitas Pengumpulan Data di DAS Jeneberang","status":"PUBLISHED","created":"2015","lastUpdated":"2015","lastActive":"no","area":2353.106322075065,"changesets":83,"mappers":3,"roads":18.9318585168149,"buildings":1318,"edits":2128,"latest":"2015-08-12T05:02:39.000Z"},"geometry":{"type":"Point","coordinates":[119.730948333476,-5.2697108809525]}},{"type":"Feature","properties":{"id":238,"title":"Guntur_Garut","status":"ARCHIVED","created":"2013","lastUpdated":"2014","lastActive":"no","area":1033.3340642967473,"changesets":3,"mappers":1,"roads":0,"buildings":14,"edits":14,"latest":"2016-01-21T11:25:00.000Z"},"geometry":{"type":"Point","coordinates":[107.869024835263,-7.21340771141719]}},{"type":"Feature","properties":{"id":2084,"title":"Missing Maps: Wonocolo Sub Districs #PDC Surabaya","status":"ARCHIVED","created":"2016","lastUpdated":"2017","lastActive":"no","area":6.440117053980919,"changesets":272,"mappers":4,"roads":0.830678729600805,"buildings":19566,"edits":19821,"latest":"2017-03-13T07:14:37.000Z"},"geometry":{"type":"Point","coordinates":[112.741662990172,-7.32231779624896]}},{"type":"Feature","properties":{"id":2090,"title":"Missing Maps: Sambikerep Sub Districs #PDC Surabaya","status":"ARCHIVED","created":"2016","lastUpdated":"2017","lastActive":"no","area":15.750260933436985,"changesets":533,"mappers":22,"roads":22.4715844008338,"buildings":19822,"edits":21122,"latest":"2017-03-09T07:31:00.000Z"},"geometry":{"type":"Point","coordinates":[112.653167636603,-7.27654836091664]}},{"type":"Feature","properties":{"id":2080,"title":"Missing Maps: Sawahan Sub Districs #PDC Surabaya","status":"ARCHIVED","created":"2016","lastUpdated":"2017","lastActive":"no","area":7.263045329272611,"changesets":429,"mappers":10,"roads":77.4732011526463,"buildings":43367,"edits":46164,"latest":"2017-02-24T08:52:56.000Z"},"geometry":{"type":"Point","coordinates":[112.721454106416,-7.27305731862904]}},{"type":"Feature","properties":{"id":3638,"title":"Mont Agung (Bali, Indonesia)","status":"ARCHIVED","created":"2017","lastUpdated":"2017","lastActive":"no","area":1441.56284076509,"changesets":0,"mappers":0,"roads":0,"buildings":0,"edits":0,"latest":null},"geometry":{"type":"Point","coordinates":[115.468245563688,-8.41743231363821]}},{"type":"Feature","properties":{"id":4051,"title":"Missing Maps: Ngaliyan Sub Districts #PDC Semarang","status":"ARCHIVED","created":"2018","lastUpdated":"2018","lastActive":"no","area":44.8476968659584,"changesets":232,"mappers":10,"roads":46.1065645937855,"buildings":25146,"edits":25826,"latest":"2018-07-23T03:29:53.000Z"},"geometry":{"type":"Point","coordinates":[110.327250358732,-7.00011443821596]}},{"type":"Feature","properties":{"id":203,"title":"North Jakarta Red Cross / Tulane Mapping","status":"ARCHIVED","created":"2013","lastUpdated":"2014","lastActive":"no","area":14.38620966520452,"changesets":63,"mappers":17,"roads":12.7283050193669,"buildings":441,"edits":723,"latest":"2018-07-24T03:54:44.000Z"},"geometry":{"type":"Point","coordinates":[106.822365678629,-6.12330978046749]}},{"type":"Feature","properties":{"id":1339,"title":"Indonesian Fires 2015 | South Kalimantan - Bahaur","status":"PUBLISHED","created":"2015","lastUpdated":"2018","lastActive":"no","area":5440.689877501984,"changesets":482,"mappers":63,"roads":247.508246667985,"buildings":1594,"edits":2581,"latest":"2018-11-12T12:31:56.000Z"},"geometry":{"type":"Point","coordinates":[113.927859641877,-3.06191301375416]}},{"type":"Feature","properties":{"id":4983,"title":"Missing Maps: Pandeglang, Banten, Indonesia","status":"PUBLISHED","created":"2018","lastUpdated":"2018","lastActive":"yes","area":2840.3654821305727,"changesets":13630,"mappers":1230,"roads":375.335173948548,"buildings":171770,"edits":173469,"latest":"2018-12-20T15:25:37.000Z"},"geometry":{"type":"Point","coordinates":[105.746647595123,-6.5898001130679]}},{"type":"Feature","properties":{"id":876,"title":"Data Preparedness Activity in Kabupaten Trenggalek, East Java, Indonesia","status":"PUBLISHED","created":"2015","lastUpdated":"2015","lastActive":"no","area":1255.0878808500752,"changesets":7,"mappers":2,"roads":2.21069754399156,"buildings":33,"edits":43,"latest":"2017-10-19T08:57:19.000Z"},"geometry":{"type":"Point","coordinates":[111.626325207439,-8.1619464284179]}},{"type":"Feature","properties":{"id":1013,"title":"Aktivitas Pengumpulan Data di Ancaman Gempa Bumi","status":"PUBLISHED","created":"2015","lastUpdated":"2018","lastActive":"no","area":12064.797843912818,"changesets":32,"mappers":3,"roads":44.8710683798205,"buildings":826,"edits":1174,"latest":"2018-10-01T16:08:41.000Z"},"geometry":{"type":"Point","coordinates":[120.769267743527,-2.5142859621583]}},{"type":"Feature","properties":{"id":1032,"title":"Mapping Activity in Nagekeo District, NTT","status":"PUBLISHED","created":"2015","lastUpdated":"2015","lastActive":"no","area":1450.2407534924623,"changesets":0,"mappers":0,"roads":0,"buildings":0,"edits":0,"latest":null},"geometry":{"type":"Point","coordinates":[121.269705764205,-8.68766778892447]}},{"type":"Feature","properties":{"id":2575,"title":"OpenStreetMap Training for Develop Risk Assessment Document in Kudus","status":"ARCHIVED","created":"2017","lastUpdated":"2017","lastActive":"no","area":438.38116802269076,"changesets":0,"mappers":0,"roads":0,"buildings":0,"edits":0,"latest":null},"geometry":{"type":"Point","coordinates":[110.869721839865,-6.78906806522312]}},{"type":"Feature","properties":{"id":297,"title":"Aceh Project Area 2","status":"PUBLISHED","created":"2013","lastUpdated":"2014","lastActive":"no","area":35.388245837435974,"changesets":624,"mappers":25,"roads":1095.38235761661,"buildings":133,"edits":3693,"latest":"2018-02-15T02:07:25.000Z"},"geometry":{"type":"Point","coordinates":[96.8524759617595,4.7189461142942]}},{"type":"Feature","properties":{"id":299,"title":"Aceh Project Area 4","status":"PUBLISHED","created":"2013","lastUpdated":"2016","lastActive":"no","area":26.996912641232914,"changesets":700,"mappers":24,"roads":1303.89723035274,"buildings":282,"edits":3911,"latest":"2018-03-29T04:52:00.000Z"},"geometry":{"type":"Point","coordinates":[96.8302712895369,4.61207369086666]}},{"type":"Feature","properties":{"id":4049,"title":"Missing Maps: Gunung Pati Sub Districts #PDC Semarang","status":"ARCHIVED","created":"2018","lastUpdated":"2018","lastActive":"no","area":60.18197606655719,"changesets":327,"mappers":18,"roads":173.74975489,"buildings":28455,"edits":29910,"latest":"2018-07-05T08:44:40.000Z"},"geometry":{"type":"Point","coordinates":[110.375307098226,-7.06488899513931]}},{"type":"Feature","properties":{"id":5580,"title":"Pemetaan Kabupaten Semarang","status":"ARCHIVED","created":"2018","lastUpdated":"2018","lastActive":"no","area":1010.4908057874406,"changesets":12,"mappers":10,"roads":0,"buildings":15,"edits":15,"latest":"2018-12-04T07:20:31.000Z"},"geometry":{"type":"Point","coordinates":[110.475265391174,-7.27203134776449]}},{"type":"Feature","properties":{"id":3030,"title":"Missing Maps: Sawah Besar Sub Districs #PDC Jakarta","status":"ARCHIVED","created":"2017","lastUpdated":"2017","lastActive":"no","area":5.440310267845165,"changesets":133,"mappers":3,"roads":15.8262917961787,"buildings":12940,"edits":13867,"latest":"2017-08-04T04:30:15.000Z"},"geometry":{"type":"Point","coordinates":[106.83314677533,-6.15413667191174]}},{"type":"Feature","properties":{"id":3026,"title":"Missing Maps: Pesanggrahan Sub Districs #PDC Jakarta","status":"ARCHIVED","created":"2017","lastUpdated":"2017","lastActive":"no","area":13.487998414241458,"changesets":251,"mappers":7,"roads":56.5381680229144,"buildings":41668,"edits":48093,"latest":"2017-10-02T08:03:28.000Z"},"geometry":{"type":"Point","coordinates":[106.758795953061,-6.25061223746763]}},{"type":"Feature","properties":{"id":877,"title":"Data Preparedness Activity in Kabupaten Malang, East Java, Indonesia","status":"PUBLISHED","created":"2015","lastUpdated":"2017","lastActive":"no","area":3608.974911525084,"changesets":323,"mappers":29,"roads":96.0386433508552,"buildings":4919,"edits":6130,"latest":"2017-03-08T12:35:23.000Z"},"geometry":{"type":"Point","coordinates":[112.638874058965,-8.12350380352826]}},{"type":"Feature","properties":{"id":781,"title":"INSIST II ( Integrated Services for Infrastructure and Sanitation Technology ) II - Kelurahan Penjaringan","status":"PUBLISHED","created":"2014","lastUpdated":"2018","lastActive":"no","area":23.838971811308195,"changesets":0,"mappers":0,"roads":0,"buildings":0,"edits":0,"latest":null},"geometry":{"type":"Point","coordinates":[106.795606613159,-6.1179389778385]}},{"type":"Feature","properties":{"id":769,"title":"Badan Geologi - Buildings and Roads Mapping Around Bromo","status":"PUBLISHED","created":"2014","lastUpdated":"2018","lastActive":"no","area":620.501398306766,"changesets":0,"mappers":0,"roads":0,"buildings":0,"edits":0,"latest":null},"geometry":{"type":"Point","coordinates":[112.970588975425,-7.91641987596082]}},{"type":"Feature","properties":{"id":875,"title":"---","status":"ARCHIVED","created":"2015","lastUpdated":"2015","lastActive":"no","area":1673.155615732146,"changesets":0,"mappers":0,"roads":0,"buildings":0,"edits":0,"latest":null},"geometry":{"type":"Point","coordinates":[114.052436529188,-7.80132615385991]}},{"type":"Feature","properties":{"id":1336,"title":"Bandung City, West Java, Indonesia","status":"ARCHIVED","created":"2015","lastUpdated":"2017","lastActive":"no","area":262.89341640647143,"changesets":1171,"mappers":128,"roads":105.599907444344,"buildings":20301,"edits":21971,"latest":"2017-04-29T07:43:37.000Z"},"geometry":{"type":"Point","coordinates":[107.605062163076,-6.91740431922777]}},{"type":"Feature","properties":{"id":2748,"title":"Missing Maps: Senen Sub Districs #PDC Jakarta","status":"ARCHIVED","created":"2017","lastUpdated":"2017","lastActive":"no","area":4.380864638256325,"changesets":147,"mappers":4,"roads":20.1052342060612,"buildings":9397,"edits":11318,"latest":"2017-07-19T06:02:29.000Z"},"geometry":{"type":"Point","coordinates":[106.845942265554,-6.18433938607949]}},{"type":"Feature","properties":{"id":4059,"title":"Missing Maps: Tugu Sub Districts #PDC Semarang","status":"ARCHIVED","created":"2018","lastUpdated":"2018","lastActive":"no","area":30.007635401369544,"changesets":150,"mappers":22,"roads":33.7110607357028,"buildings":7137,"edits":7618,"latest":"2018-07-09T08:38:35.000Z"},"geometry":{"type":"Point","coordinates":[110.329889000038,-6.96189968008406]}},{"type":"Feature","properties":{"id":3023,"title":"Missing Maps: Jagakarsa Sub Districs #PDC Jakarta","status":"ARCHIVED","created":"2017","lastUpdated":"2018","lastActive":"no","area":25.42210309140762,"changesets":402,"mappers":4,"roads":291.254137097454,"buildings":60355,"edits":74341,"latest":"2017-09-27T08:09:19.000Z"},"geometry":{"type":"Point","coordinates":[106.822686971367,-6.33345822843127]}},{"type":"Feature","properties":{"id":4834,"title":"Missing Maps: Central Java, Temanggung, Indonesia","status":"PUBLISHED","created":"2018","lastUpdated":"2018","lastActive":"no","area":885.5336623943101,"changesets":4111,"mappers":226,"roads":84.4060143537843,"buildings":44508,"edits":45141,"latest":"2018-12-18T18:17:51.000Z"},"geometry":{"type":"Point","coordinates":[110.140014215434,-7.25939687669742]}},{"type":"Feature","properties":{"id":4046,"title":"Missing Maps: Gajah Mungkur Sub Districts #PDC Semarang","status":"ARCHIVED","created":"2018","lastUpdated":"2018","lastActive":"no","area":9.7825467368316,"changesets":119,"mappers":3,"roads":24.996948716469,"buildings":6160,"edits":7312,"latest":"2018-06-26T09:46:00.000Z"},"geometry":{"type":"Point","coordinates":[110.405596342639,-7.01275552509079]}},{"type":"Feature","properties":{"id":1012,"title":"Aktivitas Pengumpulan Data di sekitar Danau Tempe dan Ancaman Gempa Bumi ","status":"PUBLISHED","created":"2015","lastUpdated":"2015","lastActive":"no","area":8700.19532526336,"changesets":83,"mappers":5,"roads":149.429711120035,"buildings":6158,"edits":7632,"latest":"2015-07-15T09:20:41.000Z"},"geometry":{"type":"Point","coordinates":[119.961295180703,-4.18428036387788]}},{"type":"Feature","properties":{"id":3017,"title":"Missing Maps: Pasar Rebo Sub Districs #PDC Jakarta","status":"ARCHIVED","created":"2017","lastUpdated":"2017","lastActive":"no","area":12.342260215364801,"changesets":351,"mappers":5,"roads":10.8466904443053,"buildings":37866,"edits":39283,"latest":"2017-10-06T07:49:46.000Z"},"geometry":{"type":"Point","coordinates":[106.857470769184,-6.3271561630854]}},{"type":"Feature","properties":{"id":3029,"title":"Missing Maps: Ciracas Sub Districs #PDC Jakarta","status":"ARCHIVED","created":"2017","lastUpdated":"2017","lastActive":"no","area":16.66387875779246,"changesets":490,"mappers":7,"roads":211.138527419401,"buildings":57133,"edits":67829,"latest":"2017-10-25T03:29:42.000Z"},"geometry":{"type":"Point","coordinates":[106.878465483458,-6.33393509009654]}},{"type":"Feature","properties":{"id":1031,"title":"Aktivitas Pengumpulan Data di Kabupaten Timor Tengah Utara (TTU)","status":"PUBLISHED","created":"2015","lastUpdated":"2015","lastActive":"no","area":2631.88847539912,"changesets":9,"mappers":2,"roads":1.51273446172416,"buildings":70,"edits":150,"latest":"2015-05-11T10:23:20.000Z"},"geometry":{"type":"Point","coordinates":[124.569651212504,-9.37751060730675]}},{"type":"Feature","properties":{"id":3037,"title":"Missing Maps: Cilincing Sub Districs #PDC Jakarta","status":"ARCHIVED","created":"2017","lastUpdated":"2017","lastActive":"no","area":41.17584204145506,"changesets":370,"mappers":7,"roads":44.6930557805136,"buildings":61048,"edits":65886,"latest":"2017-10-05T06:00:38.000Z"},"geometry":{"type":"Point","coordinates":[106.943262692355,-6.12798931279952]}},{"type":"Feature","properties":{"id":3027,"title":"Missing Maps: Kebayoran Baru Sub Districs #PDC Jakarta","status":"ARCHIVED","created":"2017","lastUpdated":"2017","lastActive":"no","area":12.766082803531393,"changesets":306,"mappers":16,"roads":4.65841257609875,"buildings":25429,"edits":27872,"latest":"2017-11-08T08:22:59.000Z"},"geometry":{"type":"Point","coordinates":[106.801459859383,-6.2447259415702]}},{"type":"Feature","properties":{"id":3031,"title":"Missing Maps: Grogol Petamburan Sub Districs #PDC Jakarta","status":"ARCHIVED","created":"2017","lastUpdated":"2017","lastActive":"no","area":10.805656337791167,"changesets":218,"mappers":5,"roads":3.98900637661907,"buildings":47671,"edits":49629,"latest":"2017-10-03T12:21:38.000Z"},"geometry":{"type":"Point","coordinates":[106.786483931117,-6.16359030555416]}},{"type":"Feature","properties":{"id":3021,"title":"Missing Maps: Kali Deres Sub Districs #PDC Jakarta","status":"ARCHIVED","created":"2017","lastUpdated":"2017","lastActive":"no","area":29.932357603667022,"changesets":1472,"mappers":7,"roads":51.32161785343,"buildings":63634,"edits":68367,"latest":"2017-11-09T10:14:00.000Z"},"geometry":{"type":"Point","coordinates":[106.703602395224,-6.13440116229757]}},{"type":"Feature","properties":{"id":3033,"title":"Missing Maps: Penjaringan Sub Districs #PDC Jakarta","status":"ARCHIVED","created":"2017","lastUpdated":"2017","lastActive":"no","area":34.25824196319767,"changesets":252,"mappers":11,"roads":30.055312740412,"buildings":38727,"edits":41424,"latest":"2017-10-06T08:43:50.000Z"},"geometry":{"type":"Point","coordinates":[106.765900217218,-6.11862209534467]}},{"type":"Feature","properties":{"id":3025,"title":"Missing Maps: Cilandak Sub Districs #PDC Jakarta","status":"ARCHIVED","created":"2017","lastUpdated":"2017","lastActive":"no","area":17.826440731180615,"changesets":183,"mappers":4,"roads":28.6590632722901,"buildings":26772,"edits":28477,"latest":"2017-09-18T02:21:25.000Z"},"geometry":{"type":"Point","coordinates":[106.793307284061,-6.29318797958196]}},{"type":"Feature","properties":{"id":896,"title":"Data Preparedness Activity in Kabupaten Situbondo, East Java, Indonesia","status":"PUBLISHED","created":"2015","lastUpdated":"2018","lastActive":"no","area":1673.1534225044552,"changesets":44,"mappers":8,"roads":27.4505932486567,"buildings":4059,"edits":4229,"latest":"2018-08-07T23:11:48.000Z"},"geometry":{"type":"Point","coordinates":[114.052435183027,-7.80132659749921]}},{"type":"Feature","properties":{"id":3035,"title":"Missing Maps: Koja Sub Districs #PDC Jakarta","status":"ARCHIVED","created":"2017","lastUpdated":"2017","lastActive":"no","area":9.89511853564706,"changesets":450,"mappers":10,"roads":18.8340571467575,"buildings":50848,"edits":53904,"latest":"2017-10-06T01:23:57.000Z"},"geometry":{"type":"Point","coordinates":[106.905929549656,-6.12538848485847]}},{"type":"Feature","properties":{"id":95,"title":"Help Digitize Tasikmalaya District for Landslide Assessment ","status":"PUBLISHED","created":"2012","lastUpdated":"2017","lastActive":"no","area":685.6501175075578,"changesets":46,"mappers":1,"roads":436.767067173753,"buildings":6912,"edits":7609,"latest":"2018-01-16T05:09:12.000Z"},"geometry":{"type":"Point","coordinates":[108.024904083238,-7.45993579925139]}},{"type":"Feature","properties":{"id":135,"title":"Mapping Selayar Island Indonesia for Preparedness","status":"PUBLISHED","created":"2013","lastUpdated":"2018","lastActive":"no","area":718.4990620335725,"changesets":4,"mappers":2,"roads":0,"buildings":253,"edits":253,"latest":"2017-07-11T09:28:41.000Z"},"geometry":{"type":"Point","coordinates":[120.49588939269,-6.09859405108333]}},{"type":"Feature","properties":{"id":4045,"title":"Missing Maps: Candisari Sub Districts #PDC Semarang","status":"ARCHIVED","created":"2018","lastUpdated":"2018","lastActive":"no","area":6.584154314154103,"changesets":231,"mappers":4,"roads":50.7813785654947,"buildings":5331,"edits":6527,"latest":"2018-06-28T08:06:40.000Z"},"geometry":{"type":"Point","coordinates":[110.427687827147,-7.01591541795881]}},{"type":"Feature","properties":{"id":4050,"title":"Missing Maps: Mijen Sub Districts #PDC Semarang","status":"ARCHIVED","created":"2018","lastUpdated":"2018","lastActive":"no","area":58.38424258359907,"changesets":641,"mappers":16,"roads":248.15917317191,"buildings":44462,"edits":48895,"latest":"2018-07-17T03:41:21.000Z"},"geometry":{"type":"Point","coordinates":[110.316039793238,-7.05292695812427]}},{"type":"Feature","properties":{"id":298,"title":"Aceh Project Area 3","status":"PUBLISHED","created":"2013","lastUpdated":"2014","lastActive":"no","area":6.038222593149481,"changesets":977,"mappers":25,"roads":181.102296015243,"buildings":129594,"edits":132711,"latest":"2018-06-17T05:12:39.000Z"},"geometry":{"type":"Point","coordinates":[96.7384395707381,4.68012683576516]}},{"type":"Feature","properties":{"id":204,"title":"Depok Red Cross / Tulane Mapping","status":"ARCHIVED","created":"2013","lastUpdated":"2014","lastActive":"no","area":2.628292622844075,"changesets":54,"mappers":7,"roads":24.1871934531348,"buildings":2268,"edits":2460,"latest":"2018-10-08T02:16:46.000Z"},"geometry":{"type":"Point","coordinates":[106.81139405098,-6.38662921176067]}},{"type":"Feature","properties":{"id":235,"title":"PMI Beginner Training","status":"ARCHIVED","created":"2013","lastUpdated":"2014","lastActive":"no","area":2.861515775509014,"changesets":0,"mappers":0,"roads":0,"buildings":0,"edits":0,"latest":null},"geometry":{"type":"Point","coordinates":[106.834059522705,-6.24708390924862]}},{"type":"Feature","properties":{"id":105,"title":"Sidoarjo mud flow or Lapindo mud","status":"PUBLISHED","created":"2012","lastUpdated":"2018","lastActive":"no","area":35.26109381384408,"changesets":1536,"mappers":112,"roads":104.753467597932,"buildings":27806,"edits":31204,"latest":"2018-08-02T19:13:09.000Z"},"geometry":{"type":"Point","coordinates":[112.715788530608,-7.5284579211764]}},{"type":"Feature","properties":{"id":454,"title":"Help digitize buildings & roads for better emergency response in Mt. Slamet ","status":"PUBLISHED","created":"2014","lastUpdated":"2018","lastActive":"no","area":6.940715703178464,"changesets":0,"mappers":0,"roads":0,"buildings":0,"edits":0,"latest":null},"geometry":{"type":"Point","coordinates":[109.216043387363,-7.24129473882666]}},{"type":"Feature","properties":{"id":1150,"title":"Exposure Mapping Raung Volcano, East Java","status":"PUBLISHED","created":"2015","lastUpdated":"2018","lastActive":"no","area":2699.759445094531,"changesets":1898,"mappers":203,"roads":584.272666864601,"buildings":36866,"edits":42038,"latest":"2018-08-15T06:47:19.000Z"},"geometry":{"type":"Point","coordinates":[113.99786323889,-8.12593667906343]}},{"type":"Feature","properties":{"id":1148,"title":"Raung Volcano - Indonesia","status":"ARCHIVED","created":"2015","lastUpdated":"2015","lastActive":"no","area":3396.384172396099,"changesets":5,"mappers":3,"roads":2.00355167127096,"buildings":79,"edits":92,"latest":"2015-10-21T20:55:26.000Z"},"geometry":{"type":"Point","coordinates":[114.031116876177,-8.135163738756]}},{"type":"Feature","properties":{"id":2065,"title":"Missing Maps: Gayungan Sub Districts #PDC Surabaya","status":"ARCHIVED","created":"2016","lastUpdated":"2017","lastActive":"no","area":5.876548818039097,"changesets":176,"mappers":6,"roads":27.057094561617,"buildings":8728,"edits":9604,"latest":"2017-03-14T02:26:35.000Z"},"geometry":{"type":"Point","coordinates":[112.726874868915,-7.32999419948107]}},{"type":"Feature","properties":{"id":2067,"title":"Missing Maps: Gubeng Sub Districts #PDC Surabaya","status":"ARCHIVED","created":"2016","lastUpdated":"2017","lastActive":"no","area":7.946806546306559,"changesets":983,"mappers":20,"roads":46.6643877577317,"buildings":33562,"edits":34594,"latest":"2017-02-03T04:06:46.000Z"},"geometry":{"type":"Point","coordinates":[112.759397144637,-7.27964966209539]}},{"type":"Feature","properties":{"id":2061,"title":"Missing Maps: Benowo Sub Districts #PDC Surabaya","status":"ARCHIVED","created":"2016","lastUpdated":"2017","lastActive":"no","area":23.449075266218717,"changesets":270,"mappers":5,"roads":183.471536478751,"buildings":22830,"edits":26345,"latest":"2017-02-10T02:55:18.000Z"},"geometry":{"type":"Point","coordinates":[112.646348632844,-7.22649690413484]}},{"type":"Feature","properties":{"id":2087,"title":"Missing Maps: Suko Mangunggal Sub Districs #PDC Surabaya","status":"ARCHIVED","created":"2016","lastUpdated":"2017","lastActive":"no","area":9.242927350922935,"changesets":273,"mappers":7,"roads":10.4724554996487,"buildings":19738,"edits":20413,"latest":"2017-01-24T02:36:08.000Z"},"geometry":{"type":"Point","coordinates":[112.699737872625,-7.26880714234452]}},{"type":"Feature","properties":{"id":2083,"title":"Missing Maps: Wiyung Sub Districts #PDC Surabaya","status":"ARCHIVED","created":"2016","lastUpdated":"2017","lastActive":"no","area":11.201966005752986,"changesets":1205,"mappers":12,"roads":74.3808535049186,"buildings":21239,"edits":24700,"latest":"2017-03-09T09:38:43.000Z"},"geometry":{"type":"Point","coordinates":[112.688321164013,-7.31262061856803]}},{"type":"Feature","properties":{"id":2081,"title":"Missing Maps: Wonokromo Sub Districs #PDC Surabaya","status":"ARCHIVED","created":"2016","lastUpdated":"2017","lastActive":"no","area":8.295998238077491,"changesets":519,"mappers":12,"roads":2.95752241993943,"buildings":26060,"edits":27183,"latest":"2017-02-24T05:59:42.000Z"},"geometry":{"type":"Point","coordinates":[112.737905821407,-7.29771035810582]}},{"type":"Feature","properties":{"id":2089,"title":"Missing Maps: Pakal Sub Districs #PDC Surabaya","status":"ARCHIVED","created":"2016","lastUpdated":"2017","lastActive":"no","area":18.81794956875589,"changesets":159,"mappers":14,"roads":31.8629722924841,"buildings":14942,"edits":15936,"latest":"2017-02-23T07:17:46.000Z"},"geometry":{"type":"Point","coordinates":[112.616029372875,-7.22967182670023]}},{"type":"Feature","properties":{"id":2751,"title":"Missing Maps: Gambir Sub Districs #PDC Jakarta","status":"ARCHIVED","created":"2017","lastUpdated":"2017","lastActive":"no","area":7.532639425068289,"changesets":233,"mappers":6,"roads":17.4080305784869,"buildings":17606,"edits":19317,"latest":"2017-07-19T06:19:32.000Z"},"geometry":{"type":"Point","coordinates":[106.818041882526,-6.17148897715882]}},{"type":"Feature","properties":{"id":3019,"title":"Missing Maps: Kebon Jeruk Sub Districs #PDC Jakarta","status":"ARCHIVED","created":"2017","lastUpdated":"2017","lastActive":"no","area":17.71909348698738,"changesets":224,"mappers":4,"roads":9.78093330678166,"buildings":101072,"edits":104973,"latest":"2017-09-18T03:31:36.000Z"},"geometry":{"type":"Point","coordinates":[106.769120917933,-6.18966735903269]}},{"type":"Feature","properties":{"id":2753,"title":"Missing Maps: Palmerah Sub Districs #PDC Jakarta","status":"ARCHIVED","created":"2017","lastUpdated":"2017","lastActive":"no","area":7.419272470955236,"changesets":800,"mappers":6,"roads":165.927571905199,"buildings":31494,"edits":41934,"latest":"2017-08-11T08:17:08.000Z"},"geometry":{"type":"Point","coordinates":[106.795578582719,-6.19175678087728]}},{"type":"Feature","properties":{"id":2749,"title":"Missing Maps: Kemayoran Sub Districs #PDC Jakarta","status":"ARCHIVED","created":"2017","lastUpdated":"2017","lastActive":"no","area":7.795259817267811,"changesets":251,"mappers":4,"roads":14.5073181796966,"buildings":32519,"edits":34144,"latest":"2017-10-04T05:34:24.000Z"},"geometry":{"type":"Point","coordinates":[106.855013657131,-6.16163036742218]}},{"type":"Feature","properties":{"id":2747,"title":"Missing Maps: Tanah Abang Sub Districs #PDC Jakarta","status":"ARCHIVED","created":"2017","lastUpdated":"2017","lastActive":"no","area":10.235889165722531,"changesets":244,"mappers":4,"roads":61.1379398045008,"buildings":19580,"edits":23123,"latest":"2017-07-27T12:33:30.000Z"},"geometry":{"type":"Point","coordinates":[106.809283035778,-6.20555493555219]}},{"type":"Feature","properties":{"id":2810,"title":"Missing Maps: Cakung Sub Districs #PDC Jakarta","status":"ARCHIVED","created":"2017","lastUpdated":"2017","lastActive":"no","area":40.6731416648683,"changesets":928,"mappers":4,"roads":41.6128199606069,"buildings":102543,"edits":108164,"latest":"2017-09-12T04:31:11.000Z"},"geometry":{"type":"Point","coordinates":[106.940749285978,-6.18934724786333]}},{"type":"Feature","properties":{"id":2690,"title":"Missing Maps: Johar Baru Sub Districs #PDCJakarta","status":"ARCHIVED","created":"2017","lastUpdated":"2017","lastActive":"no","area":2.4040925614066637,"changesets":287,"mappers":7,"roads":10.3530194607153,"buildings":16558,"edits":19052,"latest":"2017-06-02T07:47:00.000Z"},"geometry":{"type":"Point","coordinates":[106.854584144217,-6.18210953519141]}},{"type":"Feature","properties":{"id":2745,"title":"Missing Maps: Makasar Sub Districs #PDC Jakarta","status":"ARCHIVED","created":"2017","lastUpdated":"2017","lastActive":"no","area":21.702895230187877,"changesets":192,"mappers":5,"roads":8.0530548112001,"buildings":48332,"edits":49771,"latest":"2017-10-03T12:26:17.000Z"},"geometry":{"type":"Point","coordinates":[106.891129959349,-6.2661058012357]}},{"type":"Feature","properties":{"id":2684,"title":"Missing Maps: Tebet Sub Districs #PDC Jakarta","status":"ARCHIVED","created":"2017","lastUpdated":"2017","lastActive":"no","area":9.408890607713326,"changesets":497,"mappers":20,"roads":19.6793730101626,"buildings":31333,"edits":34092,"latest":"2017-07-19T03:42:49.000Z"},"geometry":{"type":"Point","coordinates":[106.8508708311,-6.22882722261039]}},{"type":"Feature","properties":{"id":2688,"title":"Missing Maps: Matraman Sub Districs #PDCJakarta","status":"ARCHIVED","created":"2017","lastUpdated":"2017","lastActive":"no","area":4.852162587562553,"changesets":558,"mappers":6,"roads":38.9919910337758,"buildings":33387,"edits":36523,"latest":"2017-08-12T01:41:26.000Z"},"geometry":{"type":"Point","coordinates":[106.86450901734,-6.20369990102316]}},{"type":"Feature","properties":{"id":2686,"title":"Missing Maps: Kramat Jati Sub Districs #PDCJakarta","status":"ARCHIVED","created":"2017","lastUpdated":"2018","lastActive":"no","area":13.129244982799834,"changesets":567,"mappers":19,"roads":285.753576206208,"buildings":102534,"edits":113731,"latest":"2017-08-18T10:11:25.000Z"},"geometry":{"type":"Point","coordinates":[106.865408049316,-6.27652035093109]}},{"type":"Feature","properties":{"id":2682,"title":"Missing Maps: Mampang Prapatan Sub Districs #PDC Jakarta","status":"ARCHIVED","created":"2017","lastUpdated":"2017","lastActive":"no","area":7.937678176628443,"changesets":322,"mappers":8,"roads":27.7159762684502,"buildings":34460,"edits":37381,"latest":"2017-09-25T07:37:28.000Z"},"geometry":{"type":"Point","coordinates":[106.821002574256,-6.25223001999702]}},{"type":"Feature","properties":{"id":2486,"title":"Missing Maps: Penjaringan Sub Districs #PDC Jakarta","status":"PUBLISHED","created":"2017","lastUpdated":"2018","lastActive":"no","area":35.136973393611804,"changesets":227,"mappers":49,"roads":5.28883843514275,"buildings":2163,"edits":2763,"latest":"2018-09-28T15:36:09.000Z"},"geometry":{"type":"Point","coordinates":[106.766724470152,-6.11861207164781]}},{"type":"Feature","properties":{"id":4043,"title":"Missing Maps: Banyumanik Sub Districts #PDC Semarang","status":"ARCHIVED","created":"2018","lastUpdated":"2018","lastActive":"no","area":31.263404954853762,"changesets":619,"mappers":13,"roads":288.064224597288,"buildings":29152,"edits":34454,"latest":"2018-07-17T04:20:43.000Z"},"geometry":{"type":"Point","coordinates":[110.420634743892,-7.0698505073789]}},{"type":"Feature","properties":{"id":4058,"title":"Missing Maps: Tembalang Sub Districts #PDC Semarang","status":"PUBLISHED","created":"2018","lastUpdated":"2018","lastActive":"no","area":40.54145098859969,"changesets":665,"mappers":56,"roads":264.065386297172,"buildings":45216,"edits":48320,"latest":"2018-07-23T04:57:28.000Z"},"geometry":{"type":"Point","coordinates":[110.460995575373,-7.04854201123433]}},{"type":"Feature","properties":{"id":4054,"title":"Missing Maps: Semarang Selatan Sub Districts #PDC Semarang","status":"ARCHIVED","created":"2018","lastUpdated":"2018","lastActive":"no","area":6.216206220761751,"changesets":317,"mappers":4,"roads":104.549294432283,"buildings":7273,"edits":9672,"latest":"2018-06-28T09:25:52.000Z"},"geometry":{"type":"Point","coordinates":[110.424620763431,-6.99694059104644]}},{"type":"Feature","properties":{"id":4048,"title":"Missing Maps: Genuk Sub Districts #PDC Semarang","status":"PUBLISHED","created":"2018","lastUpdated":"2018","lastActive":"no","area":26.89138122809543,"changesets":337,"mappers":17,"roads":211.651213602355,"buildings":30048,"edits":32607,"latest":"2018-07-23T04:32:20.000Z"},"geometry":{"type":"Point","coordinates":[110.476936026215,-6.96338054019794]}},{"type":"Feature","properties":{"id":4052,"title":"Missing Maps: Pedurungan Sub Districts #PDC Semarang","status":"PUBLISHED","created":"2018","lastUpdated":"2018","lastActive":"no","area":22.337854701407565,"changesets":481,"mappers":31,"roads":46.6776194885713,"buildings":47970,"edits":49143,"latest":"2018-07-23T03:01:55.000Z"},"geometry":{"type":"Point","coordinates":[110.473977056036,-7.00223449583275]}},{"type":"Feature","properties":{"id":4056,"title":"Missing Maps: Semarang Tengah Sub Districts #PDC Semarang","status":"ARCHIVED","created":"2018","lastUpdated":"2018","lastActive":"no","area":5.39883144937884,"changesets":47,"mappers":3,"roads":1.56794116826866,"buildings":550,"edits":773,"latest":"2018-06-28T02:48:20.000Z"},"geometry":{"type":"Point","coordinates":[110.420989498907,-6.98031805440703]}},{"type":"Feature","properties":{"id":2085,"title":"Missing Maps: Jambangan Sub Districs #PDC Surabaya","status":"ARCHIVED","created":"2016","lastUpdated":"2017","lastActive":"no","area":4.372352653913602,"changesets":220,"mappers":9,"roads":40.262470357784,"buildings":8408,"edits":10104,"latest":"2017-02-22T08:43:12.000Z"},"geometry":{"type":"Point","coordinates":[112.715697830644,-7.32312667880513]}}],"Sweden":[{"type":"Feature","properties":{"id":4912,"title":"Sveg SE Area Fire, Sweden, Forest Fires 2018","status":"ARCHIVED","created":"2018","lastUpdated":"2018","lastActive":"no","area":2262.124765061048,"changesets":4,"mappers":1,"roads":2.70450001807415,"buildings":0,"edits":31,"latest":"2018-07-25T23:20:13.000Z"},"geometry":{"type":"Point","coordinates":[15.3900252920659,61.9326911478578]}},{"type":"Feature","properties":{"id":4904,"title":"Enskogen, Sweden, Forest Fires 2018","status":"PUBLISHED","created":"2018","lastUpdated":"2018","lastActive":"no","area":1982.1243277868111,"changesets":772,"mappers":27,"roads":1596.39939332713,"buildings":5807,"edits":11246,"latest":"2018-08-06T17:21:26.000Z"},"geometry":{"type":"Point","coordinates":[15.513380584715,61.96558482974]}}],"Nepal":[{"type":"Feature","properties":{"id":1015,"title":"Nepal Earthquake Mapping - Dhunche Rasuwa  ( Highly Effected Area ) ","status":"PUBLISHED","created":"2015","lastUpdated":"2017","lastActive":"no","area":70.19968393404724,"changesets":154,"mappers":40,"roads":16.4630165268003,"buildings":310,"edits":447,"latest":"2015-04-29T08:04:30.000Z"},"geometry":{"type":"Point","coordinates":[85.3219064771587,28.080402145585]}},{"type":"Feature","properties":{"id":451,"title":"OSM Patrol in Kathmandu","status":"PUBLISHED","created":"2014","lastUpdated":"2015","lastActive":"no","area":39.123235135575364,"changesets":0,"mappers":0,"roads":0,"buildings":0,"edits":0,"latest":null},"geometry":{"type":"Point","coordinates":[85.3242254956593,27.7075014836134]}},{"type":"Feature","properties":{"id":995,"title":"Nepal Earthquake, 2015, Road Network - task 2","status":"ARCHIVED","created":"2015","lastUpdated":"2016","lastActive":"no","area":5947.825913998539,"changesets":152,"mappers":17,"roads":509.401803963606,"buildings":229,"edits":1852,"latest":"2015-04-26T12:26:23.000Z"},"geometry":{"type":"Point","coordinates":[86.0426523819191,27.6229793224766]}},{"type":"Feature","properties":{"id":1004,"title":"Nepal Earthquake, 2015, Road Network - task 6","status":"ARCHIVED","created":"2015","lastUpdated":"2015","lastActive":"no","area":5296.531088286763,"changesets":0,"mappers":0,"roads":0,"buildings":0,"edits":0,"latest":null},"geometry":{"type":"Point","coordinates":[84.7403285749882,27.5598401152354]}},{"type":"Feature","properties":{"id":643,"title":"Hetauda Participatory GIS Assistance (Red Cross)","status":"PUBLISHED","created":"2014","lastUpdated":"2016","lastActive":"no","area":5.910148296984261,"changesets":0,"mappers":0,"roads":0,"buildings":0,"edits":0,"latest":null},"geometry":{"type":"Point","coordinates":[85.0365761488527,27.401337824818]}},{"type":"Feature","properties":{"id":1026,"title":"Nepal Earthquake, 2015, Helicopters landing and common leisure, Sindhupalchowk","status":"ARCHIVED","created":"2015","lastUpdated":"2015","lastActive":"no","area":2506.0286680012086,"changesets":0,"mappers":0,"roads":0,"buildings":0,"edits":0,"latest":null},"geometry":{"type":"Point","coordinates":[85.7394848765195,27.9141374745421]}},{"type":"Feature","properties":{"id":318,"title":"BK Ward 12","status":"ARCHIVED","created":"2013","lastUpdated":"2013","lastActive":"no","area":0.3268304632232159,"changesets":434,"mappers":25,"roads":3583.83066778877,"buildings":78646,"edits":84728,"latest":"2018-10-26T00:18:16.000Z"},"geometry":{"type":"Point","coordinates":[85.4283968672982,27.6674593829151]}},{"type":"Feature","properties":{"id":1009,"title":" Nepal Earthquake, 2015, Gorkha, Residential areas and buildings","status":"ARCHIVED","created":"2015","lastUpdated":"2016","lastActive":"no","area":1098.0752532943254,"changesets":7,"mappers":2,"roads":2.7597890044244,"buildings":198,"edits":238,"latest":"2015-04-29T14:52:58.000Z"},"geometry":{"type":"Point","coordinates":[84.609578627875,28.1297040022457]}},{"type":"Feature","properties":{"id":1002,"title":"Nepal Earthquake, 2015, Road Network, villages and buildings - task 4","status":"ARCHIVED","created":"2015","lastUpdated":"2015","lastActive":"no","area":1397.6527492020589,"changesets":387,"mappers":55,"roads":96.6868573355253,"buildings":1389,"edits":1969,"latest":"2015-07-02T15:37:43.000Z"},"geometry":{"type":"Point","coordinates":[84.8814292428489,28.4122466882525]}},{"type":"Feature","properties":{"id":5504,"title":"Missing Maps - PrÃ©vention des catastrophes naturelles et du trafic d'enfants (Partie 3) - NÃ©pal","status":"PUBLISHED","created":"2018","lastUpdated":"2018","lastActive":"no","area":38.985183860303266,"changesets":155,"mappers":14,"roads":34.512728505436,"buildings":563,"edits":730,"latest":"2018-11-18T17:34:10.000Z"},"geometry":{"type":"Point","coordinates":[81.8461609276627,29.6922439504645]}},{"type":"Feature","properties":{"id":327,"title":"Kathmandu - GWU Mapping Exercise (Area 1)","status":"PUBLISHED","created":"2013","lastUpdated":"2016","lastActive":"no","area":52.65568249665954,"changesets":0,"mappers":0,"roads":0,"buildings":0,"edits":0,"latest":null},"geometry":{"type":"Point","coordinates":[85.3028436791309,27.6803729824331]}},{"type":"Feature","properties":{"id":1540,"title":"Missing Maps: Kaule, Nuwakot, Nepal","status":"PUBLISHED","created":"2016","lastUpdated":"2018","lastActive":"no","area":65.719858585551,"changesets":585,"mappers":91,"roads":73.0528812718572,"buildings":3552,"edits":5683,"latest":"2018-12-18T16:05:08.000Z"},"geometry":{"type":"Point","coordinates":[85.1400089263916,28.0028089979635]}},{"type":"Feature","properties":{"id":2055,"title":"Pokhara Mapping - Nepali Translation ","status":"ARCHIVED","created":"2016","lastUpdated":"2017","lastActive":"no","area":226.89495200338786,"changesets":0,"mappers":0,"roads":0,"buildings":0,"edits":0,"latest":null},"geometry":{"type":"Point","coordinates":[83.9706456727107,28.2239175391281]}},{"type":"Feature","properties":{"id":3404,"title":"Mapping Flood Affected Community in Nepal (Sunsari District, Itahari)","status":"ARCHIVED","created":"2017","lastUpdated":"2017","lastActive":"no","area":1196.5699549133644,"changesets":11514,"mappers":1299,"roads":3573.34654792191,"buildings":211393,"edits":277034,"latest":"2018-01-10T09:03:09.000Z"},"geometry":{"type":"Point","coordinates":[87.1699466516478,26.6506367294893]}},{"type":"Feature","properties":{"id":1073,"title":"Kaligandaki Landslide - Gulmi (High Alert District)","status":"PUBLISHED","created":"2015","lastUpdated":"2017","lastActive":"no","area":1112.34738546875,"changesets":8464,"mappers":356,"roads":2001.3187979335,"buildings":64162,"edits":79402,"latest":"2017-11-19T22:52:21.000Z"},"geometry":{"type":"Point","coordinates":[83.3090260820919,28.0937076179277]}},{"type":"Feature","properties":{"id":1348,"title":"Kathmandu Living Labs: Pokhara, Nepal â Mapping for Resiliency and Emergency Planning","status":"ARCHIVED","created":"2015","lastUpdated":"2015","lastActive":"no","area":195.99371005226007,"changesets":3,"mappers":2,"roads":4.58302716709217,"buildings":11,"edits":364,"latest":"2015-12-07T22:12:35.000Z"},"geometry":{"type":"Point","coordinates":[84.0022538206503,28.2018364876297]}},{"type":"Feature","properties":{"id":1023,"title":"Nepal Earthquake, 2015, Pilot task, Helicopters landing and common leisure, Northern Dhading","status":"ARCHIVED","created":"2015","lastUpdated":"2017","lastActive":"no","area":2491.007528213339,"changesets":0,"mappers":0,"roads":0,"buildings":0,"edits":0,"latest":null},"geometry":{"type":"Point","coordinates":[84.9832867594636,28.0044503868329]}},{"type":"Feature","properties":{"id":1047,"title":" Nepal Earthquake, 2015, Palpa ( Additional effected district )","status":"ARCHIVED","created":"2015","lastUpdated":"2016","lastActive":"no","area":1468.12636350692,"changesets":16502,"mappers":535,"roads":4147.92840048851,"buildings":107635,"edits":153883,"latest":"2016-04-29T06:45:09.000Z"},"geometry":{"type":"Point","coordinates":[83.6256818328353,27.8171222044086]}},{"type":"Feature","properties":{"id":1060,"title":"Nepal Earthquake, 2015, Severely damaged housing areas and IDP Informal camps, Gorkha north","status":"ARCHIVED","created":"2015","lastUpdated":"2015","lastActive":"no","area":1036.966997139806,"changesets":0,"mappers":0,"roads":0,"buildings":0,"edits":0,"latest":null},"geometry":{"type":"Point","coordinates":[84.6899046854037,28.1259073862707]}},{"type":"Feature","properties":{"id":1008,"title":"Nepal Earthquake, 2015, IDP Camps in Kathmandu","status":"ARCHIVED","created":"2015","lastUpdated":"2017","lastActive":"no","area":105.19772621428271,"changesets":312,"mappers":88,"roads":27.109006877294,"buildings":739,"edits":1429,"latest":"2015-12-02T08:33:24.000Z"},"geometry":{"type":"Point","coordinates":[85.3290374013556,27.7022635466444]}},{"type":"Feature","properties":{"id":317,"title":"Bhaktapur EXAMPLE Job","status":"ARCHIVED","created":"2013","lastUpdated":"2013","lastActive":"no","area":0.449333777092227,"changesets":0,"mappers":0,"roads":0,"buildings":0,"edits":0,"latest":null},"geometry":{"type":"Point","coordinates":[85.4336167176659,27.6728371936537]}},{"type":"Feature","properties":{"id":337,"title":"Mapping Flooding Areas in Koshi Basin","status":"PUBLISHED","created":"2013","lastUpdated":"2018","lastActive":"no","area":76.55912060172346,"changesets":30,"mappers":2,"roads":0.749499777453707,"buildings":635,"edits":640,"latest":"2018-10-04T09:19:19.000Z"},"geometry":{"type":"Point","coordinates":[86.9295861265497,26.5750871937923]}},{"type":"Feature","properties":{"id":1006,"title":"Nepal Earthquake, 2015, Residential areas and buildings - task 7","status":"ARCHIVED","created":"2015","lastUpdated":"2016","lastActive":"no","area":2491.4527408371837,"changesets":3,"mappers":2,"roads":2.83453464364618,"buildings":326,"edits":366,"latest":"2015-05-01T12:45:41.000Z"},"geometry":{"type":"Point","coordinates":[84.3231526757755,28.0583421357581]}},{"type":"Feature","properties":{"id":190,"title":"Nepal Earthquake, 2015 â Mapping for an earthquake risk assessment","status":"ARCHIVED","created":"2013","lastUpdated":"2017","lastActive":"no","area":477.4508624995653,"changesets":1,"mappers":1,"roads":2.99701933964575,"buildings":0,"edits":2,"latest":"2017-04-08T11:46:06.000Z"},"geometry":{"type":"Point","coordinates":[85.3510461796377,27.6899375744699]}},{"type":"Feature","properties":{"id":994,"title":"Nepal Earthquake, 2015, Road Network - task 1","status":"ARCHIVED","created":"2015","lastUpdated":"2017","lastActive":"no","area":6006.566772301721,"changesets":24,"mappers":1,"roads":22.0338007252697,"buildings":93,"edits":187,"latest":"2017-04-08T07:31:23.000Z"},"geometry":{"type":"Point","coordinates":[85.2011601306141,27.9826357441727]}},{"type":"Feature","properties":{"id":758,"title":"Bajrabarahi Remote Mapping","status":"PUBLISHED","created":"2014","lastUpdated":"2018","lastActive":"no","area":17.98986229414143,"changesets":0,"mappers":0,"roads":0,"buildings":0,"edits":0,"latest":null},"geometry":{"type":"Point","coordinates":[85.1228822882452,27.6548706561527]}},{"type":"Feature","properties":{"id":1709,"title":"Kathmandu Living Labs: Pokhara, Nepal â Mapping for Resiliency and Emergency Planning","status":"ARCHIVED","created":"2016","lastUpdated":"2017","lastActive":"no","area":502.0748278318717,"changesets":4373,"mappers":69,"roads":670.571073499311,"buildings":126354,"edits":152352,"latest":"2017-03-19T09:19:31.000Z"},"geometry":{"type":"Point","coordinates":[83.9520263671875,28.2349393120655]}},{"type":"Feature","properties":{"id":2323,"title":"Syangja Mapping - 2C Pokhara, GIS Day 2016 Mapathon","status":"PUBLISHED","created":"2016","lastUpdated":"2017","lastActive":"no","area":1040.6210789947158,"changesets":0,"mappers":0,"roads":0,"buildings":0,"edits":0,"latest":null},"geometry":{"type":"Point","coordinates":[83.8032663826953,28.02110318564]}},{"type":"Feature","properties":{"id":3590,"title":"Flood Prone Community Mapping - Rupandehi, Nepal","status":"PUBLISHED","created":"2017","lastUpdated":"2017","lastActive":"no","area":52.9027060483444,"changesets":752,"mappers":60,"roads":234.276735819289,"buildings":7205,"edits":9895,"latest":"2017-11-26T12:40:34.000Z"},"geometry":{"type":"Point","coordinates":[83.1372793770882,27.7055150979131]}},{"type":"Feature","properties":{"id":1863,"title":"HFH Pipaltar, Nepal","status":"ARCHIVED","created":"2016","lastUpdated":"2016","lastActive":"no","area":0.361195719224757,"changesets":161,"mappers":6,"roads":6.61891019863734,"buildings":157,"edits":527,"latest":"2016-05-11T04:33:48.000Z"},"geometry":{"type":"Point","coordinates":[85.6219942503242,27.6325262434206]}},{"type":"Feature","properties":{"id":2156,"title":"HFH :: NEAP - Tupche","status":"PUBLISHED","created":"2016","lastUpdated":"2016","lastActive":"no","area":19.040396945807156,"changesets":591,"mappers":4,"roads":2.84682321601079,"buildings":876,"edits":1010,"latest":"2016-12-23T09:09:08.000Z"},"geometry":{"type":"Point","coordinates":[85.148154689732,27.9662120313861]}},{"type":"Feature","properties":{"id":444,"title":"OSM Patrol in Lalitpur","status":"PUBLISHED","created":"2014","lastUpdated":"2014","lastActive":"no","area":8.743681516141335,"changesets":0,"mappers":0,"roads":0,"buildings":0,"edits":0,"latest":null},"geometry":{"type":"Point","coordinates":[85.3183269217926,27.6759638224647]}},{"type":"Feature","properties":{"id":3330,"title":"Kolti Mapping - Bajura (Kathmandu Living Labs)","status":"PUBLISHED","created":"2017","lastUpdated":"2018","lastActive":"no","area":147.69194823039064,"changesets":321,"mappers":52,"roads":133.321037552097,"buildings":3075,"edits":3709,"latest":"2018-04-24T02:43:44.000Z"},"geometry":{"type":"Point","coordinates":[81.6032521717178,29.5586293317808]}},{"type":"Feature","properties":{"id":1062,"title":"Nepal Earthquake, 2015, Severely damaged housing areas and IDP Informal camps, Chautara, 2015-05-14","status":"ARCHIVED","created":"2015","lastUpdated":"2015","lastActive":"no","area":431.9231507367645,"changesets":0,"mappers":0,"roads":0,"buildings":0,"edits":0,"latest":null},"geometry":{"type":"Point","coordinates":[85.7363880166625,27.737324374975]}},{"type":"Feature","properties":{"id":1089,"title":" Nepal Earthquake, 2015, ( Additional affected districts )","status":"ARCHIVED","created":"2015","lastUpdated":"2015","lastActive":"no","area":1031.7016729015713,"changesets":21,"mappers":2,"roads":68.4179397386431,"buildings":1308,"edits":1574,"latest":"2015-06-10T23:30:06.000Z"},"geometry":{"type":"Point","coordinates":[86.14433687707,27.17360988975]}},{"type":"Feature","properties":{"id":2009,"title":"Tanahu Mapping","status":"PUBLISHED","created":"2016","lastUpdated":"2017","lastActive":"no","area":1577.9339889134376,"changesets":0,"mappers":0,"roads":0,"buildings":0,"edits":0,"latest":null},"geometry":{"type":"Point","coordinates":[84.2511423601841,27.9552934663422]}},{"type":"Feature","properties":{"id":1025,"title":"Nepal Earthquake, 2015, Severely damaged housing areas and IDP Informal camps, Bidur","status":"ARCHIVED","created":"2015","lastUpdated":"2016","lastActive":"no","area":96.21276298392912,"changesets":0,"mappers":0,"roads":0,"buildings":0,"edits":0,"latest":null},"geometry":{"type":"Point","coordinates":[85.1790955991239,27.8971602085929]}},{"type":"Feature","properties":{"id":1071,"title":"Kaligandaki Landslide - Baglung (High Alert District)","status":"PUBLISHED","created":"2015","lastUpdated":"2017","lastActive":"no","area":1842.7067486524927,"changesets":2639,"mappers":122,"roads":676.815600565175,"buildings":23227,"edits":28035,"latest":"2018-03-20T17:01:26.000Z"},"geometry":{"type":"Point","coordinates":[83.2524436334244,28.347313213461]}},{"type":"Feature","properties":{"id":1014,"title":"Nepal Earthquake Mapping - Sindhupalchowk (Highly Effected Area)","status":"ARCHIVED","created":"2015","lastUpdated":"2015","lastActive":"no","area":935.2859413404367,"changesets":4922,"mappers":411,"roads":905.644372892459,"buildings":38888,"edits":48635,"latest":"2015-08-04T20:04:51.000Z"},"geometry":{"type":"Point","coordinates":[86.022332143276,27.748322547035]}},{"type":"Feature","properties":{"id":1016,"title":"Nepal Earthquake Mapping - Langtang Rasuwa  ( Highly Effected Area ) ","status":"PUBLISHED","created":"2015","lastUpdated":"2017","lastActive":"no","area":503.7484641624975,"changesets":109,"mappers":50,"roads":22.8163040777894,"buildings":379,"edits":523,"latest":"2017-02-08T12:45:49.000Z"},"geometry":{"type":"Point","coordinates":[85.6171427770942,28.2285000973272]}},{"type":"Feature","properties":{"id":1001,"title":"Nepal Earthquake, 2015, Road Network - task 3","status":"ARCHIVED","created":"2015","lastUpdated":"2015","lastActive":"no","area":2491.4527408371837,"changesets":1,"mappers":1,"roads":4.61768990848999,"buildings":0,"edits":22,"latest":"2015-04-26T07:14:07.000Z"},"geometry":{"type":"Point","coordinates":[84.3231526757755,28.0583421357581]}},{"type":"Feature","properties":{"id":1033,"title":"Nepal Earthquake, 2015, Severely damaged housing areas and IDP Informal camps, Langtang","status":"ARCHIVED","created":"2015","lastUpdated":"2015","lastActive":"no","area":358.27162116527575,"changesets":14,"mappers":3,"roads":2.78986019039387,"buildings":3,"edits":21,"latest":"2015-05-04T12:25:34.000Z"},"geometry":{"type":"Point","coordinates":[85.5680118627181,28.2113205408614]}},{"type":"Feature","properties":{"id":1010,"title":" Nepal Earthquake, 2015, IDP camps in Banepa area","status":"PUBLISHED","created":"2015","lastUpdated":"2016","lastActive":"no","area":338.41199215971403,"changesets":96,"mappers":36,"roads":35.0002570613446,"buildings":881,"edits":1641,"latest":"2015-12-11T04:27:16.000Z"},"geometry":{"type":"Point","coordinates":[85.4751380861222,27.6794337649294]}},{"type":"Feature","properties":{"id":2675,"title":"Flood Prone Community Mapping - Bardiya","status":"PUBLISHED","created":"2017","lastUpdated":"2018","lastActive":"no","area":79.47129041782082,"changesets":311,"mappers":29,"roads":105.948255091262,"buildings":3310,"edits":4556,"latest":"2018-07-30T02:37:10.000Z"},"geometry":{"type":"Point","coordinates":[81.2108745435549,28.5395385085938]}},{"type":"Feature","properties":{"id":1059,"title":"Nepal Earthquake, 2015, Severely damaged housing areas and IDP Informal camps, Langtang NE","status":"ARCHIVED","created":"2015","lastUpdated":"2017","lastActive":"no","area":43.435439813078375,"changesets":0,"mappers":0,"roads":0,"buildings":0,"edits":0,"latest":null},"geometry":{"type":"Point","coordinates":[85.7773666332396,27.9969871635861]}},{"type":"Feature","properties":{"id":183,"title":"Digitizing Building Footprints In Kathmandu Valley","status":"ARCHIVED","created":"2013","lastUpdated":"2014","lastActive":"no","area":530.89262391866,"changesets":0,"mappers":0,"roads":0,"buildings":0,"edits":0,"latest":null},"geometry":{"type":"Point","coordinates":[85.3540102535832,27.6939774486674]}},{"type":"Feature","properties":{"id":2806,"title":"Kohalpur Mapping","status":"PUBLISHED","created":"2017","lastUpdated":"2017","lastActive":"no","area":169.77397692416412,"changesets":850,"mappers":30,"roads":266.386981090196,"buildings":13685,"edits":16645,"latest":"2018-01-19T10:08:31.000Z"},