{"totalEdits":39721657,"totalBuildings":32606268,"totalRoads":847104.052440982,"mappersOnline":31,"totalTasksMapped":1565615,"totalMappers":129737,"totalProjects":1622,"Costa Rica":[{"type":"Feature","properties":{"lastActive":"no","title":"Tropical Storm Otto: West of Pijije, Guanacaste Province, Costa Rica - Buildings only","id":2355,"area":1.8323271937347259,"year":"2016","lastUpdated":"2016-11-27T22:23:47.232637","changesets":76,"mappers":7,"roads":0.491180329725007,"buildings":302,"edits":334,"latest":"2016-11-29T21:09:21.000Z"},"geometry":{"type":"Point","coordinates":[-85.35286050931201,10.551608044163]}},{"type":"Feature","properties":{"lastActive":"no","title":"Universidad de Costa Rica","id":2967,"area":114.12724993907129,"year":"2018","lastUpdated":"2018-03-23T05:37:43.832381","changesets":220,"mappers":22,"roads":6.48595695581326,"buildings":2949,"edits":4108,"latest":"2018-07-23T19:35:48.000Z"},"geometry":{"type":"Point","coordinates":[-84.09998718913698,9.942034575015164]}}],"totalArea":5829876.542104929,"Nepal":[{"type":"Feature","properties":{"lastActive":"no","title":"Baglung Mapping - 2C Pokhara, GIS Day 2016 Mapathon","id":2324,"area":1840.3258148722687,"year":"2017","lastUpdated":"2017-10-16T10:53:36.378520","changesets":100880,"mappers":3639,"roads":36744.3187076846,"buildings":1724894,"edits":2170628,"latest":"2018-08-03T05:21:45.000Z"},"geometry":{"type":"Point","coordinates":[83.21388465782275,28.41800462490221]}},{"type":"Feature","properties":{"lastActive":"no","title":"Tanahu Mapping","id":2009,"area":1577.9339889134376,"year":"2017","lastUpdated":"2017-04-02T23:31:16.919181","changesets":0,"mappers":0,"roads":0,"buildings":0,"edits":0,"latest":null},"geometry":{"type":"Point","coordinates":[84.18261352582412,27.950608816405012]}},{"type":"Feature","properties":{"lastActive":"yes","title":"Mapping Flood Affected Community in Nepal (Bank of East Rapti River)","id":3405,"area":814.4121243749338,"year":"2018","lastUpdated":"2018-08-02T20:41:02.360864","changesets":0,"mappers":0,"roads":0,"buildings":0,"edits":0,"latest":null},"geometry":{"type":"Point","coordinates":[84.77587980382584,27.517333661235245]}},{"type":"Feature","properties":{"lastActive":"yes","title":"Mapping Flood Affected Community in Nepal (Morang District, Biratnagar)","id":3473,"area":1830.0915357323506,"year":"2018","lastUpdated":"2018-08-02T22:35:30.893192","changesets":0,"mappers":0,"roads":0,"buildings":0,"edits":0,"latest":null},"geometry":{"type":"Point","coordinates":[87.41436987053658,26.652046649252412]}},{"type":"Feature","properties":{"lastActive":"no","title":"Flood Prone Community Mapping - Tikapur","id":2718,"area":211.5990836047075,"year":"2018","lastUpdated":"2018-02-11T18:30:24.424355","changesets":1518,"mappers":82,"roads":407.678517559743,"buildings":29814,"edits":34154,"latest":"2018-05-02T20:14:30.000Z"},"geometry":{"type":"Point","coordinates":[81.1373093686036,28.509438927392804]}},{"type":"Feature","properties":{"lastActive":"no","title":"Kathmandu Living Labs: Pokhara, Nepal (Extended) â Mapping for Resiliency and Emergency Planning","id":2734,"area":427.5206799187036,"year":"2017","lastUpdated":"2017-08-30T14:33:06.596886","changesets":2594,"mappers":32,"roads":580.553483012275,"buildings":41384,"edits":54204,"latest":"2017-11-15T10:14:39.000Z"},"geometry":{"type":"Point","coordinates":[83.98499502441072,28.235686624880366]}},{"type":"Feature","properties":{"lastActive":"no","title":"Flood Prone Community Mapping - Bardiya","id":2675,"area":79.47129041782082,"year":"2018","lastUpdated":"2018-07-30T02:38:07.292323","changesets":311,"mappers":29,"roads":105.948255091262,"buildings":3310,"edits":4556,"latest":"2018-07-30T02:37:10.000Z"},"geometry":{"type":"Point","coordinates":[81.216641934225,28.544337034614546]}},{"type":"Feature","properties":{"lastActive":"no","title":"Flood Prone Community Mapping - Gulariya","id":2674,"area":96.10571474858709,"year":"2017","lastUpdated":"2017-11-20T07:03:32.605793","changesets":517,"mappers":16,"roads":301.883413162937,"buildings":10175,"edits":12396,"latest":"2017-11-20T08:14:01.000Z"},"geometry":{"type":"Point","coordinates":[81.3394547724868,28.21000535555556]}},{"type":"Feature","properties":{"lastActive":"no","title":"Open Data Day Nepal 2017 - Rajapur Mapping","id":2614,"area":240.9449448084045,"year":"2018","lastUpdated":"2018-04-25T01:46:45.905920","changesets":100880,"mappers":3639,"roads":36744.3187076846,"buildings":1724894,"edits":2170628,"latest":"2018-08-03T05:21:45.000Z"},"geometry":{"type":"Point","coordinates":[81.15835880373676,28.43001877737917]}},{"type":"Feature","properties":{"lastActive":"no","title":"Social Computing: Spring 2014","id":446,"area":61.52093107331884,"year":"2017","lastUpdated":"2017-10-09T17:47:56.430288","changesets":30,"mappers":3,"roads":2.91582885993251,"buildings":76,"edits":154,"latest":"2017-11-13T10:44:19.000Z"},"geometry":{"type":"Point","coordinates":[87.86550317724272,26.661711259714547]}},{"type":"Feature","properties":{"lastActive":"no","title":"Kathmandu University Mapping","id":452,"area":49.876618909115656,"year":"2017","lastUpdated":"2017-08-14T04:44:01.324186","changesets":0,"mappers":0,"roads":0,"buildings":0,"edits":0,"latest":null},"geometry":{"type":"Point","coordinates":[85.53715752260757,27.600252829001303]}},{"type":"Feature","properties":{"lastActive":"no","title":"Kathmandu - GWU Mapping Exercise (Area 2)","id":328,"area":14.41967063680349,"year":"2016","lastUpdated":"2016-11-08T18:08:48.228082","changesets":0,"mappers":0,"roads":0,"buildings":0,"edits":0,"latest":null},"geometry":{"type":"Point","coordinates":[85.35882948640639,27.77109059305283]}},{"type":"Feature","properties":{"lastActive":"no","title":"Tulane Class Task - Chitwan, Nepal","id":330,"area":76.57562998336209,"year":"2017","lastUpdated":"2017-09-13T12:18:29.132121","changesets":46,"mappers":3,"roads":0.91219562613606,"buildings":148,"edits":172,"latest":"2018-06-10T04:04:12.000Z"},"geometry":{"type":"Point","coordinates":[84.42185996787454,27.680614969844527]}},{"type":"Feature","properties":{"lastActive":"no","title":"Kathmandu - GWU Mapping Exercise (Area 1)","id":327,"area":52.65568249665954,"year":"2016","lastUpdated":"2016-11-11T17:14:07.552782","changesets":55,"mappers":7,"roads":3.43224416941323,"buildings":990,"edits":1197,"latest":"2018-06-08T11:32:49.000Z"},"geometry":{"type":"Point","coordinates":[85.28682745699977,27.69516375230199]}},{"type":"Feature","properties":{"lastActive":"no","title":"Mapping Flooding Areas in Koshi Basin","id":337,"area":76.55912060172346,"year":"2017","lastUpdated":"2017-08-15T21:22:26.833349","changesets":179,"mappers":20,"roads":54.9738023166765,"buildings":2652,"edits":3490,"latest":"2017-08-06T15:58:24.000Z"},"geometry":{"type":"Point","coordinates":[86.93582073789841,26.545448624347145]}},{"type":"Feature","properties":{"lastActive":"no","title":"Seti River, Kaski, Kharapani area, Nepal","id":268,"area":188.231336627942,"year":"2018","lastUpdated":"2018-04-14T21:01:23.167441","changesets":62,"mappers":10,"roads":11.0116175322283,"buildings":412,"edits":574,"latest":"2018-04-05T14:19:28.000Z"},"geometry":{"type":"Point","coordinates":[83.92569779181132,28.319588853591895]}},{"type":"Feature","properties":{"lastActive":"no","title":"Nepal Mapping - Morang District","id":1975,"area":1829.9119340384173,"year":"2017","lastUpdated":"2017-05-14T00:28:28.354260","changesets":817,"mappers":8,"roads":71.7852403015999,"buildings":5811,"edits":6940,"latest":"2017-03-16T09:48:40.000Z"},"geometry":{"type":"Point","coordinates":[87.46081176913096,26.589849168902497]}},{"type":"Feature","properties":{"lastActive":"no","title":"Missing Maps: Dhangadi, Kailali, Nepal 1","id":3675,"area":232.0368296734693,"year":"2018","lastUpdated":"2018-02-07T17:03:55.902567","changesets":2863,"mappers":214,"roads":481.127489375326,"buildings":26947,"edits":33911,"latest":"2018-02-27T19:18:03.000Z"},"geometry":{"type":"Point","coordinates":[80.67164254188538,28.68466503752603]}},{"type":"Feature","properties":{"lastActive":"no","title":"Mapping Flood Affected Community in Nepal (Jhapa District, Bank of KankaiMai River)","id":3406,"area":1610.1168785147927,"year":"2018","lastUpdated":"2018-07-03T15:11:12.381879","changesets":0,"mappers":0,"roads":0,"buildings":0,"edits":0,"latest":null},"geometry":{"type":"Point","coordinates":[87.97951066038503,26.57537728133027]}},{"type":"Feature","properties":{"lastActive":"no","title":" Nepal Earthquake, 2015, ( Additional affected districts )","id":1090,"area":2561.440040938251,"year":"2018","lastUpdated":"2018-07-31T17:48:11.478245","changesets":7504,"mappers":747,"roads":4682.87066789593,"buildings":87202,"edits":137204,"latest":"2018-07-31T17:58:27.000Z"},"geometry":{"type":"Point","coordinates":[86.26567083114226,27.177909185060102]}},{"type":"Feature","properties":{"lastActive":"no","title":"Mapping Flood Affected Community in Nepal (Morang District, Biratnagar)","id":3403,"area":1830.0915357323506,"year":"2017","lastUpdated":"2017-10-19T00:32:51.281462","changesets":0,"mappers":0,"roads":0,"buildings":0,"edits":0,"latest":null},"geometry":{"type":"Point","coordinates":[87.41436987053658,26.652046649252412]}},{"type":"Feature","properties":{"lastActive":"no","title":"Missing Maps: Kailali, Nepal 2","id":3677,"area":740.1613239796205,"year":"2018","lastUpdated":"2018-05-11T09:46:50.668862","changesets":2658,"mappers":204,"roads":844.048136511436,"buildings":27117,"edits":37164,"latest":"2018-05-29T23:40:53.000Z"},"geometry":{"type":"Point","coordinates":[80.70172534393649,28.71396405934408]}},{"type":"Feature","properties":{"lastActive":"no","title":" Nepal Earthquake, 2015, Solukhumbu ( Additional affected district )","id":1043,"area":3367.522654837291,"year":"2018","lastUpdated":"2018-06-07T08:58:00.498382","changesets":2203,"mappers":141,"roads":797.264493316281,"buildings":37667,"edits":43730,"latest":"2018-06-07T08:56:39.000Z"},"geometry":{"type":"Point","coordinates":[86.6990663192365,27.753414127864893]}},{"type":"Feature","properties":{"lastActive":"no","title":"Kaligandaki Landslide - Gulmi (High Alert District)","id":1073,"area":1112.34738546875,"year":"2017","lastUpdated":"2017-09-29T18:20:00.485063","changesets":8464,"mappers":356,"roads":2001.3187979335,"buildings":64162,"edits":79402,"latest":"2017-11-19T22:52:21.000Z"},"geometry":{"type":"Point","coordinates":[83.30952359552255,28.087069216166462]}}],"Mozambique":[{"type":"Feature","properties":{"lastActive":"no","title":"Missing Maps Maputo, Mozambique - HIV/AIDS and tuberculosis intervention","id":2337,"area":155.69420764091134,"year":"2018","lastUpdated":"2018-03-05T15:59:21.276066","changesets":279,"mappers":17,"roads":160.146984238073,"buildings":5949,"edits":8307,"latest":"2018-05-07T13:37:25.000Z"},"geometry":{"type":"Point","coordinates":[32.558783731703464,-25.919528839517405]}},{"type":"Feature","properties":{"lastActive":"no","title":"Milange District, Mozambique III -- Africa Indoor Residual Spraying Campaign","id":1988,"area":1841.363734998805,"year":"2018","lastUpdated":"2018-02-28T01:20:36.770009","changesets":5981,"mappers":269,"roads":5041.11318093612,"buildings":41202,"edits":84289,"latest":"2018-03-06T09:00:39.000Z"},"geometry":{"type":"Point","coordinates":[35.953292846679695,-16.433346573363202]}},{"type":"Feature","properties":{"lastActive":"no","title":"Pambarra, Mozambique - Vilankulo Bed Net Surveillance Program","id":4265,"area":10.568757481477872,"year":"2018","lastUpdated":"2018-07-06T02:43:34.199425","changesets":829,"mappers":48,"roads":31.5848129566185,"buildings":5953,"edits":6317,"latest":"2018-07-19T01:40:14.000Z"},"geometry":{"type":"Point","coordinates":[35.1365292794461,-21.981905060763506]}},{"type":"Feature","properties":{"lastActive":"no","title":"Peace Corps Mozambique -- Namacurra","id":1759,"area":9.535621472514679,"year":"2016","lastUpdated":"2016-12-04T16:29:54.270079","changesets":226,"mappers":24,"roads":132.232316037041,"buildings":3965,"edits":6366,"latest":"2016-12-04T16:29:40.000Z"},"geometry":{"type":"Point","coordinates":[37.032367810606964,-17.480202036458]}},{"type":"Feature","properties":{"lastActive":"no","title":"Vilankulo, Mozambique - Vilankulo Bed Net Surveillance Program","id":4746,"area":53.51720956101426,"year":"2018","lastUpdated":"2018-08-02T01:08:25.402933","changesets":5243,"mappers":187,"roads":5.58335687244069,"buildings":47454,"edits":47669,"latest":"2018-08-02T01:10:23.000Z"},"geometry":{"type":"Point","coordinates":[35.30021009270875,-21.982771993262052]}},{"type":"Feature","properties":{"lastActive":"no","title":"Inhasorro, Mozambique - Vilankulo Bed Net Surveillance Program","id":4762,"area":17.757313858773237,"year":"2018","lastUpdated":"2018-08-01T22:04:20.600463","changesets":653,"mappers":72,"roads":35.2364387533167,"buildings":8900,"edits":9135,"latest":"2018-08-02T21:48:13.000Z"},"geometry":{"type":"Point","coordinates":[35.201667817598114,-21.552648817006038]}},{"type":"Feature","properties":{"lastActive":"no","title":"Missing Maps: Maputo - Acordos de Lusaka","id":2937,"area":3.08805367041686,"year":"2018","lastUpdated":"2018-04-19T23:48:11.123158","changesets":420,"mappers":71,"roads":23.9344196063452,"buildings":3061,"edits":3883,"latest":"2018-04-19T23:47:14.000Z"},"geometry":{"type":"Point","coordinates":[32.52713296405804,-25.91030908198463]}},{"type":"Feature","properties":{"lastActive":"no","title":"Missing Maps: Maputo - Ramani Huria 15","id":2454,"area":40.90204583523918,"year":"2018","lastUpdated":"2018-04-19T23:58:50.312043","changesets":1614,"mappers":14,"roads":34.1677593758107,"buildings":122454,"edits":127157,"latest":"2018-04-19T23:58:12.000Z"},"geometry":{"type":"Point","coordinates":[32.582861900012425,-25.944692967193202]}},{"type":"Feature","properties":{"lastActive":"no","title":"Peace Corps Mozambique - Mecanhelas","id":1113,"area":9.119980311936585,"year":"2018","lastUpdated":"2018-02-09T01:08:30.606571","changesets":106,"mappers":9,"roads":441.558169475856,"buildings":6104,"edits":9649,"latest":"2018-02-08T08:42:29.000Z"},"geometry":{"type":"Point","coordinates":[35.86899757385253,-15.20057742427401]}},{"type":"Feature","properties":{"lastActive":"no","title":"Peace Corps - Namaacha, Mozambique","id":1096,"area":10.111859218432892,"year":"2018","lastUpdated":"2018-03-09T20:59:33.846106","changesets":206,"mappers":28,"roads":115.654707207851,"buildings":3090,"edits":4451,"latest":"2018-03-09T21:43:49.000Z"},"geometry":{"type":"Point","coordinates":[32.02022838592529,-25.9829294032005]}},{"type":"Feature","properties":{"lastActive":"no","title":"Peace Corps Mozambique -- Mocuba","id":1128,"area":11.286867685232004,"year":"2017","lastUpdated":"2017-01-30T07:53:52.950506","changesets":931,"mappers":97,"roads":122.739009601984,"buildings":12364,"edits":15747,"latest":"2016-12-11T06:08:22.000Z"},"geometry":{"type":"Point","coordinates":[36.98053056543523,-16.845264255357417]}},{"type":"Feature","properties":{"lastActive":"no","title":"Morrumbala District, Mozambique -- Africa Indoor Residual Spraying Campaign","id":1474,"area":8080.603291054168,"year":"2018","lastUpdated":"2018-02-09T20:27:37.111324","changesets":193,"mappers":40,"roads":488.820610800071,"buildings":2428,"edits":4624,"latest":"2018-03-06T20:22:26.000Z"},"geometry":{"type":"Point","coordinates":[35.59246949229776,-17.024216004123527]}},{"type":"Feature","properties":{"lastActive":"no","title":"Missing Maps: Thukuta, Nsanje District, Southern Region, Malawi","id":3214,"area":97.92392857358597,"year":"2018","lastUpdated":"2018-03-16T21:31:31.943659","changesets":0,"mappers":0,"roads":0,"buildings":0,"edits":0,"latest":null},"geometry":{"type":"Point","coordinates":[35.25178609723306,-16.360440274562013]}},{"type":"Feature","properties":{"lastActive":"no","title":"TALLER DE MAPEO HUMANITARIO (Inundaciones Mozambique)","id":1693,"area":545.2428156228319,"year":"2016","lastUpdated":"2016-04-20T15:52:58.155351","changesets":20,"mappers":7,"roads":14.9842312828761,"buildings":1269,"edits":1327,"latest":"2016-04-08T16:52:09.000Z"},"geometry":{"type":"Point","coordinates":[40.12970791138098,-11.817644625369747]}},{"type":"Feature","properties":{"lastActive":"no","title":"Derre District, Mozambique -- Africa Indoor Residual Spraying Campaign","id":1497,"area":4773.448219459599,"year":"2017","lastUpdated":"2017-09-14T06:28:28.325652","changesets":2076,"mappers":147,"roads":5763.00032053968,"buildings":54151,"edits":82127,"latest":"2016-07-11T13:55:10.000Z"},"geometry":{"type":"Point","coordinates":[36.14773487005291,-17.03036672968099]}},{"type":"Feature","properties":{"lastActive":"no","title":"Peace Corps Mozambique - Ribaue","id":1240,"area":3.9998387462021063,"year":"2018","lastUpdated":"2018-02-28T01:48:18.478713","changesets":497,"mappers":27,"roads":1086.8163121582,"buildings":14716,"edits":22520,"latest":"2018-02-28T01:48:40.000Z"},"geometry":{"type":"Point","coordinates":[38.32155182554915,-14.941911382879905]}}],"Chad":[{"type":"Feature","properties":{"lastActive":"no","title":"Missing Maps: Hadjer Lamis, Chad (Task 6 - residential areas and buildings)","id":2308,"area":1794.4000825257979,"year":"2018","lastUpdated":"2018-06-22T04:21:43.113272","changesets":0,"mappers":0,"roads":0,"buildings":0,"edits":0,"latest":null},"geometry":{"type":"Point","coordinates":[16.469818585923125,12.67997535391665]}},{"type":"Feature","properties":{"lastActive":"no","title":"Untitled project","id":771,"area":10.610181118755149,"year":"2017","lastUpdated":"2017-05-08T18:09:35.280846","changesets":85,"mappers":2,"roads":4.20020207039419,"buildings":307,"edits":333,"latest":"2017-05-08T18:09:27.000Z"},"geometry":{"type":"Point","coordinates":[16.490353345870968,13.646347852066564]}},{"type":"Feature","properties":{"lastActive":"yes","title":"Lake Chad Region","id":4199,"area":9277.85681376314,"year":"2018","lastUpdated":"2018-08-03T05:48:57.193002","changesets":3041,"mappers":480,"roads":1560.2563600649,"buildings":57803,"edits":61870,"latest":"2018-08-03T04:32:12.000Z"},"geometry":{"type":"Point","coordinates":[14.24183517289722,13.48247367894081]}},{"type":"Feature","properties":{"lastActive":"yes","title":"Mapping for mine-clearing for Handicap International in Chad","id":3941,"area":237.73599778829367,"year":"2018","lastUpdated":"2018-08-02T17:31:46.093613","changesets":1817,"mappers":72,"roads":130.49481646199,"buildings":9734,"edits":10381,"latest":"2018-08-02T17:31:42.000Z"},"geometry":{"type":"Point","coordinates":[18.72306749824483,17.99395287654651]}},{"type":"Feature","properties":{"lastActive":"no","title":"Moundou centre (Tchad)","id":394,"area":8.163574928865069,"year":"2015","lastUpdated":"2015-08-23T09:35:27.147833","changesets":1,"mappers":1,"roads":0,"buildings":2,"edits":2,"latest":"2014-11-21T10:41:21.000Z"},"geometry":{"type":"Point","coordinates":[16.079785821583414,8.573128033181655]}},{"type":"Feature","properties":{"lastActive":"no","title":"Tchad, Sarh","id":372,"area":30.300927795340233,"year":"2015","lastUpdated":"2015-06-02T07:32:27.883562","changesets":6,"mappers":2,"roads":0.00000389363327246883,"buildings":91,"edits":95,"latest":"2017-11-15T05:34:22.000Z"},"geometry":{"type":"Point","coordinates":[18.38044166309315,9.130740267922453]}},{"type":"Feature","properties":{"lastActive":"no","title":"Eurosha Southern Chad, Amboko and Gondje camps and outskirts ","id":101,"area":192.7188962749428,"year":"2015","lastUpdated":"2015-06-06T04:33:12.439260","changesets":46,"mappers":16,"roads":92.5900026405634,"buildings":320,"edits":1226,"latest":"2017-07-18T11:34:05.000Z"},"geometry":{"type":"Point","coordinates":[16.579399106578528,7.948052303503053]}}],"Malawi":[{"type":"Feature","properties":{"lastActive":"no","title":"Missing Maps: Lobi, Dedza District, Central Region, Malawi","id":2296,"area":67.19593375510624,"year":"2018","lastUpdated":"2018-03-17T00:23:59.588316","changesets":5259,"mappers":307,"roads":1226.50667703289,"buildings":75737,"edits":91127,"latest":"2018-04-18T21:27:06.000Z"},"geometry":{"type":"Point","coordinates":[34.04762245862761,-14.345809491777555]}},{"type":"Feature","properties":{"lastActive":"yes","title":"Missing Maps - Malawi - Mwambo West (Roads)","id":3104,"area":57.79493446253944,"year":"2018","lastUpdated":"2018-08-03T03:12:31.721398","changesets":3011,"mappers":119,"roads":2733.81257672981,"buildings":16559,"edits":63789,"latest":"2018-08-03T03:12:01.000Z"},"geometry":{"type":"Point","coordinates":[35.44974083945572,-15.455271723316434]}},{"type":"Feature","properties":{"lastActive":"no","title":"Missing Maps - Malawi - Mangochi","id":2628,"area":42.67989252734085,"year":"2018","lastUpdated":"2018-03-05T15:55:57.062849","changesets":271,"mappers":37,"roads":85.1060703145913,"buildings":3050,"edits":4139,"latest":"2018-01-31T19:14:54.000Z"},"geometry":{"type":"Point","coordinates":[35.22654721275986,-14.417676907750192]}},{"type":"Feature","properties":{"lastActive":"no","title":"Missing Maps - Malawi - Mbabvi","id":4136,"area":494.03595616006686,"year":"2018","lastUpdated":"2018-07-09T10:28:58.149455","changesets":562,"mappers":47,"roads":481.562949378303,"buildings":2861,"edits":5564,"latest":"2018-07-20T10:50:22.000Z"},"geometry":{"type":"Point","coordinates":[35.00100389511327,-16.709331318309083]}},{"type":"Feature","properties":{"lastActive":"no","title":"Missing Maps - Malawi - Bangula east","id":3956,"area":123.59059385253316,"year":"2018","lastUpdated":"2018-05-07T08:36:59.511711","changesets":414,"mappers":96,"roads":179.379168903383,"buildings":3121,"edits":4903,"latest":"2018-07-15T14:57:13.000Z"},"geometry":{"type":"Point","coordinates":[34.917830921643144,-16.619995019375573]}},{"type":"Feature","properties":{"lastActive":"no","title":"Missing Maps - Malawi - TA Somba (Buildings)","id":2341,"area":244.67801257800394,"year":"2017","lastUpdated":"2017-06-09T10:02:29.205978","changesets":926,"mappers":53,"roads":206.161695748684,"buildings":12774,"edits":14922,"latest":"2017-06-09T10:02:58.000Z"},"geometry":{"type":"Point","coordinates":[34.89981902821421,-15.928768043305036]}},{"type":"Feature","properties":{"lastActive":"no","title":"Missing Maps - Malawi - TA Chikumba (roads)","id":2298,"area":150.15157283923318,"year":"2017","lastUpdated":"2017-08-28T14:12:54.283306","changesets":1529,"mappers":119,"roads":1182.77977174999,"buildings":6958,"edits":22253,"latest":"2017-08-28T14:12:21.000Z"},"geometry":{"type":"Point","coordinates":[35.404504733227455,-16.041780590431358]}},{"type":"Feature","properties":{"lastActive":"no","title":"Peace Corps Malawi -- Liwonde","id":2060,"area":223.5878549297584,"year":"2017","lastUpdated":"2017-10-16T14:55:21.323478","changesets":5412,"mappers":254,"roads":3040.87466745479,"buildings":29539,"edits":67223,"latest":"2018-02-18T00:17:20.000Z"},"geometry":{"type":"Point","coordinates":[35.2229118347168,-15.046146972913348]}},{"type":"Feature","properties":{"lastActive":"no","title":"Missing Maps - Malawi - Nchewere","id":4786,"area":63.125753852058665,"year":"2018","lastUpdated":"2018-07-10T12:41:11.572302","changesets":387,"mappers":54,"roads":195.539001251755,"buildings":3212,"edits":3688,"latest":"2018-07-10T12:37:32.000Z"},"geometry":{"type":"Point","coordinates":[34.174610317515125,-10.321445695342208]}},{"type":"Feature","properties":{"lastActive":"no","title":"Kapelulu","id":4379,"area":338.62418037046297,"year":"2018","lastUpdated":"2018-07-17T08:50:13.043340","changesets":1151,"mappers":83,"roads":1213.94477048783,"buildings":20345,"edits":27778,"latest":"2018-07-17T08:49:29.000Z"},"geometry":{"type":"Point","coordinates":[33.87933429655841,-12.928213987958761]}},{"type":"Feature","properties":{"lastActive":"yes","title":"Missing Maps - Malawi - Chitipa","id":4139,"area":10483.53823408829,"year":"2018","lastUpdated":"2018-08-02T10:55:03.847211","changesets":7282,"mappers":696,"roads":10505.396496927,"buildings":117147,"edits":166932,"latest":"2018-08-02T11:29:53.000Z"},"geometry":{"type":"Point","coordinates":[33.414076255588895,-9.822840295480221]}},{"type":"Feature","properties":{"lastActive":"no","title":"Missing Masp - Malawi - Bangula South-east","id":4113,"area":71.00413003396825,"year":"2018","lastUpdated":"2018-05-29T17:56:27.046186","changesets":223,"mappers":38,"roads":75.0060565637773,"buildings":2910,"edits":4201,"latest":"2018-05-29T18:28:32.000Z"},"geometry":{"type":"Point","coordinates":[35.16832243750663,-16.612015997197528]}},{"type":"Feature","properties":{"lastActive":"no","title":"Missing Maps - Malawi - Nsanje north-east","id":3952,"area":117.38792525999837,"year":"2018","lastUpdated":"2018-06-29T22:46:14.119636","changesets":1083,"mappers":166,"roads":588.500364020166,"buildings":17215,"edits":25494,"latest":"2018-06-29T22:46:10.000Z"},"geometry":{"type":"Point","coordinates":[35.27086703721364,-16.795308230120305]}},{"type":"Feature","properties":{"lastActive":"no","title":"Missing Maps - Malawi - Malemia South (Buildings only)","id":3280,"area":111.1059820286046,"year":"2017","lastUpdated":"2017-11-13T10:18:00.914781","changesets":225,"mappers":24,"roads":28.8940297959984,"buildings":2877,"edits":3045,"latest":"2017-09-08T13:35:07.000Z"},"geometry":{"type":"Point","coordinates":[35.22125137313565,-16.94416173197515]}},{"type":"Feature","properties":{"lastActive":"no","title":"Peace Corps Malawi -- Mikolongwe,â â â  Thyolo","id":2600,"area":36.17857650157155,"year":"2018","lastUpdated":"2018-06-20T04:21:05.997966","changesets":347,"mappers":47,"roads":155.91709837346,"buildings":6814,"edits":11822,"latest":"2018-06-20T04:17:47.000Z"},"geometry":{"type":"Point","coordinates":[35.164520800000005,-15.9033634]}},{"type":"Feature","properties":{"lastActive":"no","title":"Peace Corps Malawi -- Mpiri, Machinga","id":2597,"area":89.20745550476056,"year":"2017","lastUpdated":"2017-11-15T18:33:51.801430","changesets":229,"mappers":32,"roads":226.038871519312,"buildings":4496,"edits":7838,"latest":"2018-02-01T11:59:51.000Z"},"geometry":{"type":"Point","coordinates":[35.60664,-14.772054999999998]}},{"type":"Feature","properties":{"lastActive":"no","title":"Peace Corps Malawi -- TA Chamba, Machinga","id":2599,"area":31.527637564309366,"year":"2018","lastUpdated":"2018-06-20T05:29:23.478733","changesets":251,"mappers":12,"roads":502.001448169999,"buildings":10788,"edits":14959,"latest":"2018-06-20T05:20:05.000Z"},"geometry":{"type":"Point","coordinates":[35.3974555,-15.19788]}},{"type":"Feature","properties":{"lastActive":"no","title":"Missing Maps - Malawi - Thyolo - Blantyre (buildings) ","id":2472,"area":390.599967535883,"year":"2017","lastUpdated":"2017-11-17T10:26:43.447355","changesets":2857,"mappers":146,"roads":236.803655849551,"buildings":38767,"edits":42991,"latest":"2017-06-29T13:26:16.000Z"},"geometry":{"type":"Point","coordinates":[35.164578638804194,-15.971932043722934]}},{"type":"Feature","properties":{"lastActive":"no","title":"Missing Maps - Malawi - TA Maseya (Buildings)","id":2309,"area":197.67633071782188,"year":"2016","lastUpdated":"2016-11-28T18:14:38.568203","changesets":1871,"mappers":77,"roads":137.092213223059,"buildings":9997,"edits":10424,"latest":"2017-01-26T07:04:12.000Z"},"geometry":{"type":"Point","coordinates":[34.866286169252206,-16.094315051572565]}},{"type":"Feature","properties":{"lastActive":"no","title":"Missing Maps - Malawi - Thyolo - Blantyre (roads)","id":2471,"area":260.21162645851905,"year":"2017","lastUpdated":"2017-12-10T00:18:10.218421","changesets":1511,"mappers":193,"roads":3117.55276893705,"buildings":32887,"edits":78192,"latest":"2018-03-21T16:03:26.000Z"},"geometry":{"type":"Point","coordinates":[35.180671276779776,-15.966715971022984]}},{"type":"Feature","properties":{"lastActive":"no","title":"Missing Maps - Malawi - Southern areas (2)","id":2382,"area":57.44689181397446,"year":"2017","lastUpdated":"2017-09-10T00:11:33.210972","changesets":232,"mappers":21,"roads":149.366922718635,"buildings":1881,"edits":4027,"latest":"2017-04-27T08:43:32.000Z"},"geometry":{"type":"Point","coordinates":[35.29521699831209,-16.21238850436092]}},{"type":"Feature","properties":{"lastActive":"no","title":"Missing Maps - Malawi - TA Lundu (Buildings)","id":2311,"area":228.51892886625433,"year":"2017","lastUpdated":"2017-06-28T11:56:54.503004","changesets":836,"mappers":60,"roads":41.8100804549834,"buildings":11063,"edits":11364,"latest":"2017-02-21T17:45:05.000Z"},"geometry":{"type":"Point","coordinates":[34.861993300643434,-16.21781898586094]}},{"type":"Feature","properties":{"lastActive":"no","title":"Peace Corps Malawi -- Embangweni, Mzimba","id":2476,"area":269.5370587306771,"year":"2017","lastUpdated":"2017-09-20T12:23:35.488287","changesets":464,"mappers":128,"roads":518.557430006958,"buildings":3077,"edits":7777,"latest":"2018-03-14T12:42:31.000Z"},"geometry":{"type":"Point","coordinates":[33.4562284725,-12.130773614999999]}},{"type":"Feature","properties":{"lastActive":"no","title":"Missing Maps - Malawi - TA Maseya (roads)","id":2310,"area":146.15076576006686,"year":"2017","lastUpdated":"2017-02-22T18:52:41.431116","changesets":399,"mappers":39,"roads":700.70546589664,"buildings":278,"edits":5528,"latest":"2017-02-17T16:05:03.000Z"},"geometry":{"type":"Point","coordinates":[34.86430721130162,-16.102664526024622]}},{"type":"Feature","properties":{"lastActive":"no","title":"Missing Maps - Malawi - TA Chikumba (buildings)","id":2297,"area":222.63039250784496,"year":"2017","lastUpdated":"2017-04-17T12:40:41.270988","changesets":2641,"mappers":161,"roads":379.32641656652,"buildings":29044,"edits":36017,"latest":"2017-05-12T12:09:07.000Z"},"geometry":{"type":"Point","coordinates":[35.4070637827874,-16.03716635758071]}},{"type":"Feature","properties":{"lastActive":"no","title":"Missing Maps - Malawi - TA Thomas (roads)","id":2280,"area":111.61732175540202,"year":"2017","lastUpdated":"2017-10-10T12:35:26.526771","changesets":433,"mappers":70,"roads":1099.09278869546,"buildings":1644,"edits":12442,"latest":"2017-10-10T13:08:19.000Z"},"geometry":{"type":"Point","coordinates":[34.959800443181905,-16.016128489130818]}},{"type":"Feature","properties":{"lastActive":"no","title":"Missing Maps - Malawi - Southern areas","id":2381,"area":359.7540340123145,"year":"2017","lastUpdated":"2017-11-02T09:48:44.385076","changesets":1655,"mappers":89,"roads":599.857943931075,"buildings":13370,"edits":27615,"latest":"2017-06-23T03:49:45.000Z"},"geometry":{"type":"Point","coordinates":[35.06495829383556,-16.238190326730273]}},{"type":"Feature","properties":{"lastActive":"no","title":"Missing Maps - Malawi - Nsanje Southwest","id":3780,"area":30.89035919138131,"year":"2018","lastUpdated":"2018-03-18T14:18:56.171880","changesets":255,"mappers":35,"roads":107.045308155215,"buildings":1434,"edits":3575,"latest":"2018-03-18T14:25:09.000Z"},"geometry":{"type":"Point","coordinates":[35.191412624870914,-16.955228841779235]}},{"type":"Feature","properties":{"lastActive":"no","title":"Missing Maps: Nsanje District, Malawi (roads part 3)","id":2240,"area":344.952546801565,"year":"2017","lastUpdated":"2017-10-30T10:53:20.601648","changesets":0,"mappers":0,"roads":0,"buildings":0,"edits":0,"latest":null},"geometry":{"type":"Point","coordinates":[35.13400145912607,-16.4037877179655]}},{"type":"Feature","properties":{"lastActive":"no","title":"Missing Maps: Mangochi, Mangochi District, Southern Region, Malawi","id":2466,"area":115.28957364477883,"year":"2018","lastUpdated":"2018-05-03T01:33:45.434229","changesets":2150,"mappers":217,"roads":208.252746205028,"buildings":17192,"edits":20786,"latest":"2017-06-02T20:11:17.000Z"},"geometry":{"type":"Point","coordinates":[35.25506122116547,-14.438048960564611]}},{"type":"Feature","properties":{"lastActive":"no","title":"Missing Maps: Blantyre (north), Blantyre District, Central Region, Malawi 8","id":2304,"area":33.39548159572158,"year":"2018","lastUpdated":"2018-07-13T21:06:45.321586","changesets":3285,"mappers":208,"roads":133.104472252129,"buildings":20973,"edits":23618,"latest":"2018-03-14T09:07:48.000Z"},"geometry":{"type":"Point","coordinates":[35.002622752963234,-15.690121083700983]}},{"type":"Feature","properties":{"lastActive":"no","title":"Missing Maps: Kapichi, Thyolo District, Southern Region, Malawi","id":3208,"area":187.56481268312072,"year":"2018","lastUpdated":"2018-03-16T21:22:09.005949","changesets":0,"mappers":0,"roads":0,"buildings":0,"edits":0,"latest":null},"geometry":{"type":"Point","coordinates":[35.27041672626454,-16.116625721818085]}},{"type":"Feature","properties":{"lastActive":"no","title":"Urban Ark Project: Karonga, Malawi mapping","id":1641,"area":262.8010231037238,"year":"2017","lastUpdated":"2017-12-22T11:07:05.513167","changesets":1211,"mappers":40,"roads":973.547027361356,"buildings":33855,"edits":44020,"latest":"2017-12-21T12:09:27.000Z"},"geometry":{"type":"Point","coordinates":[33.88200759887695,-9.9322735]}},{"type":"Feature","properties":{"lastActive":"no","title":"Missing Maps: Chingata, Thyolo District, Southern Region, Malawi","id":3211,"area":187.45109037807495,"year":"2018","lastUpdated":"2018-03-16T21:27:59.956227","changesets":0,"mappers":0,"roads":0,"buildings":0,"edits":0,"latest":null},"geometry":{"type":"Point","coordinates":[35.1488041053662,-16.22530598878495]}},{"type":"Feature","properties":{"lastActive":"no","title":"Missing Maps: Nchilamwela, Thyolo District, Southern Region, Malawi","id":3207,"area":106.94178132544275,"year":"2018","lastUpdated":"2018-05-03T01:34:37.256222","changesets":0,"mappers":0,"roads":0,"buildings":0,"edits":0,"latest":null},"geometry":{"type":"Point","coordinates":[35.19182030917194,-16.115280477276958]}}],"Philippines":[{"type":"Feature","properties":{"lastActive":"no","title":"DOST-Project NOAH (ISAIAH) Structures Map Up Marikina City","id":2206,"area":22.821861973817175,"year":"2017","lastUpdated":"2017-02-28T09:40:08.651582","changesets":0,"mappers":0,"roads":0,"buildings":0,"edits":0,"latest":null},"geometry":{"type":"Point","coordinates":[121.10758893181819,14.64671691233766]}},{"type":"Feature","properties":{"lastActive":"no","title":"CRS-UP NOAH Building Footprints Mapping - Navotas City","id":4044,"area":10.600105663830165,"year":"2018","lastUpdated":"2018-03-08T02:29:27.821773","changesets":1,"mappers":1,"roads":0,"buildings":0,"edits":2,"latest":"2018-03-22T20:25:17.000Z"},"geometry":{"type":"Point","coordinates":[120.93501364287877,14.667356142422948]}},{"type":"Feature","properties":{"lastActive":"no","title":"Pangasinan, PH - Missing Roads","id":4026,"area":1.1581224982077116,"year":"2018","lastUpdated":"2018-07-06T06:26:14.164470","changesets":17703446,"mappers":809142,"roads":11626565.312869,"buildings":287961517,"edits":369133482,"latest":"2018-08-03T05:40:59.000Z"},"geometry":{"type":"Point","coordinates":[120.38341801763256,16.007853906949467]}},{"type":"Feature","properties":{"lastActive":"no","title":"Quezon, PH - Missing Roads","id":4013,"area":1.3650857673810763,"year":"2018","lastUpdated":"2018-07-06T06:19:16.080886","changesets":17703446,"mappers":809142,"roads":11626565.312869,"buildings":287961517,"edits":369133482,"latest":"2018-08-03T05:40:59.000Z"},"geometry":{"type":"Point","coordinates":[121.73070282142338,14.026298771339512]}},{"type":"Feature","properties":{"lastActive":"no","title":"CRS-UP NOAH Building Footprints Mapping - Malabon City","id":3907,"area":15.859280000650813,"year":"2018","lastUpdated":"2018-06-06T07:45:46.150299","changesets":18,"mappers":2,"roads":0.908475572641972,"buildings":67,"edits":74,"latest":"2018-06-06T08:03:26.000Z"},"geometry":{"type":"Point","coordinates":[120.9674154212251,14.667902897859918]}},{"type":"Feature","properties":{"lastActive":"no","title":"Barangay Talisay, Mayorga, Leyte - Missing Maps","id":3829,"area":2.270534722569991,"year":"2018","lastUpdated":"2018-01-25T15:59:08.065074","changesets":61,"mappers":13,"roads":3.70690145632449,"buildings":738,"edits":928,"latest":"2017-12-24T15:19:57.000Z"},"geometry":{"type":"Point","coordinates":[124.9775838851929,10.91758102492891]}},{"type":"Feature","properties":{"lastActive":"no","title":"DOST-Project NOAH (ISAIAH) Structures Map Up Cavite","id":1636,"area":1236.7930267854183,"year":"2017","lastUpdated":"2017-01-06T03:53:24.366033","changesets":0,"mappers":0,"roads":0,"buildings":0,"edits":0,"latest":null},"geometry":{"type":"Point","coordinates":[120.89029621315147,14.296354336510534]}},{"type":"Feature","properties":{"lastActive":"no","title":"Mapping in San Nicolas, Philippines - SA activities","id":377,"area":23.251952235661427,"year":"2017","lastUpdated":"2017-12-23T20:14:32.123469","changesets":147,"mappers":30,"roads":8.00673556380537,"buildings":742,"edits":883,"latest":"2017-10-23T15:09:57.000Z"},"geometry":{"type":"Point","coordinates":[120.93719344501008,13.934947033770133]}},{"type":"Feature","properties":{"lastActive":"no","title":"Lake Sebu village mapping exercise - P.M. Session","id":4875,"area":0.32577374851661883,"year":"2018","lastUpdated":"2018-08-02T03:11:21.631078","changesets":0,"mappers":0,"roads":0,"buildings":0,"edits":0,"latest":null},"geometry":{"type":"Point","coordinates":[124.71676616156242,6.271326972480138]}},{"type":"Feature","properties":{"lastActive":"no","title":"Mayon Volcano USAID & USGS","id":4202,"area":23.191221545963582,"year":"2018","lastUpdated":"2018-07-24T00:42:11.317491","changesets":477,"mappers":99,"roads":36.0596736481392,"buildings":7993,"edits":8336,"latest":"2018-07-28T21:28:58.000Z"},"geometry":{"type":"Point","coordinates":[123.708816541763,13.271475957593504]}},{"type":"Feature","properties":{"lastActive":"no","title":"Barangay Marasbaras, Tacloban, Leyte - Missing Maps","id":3300,"area":7.807989010258504,"year":"2018","lastUpdated":"2018-06-28T16:24:54.135765","changesets":126,"mappers":9,"roads":5.10115868250806,"buildings":3434,"edits":3775,"latest":"2018-06-28T16:24:02.000Z"},"geometry":{"type":"Point","coordinates":[125.01222282424382,11.203458223071134]}},{"type":"Feature","properties":{"lastActive":"no","title":"Mapping in Taal volcano, Philippines","id":387,"area":71.85336636220062,"year":"2016","lastUpdated":"2016-07-04T02:41:53.554278","changesets":6,"mappers":4,"roads":0,"buildings":42,"edits":42,"latest":"2016-07-04T02:41:31.000Z"},"geometry":{"type":"Point","coordinates":[120.995006544419,14.0074435256194]}},{"type":"Feature","properties":{"lastActive":"no","title":"General Santos City, Philippines","id":504,"area":41.853759664341574,"year":"2017","lastUpdated":"2017-07-08T15:36:20.240838","changesets":481,"mappers":30,"roads":10.7887344161379,"buildings":6340,"edits":6581,"latest":"2017-10-09T10:12:54.000Z"},"geometry":{"type":"Point","coordinates":[125.16863199233184,6.1257869184930644]}},{"type":"Feature","properties":{"lastActive":"no","title":"Mapping in Cavite, Philippines - SA activities","id":378,"area":347.85007544928436,"year":"2018","lastUpdated":"2018-01-31T02:41:47.484533","changesets":1184,"mappers":74,"roads":37.6705904876275,"buildings":9795,"edits":11838,"latest":"2018-05-17T21:48:06.000Z"},"geometry":{"type":"Point","coordinates":[120.95298071824062,14.44782100733958]}},{"type":"Feature","properties":{"lastActive":"no","title":"Guagua, Pampanga DRR mapping ","id":331,"area":49.709960372922495,"year":"2018","lastUpdated":"2018-05-23T21:11:41.473091","changesets":869,"mappers":29,"roads":393.734449978974,"buildings":6739,"edits":13388,"latest":"2018-07-28T17:07:48.000Z"},"geometry":{"type":"Point","coordinates":[120.60140365476289,14.985235844913458]}},{"type":"Feature","properties":{"lastActive":"no","title":"CRS-UP NOAH Building Footprints Mapping - Cainta, Rizal","id":4185,"area":21.097166623656076,"year":"2018","lastUpdated":"2018-07-07T13:11:08.376941","changesets":483,"mappers":20,"roads":3.96698544369421,"buildings":3244,"edits":3748,"latest":"2018-07-20T15:00:35.000Z"},"geometry":{"type":"Point","coordinates":[121.11694341377957,14.595807431682541]}},{"type":"Feature","properties":{"lastActive":"no","title":"Pampanga, PH - Missing Roads","id":4018,"area":7.393817777829668,"year":"2018","lastUpdated":"2018-07-06T06:22:22.732956","changesets":17703446,"mappers":809142,"roads":11626565.312869,"buildings":287961517,"edits":369133482,"latest":"2018-08-03T05:40:59.000Z"},"geometry":{"type":"Point","coordinates":[120.60901479206947,15.12644299857575]}},{"type":"Feature","properties":{"lastActive":"no","title":"CRS-UP NOAH Building Footprints Mapping - Taytay, Rizal","id":4614,"area":28.563349406234973,"year":"2018","lastUpdated":"2018-07-13T13:03:43.434727","changesets":1476,"mappers":16,"roads":4.80807505973405,"buildings":12696,"edits":13417,"latest":"2018-07-18T09:43:01.000Z"},"geometry":{"type":"Point","coordinates":[121.12940906356323,14.548432535816845]}},{"type":"Feature","properties":{"lastActive":"no","title":"Laguna, PH - Missing Roads","id":4015,"area":5.171315826889603,"year":"2018","lastUpdated":"2018-07-06T06:21:50.575882","changesets":17703446,"mappers":809142,"roads":11626565.312869,"buildings":287961517,"edits":369133482,"latest":"2018-08-03T05:40:59.000Z"},"geometry":{"type":"Point","coordinates":[121.15472656621479,14.236294460036506]}},{"type":"Feature","properties":{"lastActive":"no","title":"Eastern Visayas, PH - Missing Roads","id":4225,"area":0.9011879212974336,"year":"2018","lastUpdated":"2018-07-06T06:28:56.119206","changesets":17703446,"mappers":809142,"roads":11626565.312869,"buildings":287961517,"edits":369133482,"latest":"2018-08-03T05:40:59.000Z"},"geometry":{"type":"Point","coordinates":[124.82231154030616,11.386736510106921]}},{"type":"Feature","properties":{"lastActive":"no","title":"CRS-UP NOAH Building Footprints Mapping - Angono, Rizal","id":4476,"area":14.749809999799018,"year":"2018","lastUpdated":"2018-07-18T10:03:55.901875","changesets":369,"mappers":13,"roads":0.56708532054949,"buildings":1334,"edits":1377,"latest":"2018-07-21T00:48:05.000Z"},"geometry":{"type":"Point","coordinates":[121.16528400038572,14.535180941214387]}},{"type":"Feature","properties":{"lastActive":"no","title":"Cagayan Valley, PH - Missing Roads","id":4219,"area":2.940942559638417,"year":"2018","lastUpdated":"2018-07-06T06:27:32.983505","changesets":17703446,"mappers":809142,"roads":11626565.312869,"buildings":287961517,"edits":369133482,"latest":"2018-08-03T05:40:59.000Z"},"geometry":{"type":"Point","coordinates":[121.68249184541031,17.195568942139595]}},{"type":"Feature","properties":{"lastActive":"no","title":"Soccsksargen, PH - Missing Roads","id":4227,"area":3.1029043042642748,"year":"2018","lastUpdated":"2018-07-26T12:13:14.032463","changesets":17703446,"mappers":809142,"roads":11626565.312869,"buildings":287961517,"edits":369133482,"latest":"2018-08-03T05:40:59.000Z"},"geometry":{"type":"Point","coordinates":[124.99650831963473,6.287009318987416]}},{"type":"Feature","properties":{"lastActive":"no","title":"Cavite, PH - Missing Roads","id":4165,"area":8.147770355865646,"year":"2018","lastUpdated":"2018-07-06T06:26:38.435860","changesets":17703446,"mappers":809142,"roads":11626565.312869,"buildings":287961517,"edits":369133482,"latest":"2018-08-03T05:40:59.000Z"},"geometry":{"type":"Point","coordinates":[120.95492038001697,14.294231916684815]}},{"type":"Feature","properties":{"lastActive":"no","title":"UP-NOAH Mapping Campuses (UP Manila School of Health Sciences in Leyte) ","id":3472,"area":1.400988753814339,"year":"2018","lastUpdated":"2018-06-27T04:56:51.430180","changesets":0,"mappers":0,"roads":0,"buildings":0,"edits":0,"latest":null},"geometry":{"type":"Point","coordinates":[124.99088051332731,11.157825800825774]}},{"type":"Feature","properties":{"lastActive":"no","title":"DOST-Project NOAH (ISAIAH) Structures Map Up Misamis Oriental","id":2006,"area":3651.9980002426037,"year":"2017","lastUpdated":"2017-02-27T09:03:13.187468","changesets":0,"mappers":0,"roads":0,"buildings":0,"edits":0,"latest":null},"geometry":{"type":"Point","coordinates":[124.72481164382773,8.558389462115018]}},{"type":"Feature","properties":{"lastActive":"no","title":"DOST-Project NOAH (ISAIAH) Structures Map Up La Union","id":1885,"area":2912.909394539788,"year":"2018","lastUpdated":"2018-04-16T21:25:19.930509","changesets":0,"mappers":0,"roads":0,"buildings":0,"edits":0,"latest":null},"geometry":{"type":"Point","coordinates":[120.45269986810342,16.621796748275862]}},{"type":"Feature","properties":{"lastActive":"no","title":"DOST-Project NOAH (ISAIAH) Structures Map Up Ilocos Norte","id":1996,"area":5561.793445652042,"year":"2017","lastUpdated":"2017-01-09T04:19:56.530728","changesets":0,"mappers":0,"roads":0,"buildings":0,"edits":0,"latest":null},"geometry":{"type":"Point","coordinates":[120.7548661820388,18.106512497087376]}},{"type":"Feature","properties":{"lastActive":"no","title":"DOST-Project NOAH (ISAIAH) Structures Map Up Bataan","id":1888,"area":2696.6107231235264,"year":"2017","lastUpdated":"2017-02-23T06:42:12.922735","changesets":0,"mappers":0,"roads":0,"buildings":0,"edits":0,"latest":null},"geometry":{"type":"Point","coordinates":[120.48423503270136,14.765015538388617]}},{"type":"Feature","properties":{"lastActive":"no","title":"UP-NOAH Mapping Campuses (UP Alabang)","id":3793,"area":2.6954788018399616,"year":"2017","lastUpdated":"2017-11-25T07:02:10.874687","changesets":0,"mappers":0,"roads":0,"buildings":0,"edits":0,"latest":null},"geometry":{"type":"Point","coordinates":[121.012331082343,14.376960362577975]}},{"type":"Feature","properties":{"lastActive":"no","title":"Danao, Bohol Island, Philippines OpenRoad project, Part IIII -- MapGive","id":1056,"area":187.61116003075477,"year":"2017","lastUpdated":"2017-10-29T00:50:25.079341","changesets":0,"mappers":0,"roads":0,"buildings":0,"edits":0,"latest":null},"geometry":{"type":"Point","coordinates":[124.20165233660025,9.943714169953921]}},{"type":"Feature","properties":{"lastActive":"no","title":"Bohol Island, Philippines OpenRoad project, Part III -- MapGive","id":1055,"area":167.18586226424708,"year":"2017","lastUpdated":"2017-09-25T18:13:41.155784","changesets":0,"mappers":0,"roads":0,"buildings":0,"edits":0,"latest":null},"geometry":{"type":"Point","coordinates":[124.06711940467797,9.665902699165224]}},{"type":"Feature","properties":{"lastActive":"no","title":"DOST-Project NOAH (ISAIAH) Structures Map Up Abra","id":1884,"area":3947.985752759589,"year":"2017","lastUpdated":"2017-03-11T04:23:01.141132","changesets":0,"mappers":0,"roads":0,"buildings":0,"edits":0,"latest":null},"geometry":{"type":"Point","coordinates":[120.76902355100542,17.533678149542986]}},{"type":"Feature","properties":{"lastActive":"no","title":"UP-NOAH Mapping Campuses (UP Diliman Extension Programs in Pampanga)","id":3434,"area":43.54156672373075,"year":"2018","lastUpdated":"2018-03-08T03:26:29.800555","changesets":0,"mappers":0,"roads":0,"buildings":0,"edits":0,"latest":null},"geometry":{"type":"Point","coordinates":[120.55005827104301,15.186427180404344]}}],"Benin":[{"type":"Feature","properties":{"lastActive":"no","title":"Missing Maps: Dangbo, Benin","id":2037,"area":8.901602462274079,"year":"2018","lastUpdated":"2018-04-08T14:34:10.968052","changesets":338,"mappers":31,"roads":56.9895503678963,"buildings":3437,"edits":4862,"latest":"2018-04-08T14:38:32.000Z"},"geometry":{"type":"Point","coordinates":[2.5524044036865225,6.58779057325721]}},{"type":"Feature","properties":{"lastActive":"no","title":"Cartographie de la commune de Porga-Benin","id":4914,"area":3.6335771421367755,"year":"2018","lastUpdated":"2018-07-26T21:12:55.636341","changesets":22,"mappers":4,"roads":0,"buildings":94,"edits":94,"latest":"2018-07-26T21:12:41.000Z"},"geometry":{"type":"Point","coordinates":[0.9914506256915466,11.004080474232538]}},{"type":"Feature","properties":{"lastActive":"no","title":"Abomey-Calavi Benin","id":3295,"area":654.7109381591404,"year":"2018","lastUpdated":"2018-07-29T02:44:46.175858","changesets":0,"mappers":0,"roads":0,"buildings":0,"edits":0,"latest":null},"geometry":{"type":"Point","coordinates":[2.3460700295188204,6.501462639367063]}},{"type":"Feature","properties":{"lastActive":"no","title":"Peace Corps Benin ","id":2198,"area":55.38597882039444,"year":"2018","lastUpdated":"2018-08-01T05:41:13.513163","changesets":2535,"mappers":278,"roads":451.730414043168,"buildings":29663,"edits":37531,"latest":"2018-08-01T05:40:29.000Z"},"geometry":{"type":"Point","coordinates":[2.1458883063737737,10.231293024351888]}},{"type":"Feature","properties":{"lastActive":"yes","title":"Peace Corps Benin -- Oroukayo","id":2244,"area":0.49873485017171465,"year":"2018","lastUpdated":"2018-08-02T09:21:27.354161","changesets":280,"mappers":19,"roads":9.66795756829931,"buildings":1591,"edits":1969,"latest":"2018-08-02T09:21:18.000Z"},"geometry":{"type":"Point","coordinates":[1.6565072536468497,10.298969593602916]}},{"type":"Feature","properties":{"lastActive":"no","title":" Benin, consolidated mapping, Base Roads Check","id":1232,"area":22236.18401687507,"year":"2017","lastUpdated":"2017-07-10T06:41:25.007061","changesets":1831,"mappers":35,"roads":22476.0004764725,"buildings":11519,"edits":56197,"latest":"2017-07-10T06:46:42.000Z"},"geometry":{"type":"Point","coordinates":[2.3016703566227097,9.031436130808252]}},{"type":"Feature","properties":{"lastActive":"no","title":"Cartographie de Parakou - EOF 2013","id":302,"area":22.41710471837181,"year":"2017","lastUpdated":"2017-04-23T12:32:48.996384","changesets":1837,"mappers":8,"roads":121.341340234675,"buildings":11879,"edits":12765,"latest":"2018-04-14T13:25:00.000Z"},"geometry":{"type":"Point","coordinates":[2.6231956478282625,9.340690595601995]}},{"type":"Feature","properties":{"lastActive":"no","title":"Cartographie de l'arrondissement d'Akassato","id":1403,"area":23.632192290124202,"year":"2017","lastUpdated":"2017-08-19T12:14:14.216593","changesets":0,"mappers":0,"roads":0,"buildings":0,"edits":0,"latest":null},"geometry":{"type":"Point","coordinates":[2.3401200771331796,6.512400746298328]}},{"type":"Feature","properties":{"lastActive":"no","title":"Peace Corps Benin - Peonga","id":1117,"area":86.91690202913817,"year":"2016","lastUpdated":"2016-11-22T04:50:10.648180","changesets":300,"mappers":25,"roads":246.345212644103,"buildings":3279,"edits":5160,"latest":"2018-01-27T06:33:14.000Z"},"geometry":{"type":"Point","coordinates":[3.2565606724132197,10.319696947023784]}}],"Kyrgyzstan":[{"type":"Feature","properties":{"lastActive":"no","title":"Osh, Kyrgyz Republic - Exposure Mapping for Seismic Risk Assessment","id":2155,"area":68.61261149103517,"year":"2017","lastUpdated":"2017-11-18T05:16:01.166485","changesets":0,"mappers":0,"roads":0,"buildings":0,"edits":0,"latest":null},"geometry":{"type":"Point","coordinates":[72.80503169538274,40.53549219254629]}},{"type":"Feature","properties":{"lastActive":"no","title":"Kyrgyz Republic - Exposure Mapping for Seismic Risk Assessment","id":1235,"area":120.07759556584502,"year":"2018","lastUpdated":"2018-05-23T12:07:40.822580","changesets":0,"mappers":0,"roads":0,"buildings":0,"edits":0,"latest":null},"geometry":{"type":"Point","coordinates":[78.3875903851486,42.508591043855084]}}],"Tanzania":[{"type":"Feature","properties":{"lastActive":"no","title":"Mbozi, Mbeya, Tanzania Mini Grids Project 04","id":4290,"area":1211.7161084477548,"year":"2018","lastUpdated":"2018-07-03T09:23:29.574736","changesets":1961,"mappers":76,"roads":1447.81448250183,"buildings":48428,"edits":51301,"latest":"2018-07-03T09:24:27.000Z"},"geometry":{"type":"Point","coordinates":[32.864289160170514,-8.870478995599651]}},{"type":"Feature","properties":{"lastActive":"no","title":"Mbeya minigrids","id":4208,"area":381.3150730146897,"year":"2018","lastUpdated":"2018-04-11T07:15:52.458810","changesets":8229,"mappers":81,"roads":545.472150450804,"buildings":454625,"edits":458780,"latest":"2018-03-29T12:55:24.000Z"},"geometry":{"type":"Point","coordinates":[33.273085375143864,-8.927145320940063]}},{"type":"Feature","properties":{"lastActive":"no","title":"Kigoma_14","id":4100,"area":0.8979043606940176,"year":"2018","lastUpdated":"2018-02-16T06:09:02.081829","changesets":179,"mappers":9,"roads":0,"buildings":906,"edits":906,"latest":"2018-02-16T06:08:51.000Z"},"geometry":{"type":"Point","coordinates":[29.64091800036702,-4.624237761570404]}},{"type":"Feature","properties":{"lastActive":"no","title":"Kigoma_8","id":4089,"area":3.170194931843662,"year":"2018","lastUpdated":"2018-02-14T08:58:00.280285","changesets":175,"mappers":7,"roads":0.00164720947993757,"buildings":5558,"edits":5558,"latest":"2018-02-15T13:52:57.000Z"},"geometry":{"type":"Point","coordinates":[29.77626862798747,-6.004675849692375]}},{"type":"Feature","properties":{"lastActive":"no","title":"Kigoma_2","id":4083,"area":1.965158778543636,"year":"2018","lastUpdated":"2018-01-30T14:05:17.983249","changesets":127,"mappers":2,"roads":0,"buildings":458,"edits":458,"latest":"2018-01-30T14:04:27.000Z"},"geometry":{"type":"Point","coordinates":[30.490210022071953,-6.813742245754607]}},{"type":"Feature","properties":{"lastActive":"no","title":"Mara","id":4073,"area":3.087873440053216,"year":"2018","lastUpdated":"2018-01-29T14:51:44.742950","changesets":0,"mappers":0,"roads":0,"buildings":0,"edits":0,"latest":null},"geometry":{"type":"Point","coordinates":[33.70828711361714,-1.4058350861409175]}},{"type":"Feature","properties":{"lastActive":"no","title":"PEPFAR TANZANIA: GEITA DC","id":3903,"area":4738.968040349855,"year":"2018","lastUpdated":"2018-07-10T06:41:26.690980","changesets":5543,"mappers":268,"roads":3129.3516222182,"buildings":60084,"edits":84062,"latest":"2018-07-25T17:31:56.000Z"},"geometry":{"type":"Point","coordinates":[32.06279754752212,-2.682505789886702]}},{"type":"Feature","properties":{"lastActive":"no","title":"Missing Maps: Dar es Salaam - Ramani Huria 8","id":2242,"area":18.297857125006182,"year":"2017","lastUpdated":"2017-04-26T13:26:16.487958","changesets":402,"mappers":13,"roads":17.3508405937143,"buildings":9226,"edits":9722,"latest":"2016-12-08T19:06:28.000Z"},"geometry":{"type":"Point","coordinates":[39.19390890056493,-6.76004283446328]}},{"type":"Feature","properties":{"lastActive":"no","title":"MSD & JSI/USAID Tanzania Road Import - Kagera region","id":2000,"area":20054.048144070715,"year":"2017","lastUpdated":"2017-08-17T15:35:09.385364","changesets":0,"mappers":0,"roads":0,"buildings":0,"edits":0,"latest":null},"geometry":{"type":"Point","coordinates":[31.041926812127926,-2.3254413013888326]}},{"type":"Feature","properties":{"lastActive":"no","title":"Priority Villages, Kigoma Region, Tanzania Mini Grids Project","id":4779,"area":2340.2938543456194,"year":"2018","lastUpdated":"2018-06-27T23:26:21.748956","changesets":1670,"mappers":48,"roads":0.846639744708577,"buildings":80160,"edits":80298,"latest":"2018-06-28T06:27:08.000Z"},"geometry":{"type":"Point","coordinates":[30.81891173150636,-3.4042847246900707]}},{"type":"Feature","properties":{"lastActive":"no","title":"Priority Villages, Lindi Region, Tanzania Mini Grids Project","id":4802,"area":616.0229189680824,"year":"2018","lastUpdated":"2018-07-02T20:42:12.174538","changesets":447,"mappers":18,"roads":0.198453497004405,"buildings":12715,"edits":12741,"latest":"2018-07-03T09:25:50.000Z"},"geometry":{"type":"Point","coordinates":[38.35241233283509,-10.284012504908642]}},{"type":"Feature","properties":{"lastActive":"no","title":"Chamwino Village, Tanzania Mini Grids Project","id":4748,"area":13.678881091028838,"year":"2018","lastUpdated":"2018-06-13T13:18:58.993239","changesets":156,"mappers":50,"roads":0.0404579971976971,"buildings":5494,"edits":5498,"latest":"2018-06-13T13:52:23.000Z"},"geometry":{"type":"Point","coordinates":[36.039147334095,-6.10061474426]}},{"type":"Feature","properties":{"lastActive":"no","title":"Songea Rural, Ruvuma, Tanzania Mini Grids Project 06","id":4720,"area":2093.4548563322423,"year":"2018","lastUpdated":"2018-06-12T12:04:57.521919","changesets":1018,"mappers":50,"roads":0.363088632082872,"buildings":13579,"edits":13606,"latest":"2018-06-12T11:03:12.000Z"},"geometry":{"type":"Point","coordinates":[35.31103412395969,-11.03686797344467]}},{"type":"Feature","properties":{"lastActive":"no","title":"Songea Rural, Ruvuma, Tanzania Mini Grids Project 03","id":4704,"area":2223.7007441409824,"year":"2018","lastUpdated":"2018-06-11T13:01:49.315620","changesets":559,"mappers":53,"roads":1.3997523367762,"buildings":4565,"edits":4600,"latest":"2018-07-26T11:48:10.000Z"},"geometry":{"type":"Point","coordinates":[35.59727510395192,-10.089441618006344]}},{"type":"Feature","properties":{"lastActive":"no","title":"Rufiji, Pwani, Tanzania Mini Grids Project 04","id":4624,"area":1796.0668599205555,"year":"2018","lastUpdated":"2018-06-26T06:14:51.811334","changesets":465,"mappers":41,"roads":0.0542000845535752,"buildings":8375,"edits":8384,"latest":"2018-06-25T13:58:27.000Z"},"geometry":{"type":"Point","coordinates":[38.53147573879938,-7.800372604775588]}},{"type":"Feature","properties":{"lastActive":"no","title":"Rufiji, Pwani, Tanzania Mini Grids Project 01","id":4621,"area":1421.848754938379,"year":"2018","lastUpdated":"2018-06-28T09:05:33.700927","changesets":1507,"mappers":57,"roads":0.314447651645533,"buildings":35066,"edits":35135,"latest":"2018-06-28T09:05:26.000Z"},"geometry":{"type":"Point","coordinates":[38.756067518885445,-7.717796153884717]}},{"type":"Feature","properties":{"lastActive":"no","title":"Kasulu, Kasulu, Tanzania Mini Grids Project 04","id":4571,"area":2136.1760422465886,"year":"2018","lastUpdated":"2018-07-16T06:27:37.607948","changesets":2501,"mappers":67,"roads":13.8254831502391,"buildings":55848,"edits":56667,"latest":"2018-07-16T06:27:29.000Z"},"geometry":{"type":"Point","coordinates":[29.98247064013143,-4.6984841931908]}},{"type":"Feature","properties":{"lastActive":"no","title":"Lindi, Lindi, Tanzania Mini Grids Project 05","id":4499,"area":1350.3603655694978,"year":"2018","lastUpdated":"2018-06-29T06:38:06.752377","changesets":1100,"mappers":66,"roads":1.12477553899274,"buildings":28479,"edits":28638,"latest":"2018-06-29T06:31:34.000Z"},"geometry":{"type":"Point","coordinates":[39.68909574499,-9.801786594046861]}},{"type":"Feature","properties":{"lastActive":"no","title":"Lindi, Lindi, Tanzania Mini Grids Project 03","id":4489,"area":1972.6554027241687,"year":"2018","lastUpdated":"2018-07-04T09:39:41.831448","changesets":1117,"mappers":68,"roads":0.712816430807669,"buildings":37574,"edits":37626,"latest":"2018-07-04T09:33:22.000Z"},"geometry":{"type":"Point","coordinates":[39.183662563828705,-10.12342916029111]}},{"type":"Feature","properties":{"lastActive":"no","title":"Central Singida, Singida, Tanzania Mini Grids Project 02","id":4518,"area":1414.1192851427202,"year":"2018","lastUpdated":"2018-05-17T11:04:47.566760","changesets":882,"mappers":58,"roads":0.0239845493890909,"buildings":17063,"edits":17069,"latest":"2018-05-17T08:50:47.000Z"},"geometry":{"type":"Point","coordinates":[34.41588549629685,-5.109440949915025]}},{"type":"Feature","properties":{"lastActive":"no","title":"Tabora, Tabora, Tanzania Mini Grids Project 01","id":4583,"area":1907.1663208860407,"year":"2018","lastUpdated":"2018-06-21T06:39:06.778869","changesets":1628,"mappers":58,"roads":1.72537869257951,"buildings":34604,"edits":34909,"latest":"2018-06-21T06:45:40.000Z"},"geometry":{"type":"Point","coordinates":[32.59170617851557,-4.606714194976095]}},{"type":"Feature","properties":{"lastActive":"no","title":"Mbozi, Mbeya, Tanzania Mini Grids Project 06","id":4349,"area":1339.4689946738515,"year":"2018","lastUpdated":"2018-06-29T09:45:45.880967","changesets":1043,"mappers":62,"roads":742.110448134303,"buildings":21213,"edits":22569,"latest":"2018-07-20T11:18:36.000Z"},"geometry":{"type":"Point","coordinates":[32.47751628437078,-8.583821597525402]}},{"type":"Feature","properties":{"lastActive":"no","title":"Urambo, Tabora, Tanzania Mini Grids Project 07","id":4354,"area":1417.644733786158,"year":"2018","lastUpdated":"2018-07-02T08:16:09.808700","changesets":1438,"mappers":66,"roads":0.235986987394966,"buildings":40728,"edits":40743,"latest":"2018-07-02T08:15:16.000Z"},"geometry":{"type":"Point","coordinates":[31.960650180526155,-4.799811038966155]}},{"type":"Feature","properties":{"lastActive":"no","title":"Ivugula Village, Tanzania Mini Grids Project 01","id":4435,"area":12.603608518468686,"year":"2018","lastUpdated":"2018-04-19T11:25:13.979143","changesets":270,"mappers":44,"roads":23.4950636574225,"buildings":1686,"edits":2161,"latest":"2018-06-13T18:16:09.000Z"},"geometry":{"type":"Point","coordinates":[33.072913842202496,-8.994998857575]}},{"type":"Feature","properties":{"lastActive":"no","title":"S. Monduli, Simanjiro, Tanzania Mini Grids - MapSwipe Project 04 - 03","id":4478,"area":166.70877071205354,"year":"2018","lastUpdated":"2018-05-07T07:19:53.188978","changesets":123,"mappers":47,"roads":0,"buildings":1480,"edits":1480,"latest":"2018-05-04T09:16:49.000Z"},"geometry":{"type":"Point","coordinates":[37.56197930444573,-5.003146663344777]}},{"type":"Feature","properties":{"lastActive":"no","title":"Itona_Kilosa","id":4179,"area":741.6959938125862,"year":"2018","lastUpdated":"2018-04-11T06:43:22.814485","changesets":409,"mappers":55,"roads":1.35885332610885,"buildings":3691,"edits":3744,"latest":"2018-04-11T07:21:08.000Z"},"geometry":{"type":"Point","coordinates":[35.53547612786605,-8.535150251339573]}},{"type":"Feature","properties":{"lastActive":"yes","title":"Tanzania Development Trust: Morogoro Community Mapping Project","id":4852,"area":11.997049798456361,"year":"2018","lastUpdated":"2018-08-03T05:57:04.173194","changesets":578,"mappers":89,"roads":71.0275280770956,"buildings":12434,"edits":13344,"latest":"2018-08-03T05:37:46.000Z"},"geometry":{"type":"Point","coordinates":[37.68097780644893,-6.8100910041755895]}},{"type":"Feature","properties":{"lastActive":"yes","title":"Tanzania Development Trust: Mwanza West Community Mapping Project","id":4358,"area":1290.9455273129195,"year":"2018","lastUpdated":"2018-08-02T18:42:38.311680","changesets":15215,"mappers":1096,"roads":8006.14924691931,"buildings":141164,"edits":195216,"latest":"2018-08-02T18:42:24.000Z"},"geometry":{"type":"Point","coordinates":[32.548552534014256,-2.6391112035937363]}},{"type":"Feature","properties":{"lastActive":"no","title":"Priority Villages, Ruvuma Region, Tanzania Mini Grids Project","id":4801,"area":491.345226887175,"year":"2018","lastUpdated":"2018-07-03T15:18:55.293383","changesets":586,"mappers":30,"roads":0.0476650649909273,"buildings":26872,"edits":26882,"latest":"2018-06-28T09:53:53.000Z"},"geometry":{"type":"Point","coordinates":[35.45485146842986,-10.678797947427933]}},{"type":"Feature","properties":{"lastActive":"yes","title":"Tanzania Development Trust: Simiyu South","id":4323,"area":3977.4740524717954,"year":"2018","lastUpdated":"2018-08-02T22:29:22.578682","changesets":4749,"mappers":394,"roads":3094.3693040903,"buildings":59519,"edits":69957,"latest":"2018-08-02T22:29:11.000Z"},"geometry":{"type":"Point","coordinates":[34.2659914121032,-3.1020947645146095]}},{"type":"Feature","properties":{"lastActive":"no","title":"Tanzania Development Trust: Shinyanga East community mapping project","id":4166,"area":1007.0589397559861,"year":"2018","lastUpdated":"2018-08-02T01:12:59.951050","changesets":2440,"mappers":344,"roads":1507.16460311869,"buildings":24795,"edits":30876,"latest":"2018-08-02T23:36:54.000Z"},"geometry":{"type":"Point","coordinates":[33.66405700164086,-3.5303866913753184]}},{"type":"Feature","properties":{"lastActive":"no","title":"Shinyanga_Tabora_Geita","id":4076,"area":3994.8430365253507,"year":"2018","lastUpdated":"2018-03-16T14:29:11.097041","changesets":47,"mappers":13,"roads":0.000161002645333808,"buildings":2061,"edits":2064,"latest":"2018-03-16T14:28:46.000Z"},"geometry":{"type":"Point","coordinates":[32.00242391521419,-4.080067283243879]}},{"type":"Feature","properties":{"lastActive":"no","title":"Tanzania Development Trust: Sawida District","id":4118,"area":924.6478975466252,"year":"2018","lastUpdated":"2018-07-24T15:31:23.613611","changesets":13248,"mappers":936,"roads":9592.76467567132,"buildings":149667,"edits":219069,"latest":"2018-07-24T15:30:06.000Z"},"geometry":{"type":"Point","coordinates":[33.663075852494615,-2.8525551326607483]}},{"type":"Feature","properties":{"lastActive":"yes","title":"Tanzania Development Trust:  Mwanza East","id":3993,"area":6942.748601206665,"year":"2018","lastUpdated":"2018-08-02T14:14:31.556066","changesets":7898,"mappers":355,"roads":9265.99192721196,"buildings":152132,"edits":209072,"latest":"2018-08-03T02:02:05.000Z"},"geometry":{"type":"Point","coordinates":[33.151702880859375,-2.8604853284710874]}},{"type":"Feature","properties":{"lastActive":"no","title":"Tanzania Development Trust: Mbozi district community mapping project","id":3968,"area":270.15833206747897,"year":"2018","lastUpdated":"2018-07-30T15:13:29.211675","changesets":0,"mappers":0,"roads":0,"buildings":0,"edits":0,"latest":null},"geometry":{"type":"Point","coordinates":[32.76853833879746,-9.020802347567903]}},{"type":"Feature","properties":{"lastActive":"no","title":"Missing Maps: Dar es Salaam - Ramani Huria 2.0 - 06","id":3351,"area":42.09056201926153,"year":"2017","lastUpdated":"2017-09-18T13:32:44.404729","changesets":1060,"mappers":98,"roads":583.340797762564,"buildings":2543,"edits":21480,"latest":"2017-09-18T13:34:28.000Z"},"geometry":{"type":"Point","coordinates":[39.08745002746582,-6.700853885903787]}},{"type":"Feature","properties":{"lastActive":"no","title":"Tanzania Development Trust: Masasi district, Mtwara Region","id":3251,"area":1622.139093292662,"year":"2018","lastUpdated":"2018-02-17T10:13:50.185746","changesets":0,"mappers":0,"roads":0,"buildings":0,"edits":0,"latest":null},"geometry":{"type":"Point","coordinates":[38.77120971679688,-10.7730228886694]}},{"type":"Feature","properties":{"lastActive":"no","title":"Tanzania Development Trust: Simiyu district mapping project part 1 - Updated Imagery","id":3177,"area":1361.7036746910928,"year":"2018","lastUpdated":"2018-07-26T13:31:18.776274","changesets":0,"mappers":0,"roads":0,"buildings":0,"edits":0,"latest":null},"geometry":{"type":"Point","coordinates":[34.246062786235,-2.4162541152175003]}},{"type":"Feature","properties":{"lastActive":"no","title":"PEPFAR Tanzania: Kyela (Coast)","id":3204,"area":267.9000890686287,"year":"2018","lastUpdated":"2018-07-09T06:56:38.771652","changesets":2082,"mappers":220,"roads":832.34792096376,"buildings":19676,"edits":28587,"latest":"2018-07-12T23:12:42.000Z"},"geometry":{"type":"Point","coordinates":[33.86047686452975,-9.648327731192193]}},{"type":"Feature","properties":{"lastActive":"no","title":"PEPFAR Tanzania: Mbeya CC","id":2556,"area":256.08947868821076,"year":"2018","lastUpdated":"2018-05-07T03:44:11.992952","changesets":3674,"mappers":263,"roads":1309.65000981764,"buildings":21914,"edits":54339,"latest":"2018-05-15T06:12:15.000Z"},"geometry":{"type":"Point","coordinates":[33.487846817016006,-8.911443046528687]}},{"type":"Feature","properties":{"lastActive":"no","title":"Tanzania Development Trust: Maswa district mapping project part 1","id":2578,"area":159.57894576974346,"year":"2017","lastUpdated":"2017-10-19T10:37:48.653512","changesets":0,"mappers":0,"roads":0,"buildings":0,"edits":0,"latest":null},"geometry":{"type":"Point","coordinates":[33.817882557580745,-3.2813052403453997]}},{"type":"Feature","properties":{"lastActive":"no","title":"Tanzania Development Trust: Simiyu district mapping project part 1","id":2501,"area":6430.819090940454,"year":"2018","lastUpdated":"2018-01-24T12:18:11.755027","changesets":0,"mappers":0,"roads":0,"buildings":0,"edits":0,"latest":null},"geometry":{"type":"Point","coordinates":[33.963684082031236,-2.4816321015734735]}},{"type":"Feature","properties":{"lastActive":"no","title":"Tanzania Development Trust: Serengeti district mapping project part 2","id":2261,"area":11207.631576365555,"year":"2018","lastUpdated":"2018-05-22T06:15:57.092496","changesets":33973,"mappers":1625,"roads":29371.8713010951,"buildings":602966,"edits":917465,"latest":"2018-07-14T15:32:32.000Z"},"geometry":{"type":"Point","coordinates":[33.563361167907715,-1.6146094797775092]}},{"type":"Feature","properties":{"lastActive":"no","title":"PEPFAR Tanzania: Shinyanga","id":2301,"area":565.5201463076456,"year":"2017","lastUpdated":"2017-11-16T23:33:37.890014","changesets":5198,"mappers":302,"roads":2277.42607148261,"buildings":46163,"edits":71621,"latest":"2017-11-16T23:33:01.000Z"},"geometry":{"type":"Point","coordinates":[33.44573190915658,-3.633071239733379]}},{"type":"Feature","properties":{"lastActive":"no","title":"MSD & JSI/USAID Tanzania Road Import - Mtwara & Lindi Regions + Tunduru District","id":1194,"area":59075.33727007736,"year":"2016","lastUpdated":"2016-05-20T14:26:58.661670","changesets":0,"mappers":0,"roads":0,"buildings":0,"edits":0,"latest":null},"geometry":{"type":"Point","coordinates":[38.17747568450677,-10.184904231832341]}},{"type":"Feature","properties":{"lastActive":"no","title":"MSD & JSI/USAID Tanzania Road Import - West Ruvuma region","id":1256,"area":10512.14514732082,"year":"2016","lastUpdated":"2016-04-04T16:27:39.061397","changesets":0,"mappers":0,"roads":0,"buildings":0,"edits":0,"latest":null},"geometry":{"type":"Point","coordinates":[35.73071423073114,-10.644452430898227]}},{"type":"Feature","properties":{"lastActive":"no","title":"MSD & JSI/USAID Tanzania Road Import - Kigoma and Tabora regions","id":1233,"area":55716.44775664574,"year":"2017","lastUpdated":"2017-09-08T08:29:26.684641","changesets":89,"mappers":5,"roads":7164.0075520837,"buildings":137,"edits":14011,"latest":"2015-10-15T16:49:58.000Z"},"geometry":{"type":"Point","coordinates":[32.221144436424595,-4.716038295525221]}},{"type":"Feature","properties":{"lastActive":"no","title":"Ngorongoro Conservation Area","id":1040,"area":8640.922363295951,"year":"2017","lastUpdated":"2017-04-25T12:38:43.230359","changesets":0,"mappers":0,"roads":0,"buildings":0,"edits":0,"latest":null},"geometry":{"type":"Point","coordinates":[35.421957288469606,-3.139810074677604]}},{"type":"Feature","properties":{"lastActive":"no","title":"Kasuku Building Import Workflow Test (South))","id":4868,"area":1.6123125790816706,"year":"2018","lastUpdated":"2018-07-30T14:28:54.879502","changesets":9,"mappers":3,"roads":0,"buildings":107,"edits":107,"latest":"2018-07-30T14:28:09.000Z"},"geometry":{"type":"Point","coordinates":[29.742028550271055,-4.904178434960531]}},{"type":"Feature","properties":{"lastActive":"yes","title":"Tanzania Development Trust: Salesforce Manyara FGM 3","id":4896,"area":2283.4732623040454,"year":"2018","lastUpdated":"2018-08-02T09:59:57.939160","changesets":10,"mappers":3,"roads":9.82382700718994,"buildings":68,"edits":88,"latest":"2018-08-02T09:59:43.000Z"},"geometry":{"type":"Point","coordinates":[37.05802023052,-5.535989971496]}},{"type":"Feature","properties":{"lastActive":"no","title":"Chemba and Bahi Districts, Tanzania Mini Grids Project 05","id":4656,"area":1943.7393401406555,"year":"2018","lastUpdated":"2018-06-14T09:06:01.145611","changesets":2139,"mappers":66,"roads":1.37724754241375,"buildings":26302,"edits":26408,"latest":"2018-06-14T08:37:58.000Z"},"geometry":{"type":"Point","coordinates":[35.24210727602255,-5.287224282992947]}},{"type":"Feature","properties":{"lastActive":"no","title":"Chemba and Bahi Districts, Tanzania Mini Grids Project 04","id":4655,"area":1954.7614953958484,"year":"2018","lastUpdated":"2018-06-06T12:45:47.017143","changesets":1237,"mappers":61,"roads":0.0887218633667997,"buildings":40885,"edits":40916,"latest":"2018-06-07T11:54:39.000Z"},"geometry":{"type":"Point","coordinates":[35.46191965125588,-6.090344630316677]}},{"type":"Feature","properties":{"lastActive":"no","title":"Didia, Jomu, Singita in Shinyanga District, Tanzania Mini Grids Project","id":4695,"area":633.425618192545,"year":"2018","lastUpdated":"2018-06-07T13:04:55.031560","changesets":1071,"mappers":69,"roads":1.1515270702661,"buildings":35118,"edits":35234,"latest":"2018-06-14T10:23:19.000Z"},"geometry":{"type":"Point","coordinates":[33.189868583679996,-3.852090824045]}},{"type":"Feature","properties":{"lastActive":"no","title":"Songea Rural, Ruvuma, Tanzania Mini Grids Project 04","id":4705,"area":2147.5450650948856,"year":"2018","lastUpdated":"2018-06-11T12:32:37.891253","changesets":969,"mappers":50,"roads":0.278493274043511,"buildings":10699,"edits":10720,"latest":"2018-06-11T13:01:29.000Z"},"geometry":{"type":"Point","coordinates":[35.393237159829305,-10.381420075475273]}},{"type":"Feature","properties":{"lastActive":"no","title":"Mbozi, Mbeya, Tanzania Mini Grids Project 02","id":4287,"area":1464.4147850208826,"year":"2018","lastUpdated":"2018-03-28T14:39:26.288008","changesets":3239,"mappers":63,"roads":3419.72220762667,"buildings":69891,"edits":79035,"latest":"2018-03-28T14:41:07.000Z"},"geometry":{"type":"Point","coordinates":[32.46601435345758,-9.102106023061891]}},{"type":"Feature","properties":{"lastActive":"no","title":"Mbozi, Mbeya, Tanzania Mini Grids Project 01","id":4286,"area":1427.754247465411,"year":"2018","lastUpdated":"2018-06-07T08:27:39.601646","changesets":3571,"mappers":68,"roads":3017.76610954661,"buildings":84064,"edits":91962,"latest":"2018-06-14T11:11:25.000Z"},"geometry":{"type":"Point","coordinates":[32.815140600291976,-9.28818806240448]}},{"type":"Feature","properties":{"lastActive":"no","title":"Mahenye-Njombe","id":4178,"area":419.20452177017404,"year":"2018","lastUpdated":"2018-02-28T05:34:07.695778","changesets":557,"mappers":14,"roads":2.81615930013736,"buildings":28307,"edits":28364,"latest":"2018-02-23T12:45:33.000Z"},"geometry":{"type":"Point","coordinates":[34.79358795360073,-9.509275911526554]}},{"type":"Feature","properties":{"lastActive":"no","title":"Tabora, Tabora, Tanzania Mini Grids Project 05","id":4612,"area":1989.4559724518444,"year":"2018","lastUpdated":"2018-06-01T09:04:16.418927","changesets":1027,"mappers":62,"roads":1.12987965804484,"buildings":17432,"edits":17662,"latest":"2018-06-01T13:36:34.000Z"},"geometry":{"type":"Point","coordinates":[33.40266077376074,-5.09063064812292]}},{"type":"Feature","properties":{"lastActive":"no","title":"Manyoni, Singida, Tanzania Mini Grids Project 02","id":4532,"area":1743.3360624738941,"year":"2018","lastUpdated":"2018-05-21T06:12:05.383529","changesets":885,"mappers":62,"roads":0.198161772673363,"buildings":17096,"edits":17116,"latest":"2018-05-21T06:05:53.000Z"},"geometry":{"type":"Point","coordinates":[34.272985485616104,-5.75358385726637]}},{"type":"Feature","properties":{"lastActive":"no","title":"Mpwapwa, Dodoma, Tanzania Mini Grids Project 06","id":4419,"area":1290.5067497887903,"year":"2018","lastUpdated":"2018-06-30T10:06:16.399635","changesets":2176,"mappers":91,"roads":10.7518575631284,"buildings":54733,"edits":54794,"latest":"2018-06-30T12:14:33.000Z"},"geometry":{"type":"Point","coordinates":[36.618562445229166,-6.32822085806907]}},{"type":"Feature","properties":{"lastActive":"no","title":"Rungwe, Mbeya, Tanzania Mini Grids Project 02","id":4393,"area":1149.0351365244592,"year":"2018","lastUpdated":"2018-04-30T01:32:30.188814","changesets":2056,"mappers":60,"roads":12.5724590121885,"buildings":72408,"edits":72612,"latest":"2018-04-27T14:03:47.000Z"},"geometry":{"type":"Point","coordinates":[33.85995773044913,-9.28097728849757]}},{"type":"Feature","properties":{"lastActive":"no","title":"Chemba and Bahi Districts, Tanzania Mini Grids Project 01","id":4652,"area":2950.555321557993,"year":"2018","lastUpdated":"2018-06-06T01:12:59.251085","changesets":1731,"mappers":66,"roads":29.3981576364086,"buildings":66133,"edits":66262,"latest":"2018-06-05T14:50:27.000Z"},"geometry":{"type":"Point","coordinates":[35.69208315004388,-5.024101828866096]}},{"type":"Feature","properties":{"lastActive":"no","title":"Mkakatih Village, Tanzania Mini Grids Project","id":4637,"area":33.36735469325082,"year":"2018","lastUpdated":"2018-06-03T23:09:45.716750","changesets":73,"mappers":32,"roads":0.0531955537922062,"buildings":1062,"edits":1067,"latest":"2018-06-03T11:19:19.000Z"},"geometry":{"type":"Point","coordinates":[35.361299461125,-5.900049521220015]}},{"type":"Feature","properties":{"lastActive":"no","title":"Lindi, Lindi, Tanzania Mini Grids Project 02","id":4488,"area":1271.4706951916876,"year":"2018","lastUpdated":"2018-07-10T07:57:50.042617","changesets":883,"mappers":66,"roads":0.580704859074677,"buildings":12370,"edits":12419,"latest":"2018-07-10T07:18:13.000Z"},"geometry":{"type":"Point","coordinates":[39.32480989462478,-9.704243210868535]}},{"type":"Feature","properties":{"lastActive":"no","title":"Priority Villages, Shinyanga Region, Tanzania Mini Grids Project","id":4804,"area":1465.614946569395,"year":"2018","lastUpdated":"2018-06-30T09:05:38.841863","changesets":1318,"mappers":44,"roads":0.119656619425065,"buildings":61843,"edits":61882,"latest":"2018-06-30T09:36:52.000Z"},"geometry":{"type":"Point","coordinates":[32.9753779163862,-4.003000230638431]}},{"type":"Feature","properties":{"lastActive":"no","title":"Kigoma_1","id":4082,"area":3.220895758602432,"year":"2018","lastUpdated":"2018-01-30T09:22:24.958026","changesets":128,"mappers":5,"roads":0,"buildings":3113,"edits":3113,"latest":"2018-02-19T11:05:31.000Z"},"geometry":{"type":"Point","coordinates":[30.44210254746399,-6.82158989076395]}},{"type":"Feature","properties":{"lastActive":"yes","title":"Tanzania Development Trust: Salesforce Manyara FGM 1","id":4892,"area":2282.5577295654634,"year":"2018","lastUpdated":"2018-08-02T15:54:25.548500","changesets":1731,"mappers":114,"roads":815.57092061922,"buildings":13195,"edits":15692,"latest":"2018-08-02T19:33:37.000Z"},"geometry":{"type":"Point","coordinates":[36.62758343996364,-5.541266902250907]}},{"type":"Feature","properties":{"lastActive":"no","title":"Unkuku, Tanzania Mini Grids Project","id":4715,"area":61.28019264301011,"year":"2018","lastUpdated":"2018-06-11T10:35:32.819747","changesets":97,"mappers":36,"roads":0.0672879206278469,"buildings":5732,"edits":5741,"latest":"2018-06-11T07:40:02.000Z"},"geometry":{"type":"Point","coordinates":[35.81881696929818,-4.8916621717699]}},{"type":"Feature","properties":{"lastActive":"no","title":"Lindi, Lindi, Tanzania Mini Grids Project 04","id":4495,"area":2400.161505147141,"year":"2018","lastUpdated":"2018-07-02T06:32:32.947392","changesets":1774,"mappers":65,"roads":3.81934683994176,"buildings":47301,"edits":47458,"latest":"2018-06-29T06:39:00.000Z"},"geometry":{"type":"Point","coordinates":[39.76326133480001,-10.168453829364001]}},{"type":"Feature","properties":{"lastActive":"no","title":"Lituhi, Luhagara, Ruanda Villages, Tanzania Mini Grids Project","id":4648,"area":8.186367673131722,"year":"2018","lastUpdated":"2018-06-03T23:08:15.625404","changesets":107,"mappers":30,"roads":0.135942160373434,"buildings":3904,"edits":3924,"latest":"2018-06-02T13:59:59.000Z"},"geometry":{"type":"Point","coordinates":[34.82083073630402,-10.542318168502002]}},{"type":"Feature","properties":{"lastActive":"no","title":"Kasulu, Kasulu, Tanzania Mini Grids Project 01","id":4563,"area":1132.117945620699,"year":"2018","lastUpdated":"2018-06-22T13:47:54.809568","changesets":1683,"mappers":62,"roads":6.80675700959666,"buildings":46061,"edits":46543,"latest":"2018-06-22T13:37:34.000Z"},"geometry":{"type":"Point","coordinates":[30.223387298585,-4.60036034805499]}},{"type":"Feature","properties":{"lastActive":"no","title":"Tabora, Tabora, Tanzania Mini Grids Project 02","id":4584,"area":2042.6757607922066,"year":"2018","lastUpdated":"2018-06-20T13:56:00.211684","changesets":1784,"mappers":62,"roads":5.15594602627106,"buildings":37695,"edits":38500,"latest":"2018-06-20T13:55:11.000Z"},"geometry":{"type":"Point","coordinates":[33.55636968293966,-4.778208007358041]}},{"type":"Feature","properties":{"lastActive":"yes","title":"Kibamba, Dar es Salaam - Ramani Huria 2.0","id":4955,"area":14.732300581422955,"year":"2018","lastUpdated":"2018-08-03T05:47:13.456224","changesets":0,"mappers":0,"roads":0,"buildings":0,"edits":0,"latest":null},"geometry":{"type":"Point","coordinates":[39.11566161595127,-6.805183804383767]}},{"type":"Feature","properties":{"lastActive":"no","title":"Tabora, Tabora, Tanzania Mini Grids Project 04","id":4611,"area":1431.5287309262178,"year":"2018","lastUpdated":"2018-06-21T06:43:17.878145","changesets":1290,"mappers":60,"roads":17.4569544106012,"buildings":23456,"edits":24034,"latest":"2018-06-21T06:42:56.000Z"},"geometry":{"type":"Point","coordinates":[32.9989006523097,-5.09063064812292]}},{"type":"Feature","properties":{"lastActive":"no","title":"TZ IFC Mini-grids house count test","id":3876,"area":481.70619678590833,"year":"2018","lastUpdated":"2018-01-17T09:18:38.631606","changesets":3458,"mappers":35,"roads":5.06366089326074,"buildings":275823,"edits":276862,"latest":"2018-02-20T15:26:25.000Z"},"geometry":{"type":"Point","coordinates":[34.581446410258884,-7.300716320272623]}},{"type":"Feature","properties":{"lastActive":"no","title":"Mpwapwa, Dodoma, Tanzania Mini Grids Project 08","id":4418,"area":69.68255741962724,"year":"2018","lastUpdated":"2018-05-19T20:42:24.261907","changesets":1926,"mappers":103,"roads":18.7990415103299,"buildings":25541,"edits":25683,"latest":"2018-05-19T20:41:29.000Z"},"geometry":{"type":"Point","coordinates":[36.46391177601475,-5.9448724542277525]}},{"type":"Feature","properties":{"lastActive":"no","title":"Kagera_2","id":4080,"area":4.132236731942467,"year":"2018","lastUpdated":"2018-01-29T09:03:59.256755","changesets":0,"mappers":0,"roads":0,"buildings":0,"edits":0,"latest":null},"geometry":{"type":"Point","coordinates":[32.119223662470695,-1.4703780484724356]}},{"type":"Feature","properties":{"lastActive":"no","title":"Kipili Ward, Rukwa, Tanzania Mini Grids Project 01","id":4401,"area":180.26824654575853,"year":"2018","lastUpdated":"2018-05-08T10:13:30.293395","changesets":455,"mappers":51,"roads":0.000599220796289046,"buildings":9512,"edits":9513,"latest":"2018-05-08T10:13:16.000Z"},"geometry":{"type":"Point","coordinates":[30.596896102411772,-7.461640143485554]}},{"type":"Feature","properties":{"lastActive":"no","title":"Kasulu, Kasulu, Tanzania Mini Grids Project 05","id":4572,"area":2206.993164418614,"year":"2018","lastUpdated":"2018-06-21T06:47:41.876386","changesets":659,"mappers":53,"roads":0.332538602551101,"buildings":7553,"edits":7645,"latest":"2018-06-21T06:47:28.000Z"},"geometry":{"type":"Point","coordinates":[30.58835132393096,-4.543021986400334]}},{"type":"Feature","properties":{"lastActive":"no","title":"Tunduru, Ruvuma, Tanzania Mini Grids Project 02","id":4424,"area":1549.6766515243964,"year":"2018","lastUpdated":"2018-05-04T08:55:20.079197","changesets":855,"mappers":63,"roads":0.0711115935309787,"buildings":21117,"edits":21136,"latest":"2018-05-07T07:56:42.000Z"},"geometry":{"type":"Point","coordinates":[37.44642487877472,-11.304728564657015]}},{"type":"Feature","properties":{"lastActive":"no","title":"Chemba and Bahi Districts, Tanzania Mini Grids Project 03","id":4654,"area":1954.525377556312,"year":"2018","lastUpdated":"2018-06-06T01:13:39.569207","changesets":1245,"mappers":41,"roads":0.106920348528221,"buildings":20636,"edits":20657,"latest":"2018-06-05T14:25:23.000Z"},"geometry":{"type":"Point","coordinates":[35.36975679869405,-5.440254667200012]}},{"type":"Feature","properties":{"lastActive":"no","title":"Tabora, Tabora, Tanzania Mini Grids Project 06","id":4613,"area":1436.2802264029842,"year":"2018","lastUpdated":"2018-07-02T12:07:55.077015","changesets":1238,"mappers":65,"roads":0.181888238898926,"buildings":23073,"edits":23084,"latest":"2018-07-02T12:11:10.000Z"},"geometry":{"type":"Point","coordinates":[33.948245197465845,-5.104981749651359]}},{"type":"Feature","properties":{"lastActive":"no","title":"Tabora, Tabora, Tanzania Mini Grids Project 03","id":4585,"area":1693.3910497782038,"year":"2018","lastUpdated":"2018-05-31T12:30:55.852006","changesets":1678,"mappers":65,"roads":5.09675418876548,"buildings":25872,"edits":26598,"latest":"2018-05-30T13:54:08.000Z"},"geometry":{"type":"Point","coordinates":[32.49827423592803,-5.097769430191667]}},{"type":"Feature","properties":{"lastActive":"no","title":"Manyoni, Singida, Tanzania Mini Grids Project 03","id":4533,"area":2145.5742223790444,"year":"2018","lastUpdated":"2018-05-18T07:14:49.538516","changesets":1111,"mappers":60,"roads":11.822358790697,"buildings":20618,"edits":21074,"latest":"2018-05-18T13:10:25.000Z"},"geometry":{"type":"Point","coordinates":[35.212920812232916,-5.7381875379846266]}},{"type":"Feature","properties":{"lastActive":"no","title":"Chemba and Bahi Districts, Tanzania Mini Grids Project 06","id":4657,"area":1954.498784623165,"year":"2018","lastUpdated":"2018-06-14T09:15:54.656575","changesets":1739,"mappers":67,"roads":0.0871877791220345,"buildings":23455,"edits":23473,"latest":"2018-06-15T19:15:22.000Z"},"geometry":{"type":"Point","coordinates":[35.518366503705884,-5.7085387258819065]}},{"type":"Feature","properties":{"lastActive":"no","title":"Bankolo Village, Tanzania Mini Grids Project","id":4649,"area":2.655569135969413,"year":"2018","lastUpdated":"2018-06-03T23:07:59.384606","changesets":23,"mappers":10,"roads":0,"buildings":35,"edits":35,"latest":"2018-06-02T09:43:11.000Z"},"geometry":{"type":"Point","coordinates":[35.452022531029996,-5.83740181330499]}},{"type":"Feature","properties":{"lastActive":"no","title":"Villages in Pangani District, Tanzania Mini Grids Project","id":4642,"area":3.2853624864693787,"year":"2018","lastUpdated":"2018-06-03T23:09:23.858187","changesets":85,"mappers":27,"roads":0.0728887891265449,"buildings":3068,"edits":3101,"latest":"2018-06-08T10:05:47.000Z"},"geometry":{"type":"Point","coordinates":[38.9586214536687,-5.426816270673696]}},{"type":"Feature","properties":{"lastActive":"no","title":"Ardhi University: Housing Development - Arusha, Mateves","id":3936,"area":105.10882142853721,"year":"2018","lastUpdated":"2018-01-16T23:34:03.009579","changesets":3556,"mappers":30,"roads":138.191525659107,"buildings":7500,"edits":8425,"latest":"2018-01-16T23:32:57.000Z"},"geometry":{"type":"Point","coordinates":[36.59653045580638,-3.4472906101117435]}},{"type":"Feature","properties":{"lastActive":"no","title":"Missing Maps: Dar es Salaam - Ramani Huria 2.0 - 29","id":3426,"area":297.76980439882516,"year":"2018","lastUpdated":"2018-03-05T15:32:07.612903","changesets":627,"mappers":46,"roads":1351.44697865554,"buildings":91,"edits":10344,"latest":"2017-09-06T11:56:12.000Z"},"geometry":{"type":"Point","coordinates":[39.45915654892912,-6.919374059784676]}},{"type":"Feature","properties":{"lastActive":"no","title":"Urambo, Tabora, Tanzania Mini Grids Project 04","id":4366,"area":1540.7875686482291,"year":"2018","lastUpdated":"2018-04-23T12:46:20.979070","changesets":1920,"mappers":73,"roads":6.26198278193171,"buildings":42229,"edits":42283,"latest":"2018-04-23T12:45:52.000Z"},"geometry":{"type":"Point","coordinates":[31.8072741219125,-5.113293963680001]}},{"type":"Feature","properties":{"lastActive":"no","title":"Missing Maps: Dar es Salaam - Ramani Huria 2.0 - 28","id":3425,"area":238.90307672725964,"year":"2018","lastUpdated":"2018-03-05T15:33:37.319997","changesets":3337,"mappers":175,"roads":1979.67874635539,"buildings":2573,"edits":35065,"latest":"2017-11-03T04:15:17.000Z"},"geometry":{"type":"Point","coordinates":[39.23760432535289,-6.936433155607072]}},{"type":"Feature","properties":{"lastActive":"no","title":"Missing Maps: Dar es Salaam - Ramani Huria 2.0 - 22","id":3394,"area":193.3069912960159,"year":"2018","lastUpdated":"2018-03-05T15:37:43.885692","changesets":1930,"mappers":58,"roads":1.39294643325465,"buildings":23844,"edits":24048,"latest":"2017-08-13T19:03:52.000Z"},"geometry":{"type":"Point","coordinates":[39.08408207500271,-7.020948492257043]}},{"type":"Feature","properties":{"lastActive":"no","title":"TZ IFC Mini-grids house count test-1","id":4035,"area":481.70619678590833,"year":"2018","lastUpdated":"2018-02-09T12:39:18.669550","changesets":3,"mappers":3,"roads":0,"buildings":180,"edits":180,"latest":"2018-02-09T12:27:18.000Z"},"geometry":{"type":"Point","coordinates":[34.581446410258884,-7.300716320272623]}},{"type":"Feature","properties":{"lastActive":"no","title":"Karema Ward, Katavi, Tanzania Mini Grids Project 01","id":4402,"area":49.87575499116186,"year":"2018","lastUpdated":"2018-04-12T09:55:34.291247","changesets":83,"mappers":11,"roads":0,"buildings":1985,"edits":1985,"latest":"2018-04-12T09:55:03.000Z"},"geometry":{"type":"Point","coordinates":[30.45028626808132,-6.824839702555798]}},{"type":"Feature","properties":{"lastActive":"no","title":"Zanzibar Roads - Unguja Island - 02","id":3666,"area":467.0999763333136,"year":"2017","lastUpdated":"2017-10-02T18:35:16.494476","changesets":182,"mappers":13,"roads":1127.1061948184,"buildings":5,"edits":6570,"latest":"2017-10-04T08:29:26.000Z"},"geometry":{"type":"Point","coordinates":[39.26414174907967,-5.856335474346869]}},{"type":"Feature","properties":{"lastActive":"no","title":"Missing Maps: Dar es Salaam - Ramani Huria 2.0 - 34","id":3456,"area":196.89167630800463,"year":"2018","lastUpdated":"2018-03-05T15:30:13.278824","changesets":3676,"mappers":139,"roads":587.388974612296,"buildings":20987,"edits":38292,"latest":"2017-11-13T11:24:48.000Z"},"geometry":{"type":"Point","coordinates":[39.100288211273984,-6.877221494935376]}},{"type":"Feature","properties":{"lastActive":"no","title":"Missing Maps: Dar es Salaam - Ramani Huria 2.0 - 33","id":3455,"area":156.72153831900792,"year":"2018","lastUpdated":"2018-03-05T15:30:37.208960","changesets":2954,"mappers":102,"roads":579.977370621098,"buildings":21094,"edits":39085,"latest":"2017-10-29T15:21:56.000Z"},"geometry":{"type":"Point","coordinates":[39.06687201276458,-6.7708713265034515]}},{"type":"Feature","properties":{"lastActive":"no","title":"Misungwi, Mwanza, Tanzania Mini Grids Project 01","id":4620,"area":1505.6277470567059,"year":"2018","lastUpdated":"2018-06-29T06:38:32.988800","changesets":2108,"mappers":68,"roads":13.4694336037439,"buildings":52916,"edits":53379,"latest":"2018-07-27T10:35:50.000Z"},"geometry":{"type":"Point","coordinates":[32.97328190476263,-3.0581235714285717]}},{"type":"Feature","properties":{"lastActive":"no","title":"Manyoni, Singida, Tanzania Mini Grids Project 05","id":4555,"area":2172.2334385231957,"year":"2018","lastUpdated":"2018-05-24T13:47:51.718614","changesets":1476,"mappers":57,"roads":0.354646008845444,"buildings":32058,"edits":32104,"latest":"2018-05-24T13:46:32.000Z"},"geometry":{"type":"Point","coordinates":[34.89457414391987,-6.337178718154652]}},{"type":"Feature","properties":{"lastActive":"no","title":"Central Singida, Singida, Tanzania Mini Grids Project 00 North","id":4508,"area":2138.0235797080213,"year":"2018","lastUpdated":"2018-07-13T13:11:39.577533","changesets":2429,"mappers":66,"roads":2.19560796896209,"buildings":85349,"edits":85596,"latest":"2018-07-13T13:11:37.000Z"},"geometry":{"type":"Point","coordinates":[34.85630752643853,-4.7195257307215375]}},{"type":"Feature","properties":{"lastActive":"no","title":"Central Singida, Singida, Tanzania Mini Grids Project 05 East","id":4529,"area":1299.832349107584,"year":"2018","lastUpdated":"2018-05-17T09:08:08.102064","changesets":829,"mappers":53,"roads":0.392972178332061,"buildings":16651,"edits":16659,"latest":"2018-05-17T11:23:30.000Z"},"geometry":{"type":"Point","coordinates":[35.19340611670751,-4.901696314033335]}},{"type":"Feature","properties":{"lastActive":"no","title":"S. Monduli, Simanjiro, Tanzania Mini Grids - MapSwipe Project 04 - 01","id":4480,"area":133.48441769177396,"year":"2018","lastUpdated":"2018-06-29T10:36:33.994267","changesets":554,"mappers":60,"roads":0,"buildings":4661,"edits":4661,"latest":"2018-06-29T09:11:00.000Z"},"geometry":{"type":"Point","coordinates":[36.51598942107269,-5.009138210253439]}},{"type":"Feature","properties":{"lastActive":"no","title":"Missing Maps: Dar es Salaam - Ramani Huria 2.0 - 38","id":3496,"area":41.1920610625183,"year":"2018","lastUpdated":"2018-03-05T15:25:20.531310","changesets":5472,"mappers":73,"roads":78.4353169552312,"buildings":94858,"edits":120253,"latest":"2017-11-10T12:46:09.000Z"},"geometry":{"type":"Point","coordinates":[39.246766265484496,-6.7942247570358445]}}],"Ghana":[{"type":"Feature","properties":{"lastActive":"no","title":"Accra Central, Ghana - Yemaapi Ghana - Amenities","id":4246,"area":22.885056272610363,"year":"2018","lastUpdated":"2018-07-25T12:27:21.291946","changesets":19,"mappers":4,"roads":2.05738416209775,"buildings":425,"edits":464,"latest":"2018-07-25T12:26:56.000Z"},"geometry":{"type":"Point","coordinates":[-0.20225953831790586,5.555422659876964]}},{"type":"Feature","properties":{"lastActive":"yes","title":"Missing Maps: Ghana, Volta River, Kpong Area 2 Floodplain","id":3857,"area":148.00935440911226,"year":"2018","lastUpdated":"2018-08-02T08:53:22.489644","changesets":133,"mappers":13,"roads":61.042211679909,"buildings":1441,"edits":1597,"latest":"2018-08-03T01:13:33.000Z"},"geometry":{"type":"Point","coordinates":[0.2825742689190391,6.045989206473212]}},{"type":"Feature","properties":{"lastActive":"no","title":"Kumasi, Ghana","id":4767,"area":505.4883488037384,"year":"2018","lastUpdated":"2018-07-21T21:58:03.536757","changesets":0,"mappers":0,"roads":0,"buildings":0,"edits":0,"latest":null},"geometry":{"type":"Point","coordinates":[-1.612772001818897,6.69798614251772]}},{"type":"Feature","properties":{"lastActive":"no","title":"Tarkwa, Ghana - Yemaapi Ghana - Amenities","id":4249,"area":28.659723787299637,"year":"2018","lastUpdated":"2018-03-02T04:25:17.686752","changesets":5,"mappers":2,"roads":0,"buildings":54,"edits":54,"latest":"2018-06-07T16:19:32.000Z"},"geometry":{"type":"Point","coordinates":[-1.9910479955371894,5.294347901167613]}},{"type":"Feature","properties":{"lastActive":"no","title":"Open Cities Africa, Accra - Alogboshie","id":4871,"area":2.218942766602261,"year":"2018","lastUpdated":"2018-07-31T15:25:26.775566","changesets":0,"mappers":0,"roads":0,"buildings":0,"edits":0,"latest":null},"geometry":{"type":"Point","coordinates":[-0.23110360611270842,5.634197922877294]}},{"type":"Feature","properties":{"lastActive":"no","title":"Dunkwa-on-Offin, Ghana","id":3859,"area":9.82966895727083,"year":"2018","lastUpdated":"2018-05-15T14:32:41.468253","changesets":0,"mappers":0,"roads":0,"buildings":0,"edits":0,"latest":null},"geometry":{"type":"Point","coordinates":[-1.7871362954800785,5.9625174505322835]}},{"type":"Feature","properties":{"lastActive":"no","title":"OpenStreetMap-Workshop-2015 #AccraFloods","id":1100,"area":0.41042591015655777,"year":"2017","lastUpdated":"2017-07-08T21:54:55.572942","changesets":487,"mappers":52,"roads":506.826280483439,"buildings":1957,"edits":4419,"latest":"2018-03-08T02:10:29.000Z"},"geometry":{"type":"Point","coordinates":[-0.21522581577301003,5.568234795153613]}},{"type":"Feature","properties":{"lastActive":"no","title":"Kumasi, Ghana - Yemaapi Ghana - Amenities","id":4248,"area":43.03637157395998,"year":"2018","lastUpdated":"2018-03-02T04:26:31.637441","changesets":1,"mappers":1,"roads":0.00536883682056749,"buildings":0,"edits":3,"latest":"2018-03-12T07:15:35.000Z"},"geometry":{"type":"Point","coordinates":[-1.595349232125805,6.686407857464747]}},{"type":"Feature","properties":{"lastActive":"no","title":"Cape Coast, Ghana - Yemaapi Ghana - Amenities","id":4238,"area":15.035284309269873,"year":"2018","lastUpdated":"2018-03-17T13:28:36.949132","changesets":22,"mappers":11,"roads":141.350783432443,"buildings":16,"edits":38,"latest":"2018-04-16T18:14:27.000Z"},"geometry":{"type":"Point","coordinates":[-1.2768227471427498,5.117525038125339]}},{"type":"Feature","properties":{"lastActive":"no","title":"Missing Maps:  Ghana, Volta River, Kpong Dam Area 1","id":3840,"area":105.40279453196466,"year":"2018","lastUpdated":"2018-07-26T02:25:19.668837","changesets":0,"mappers":0,"roads":0,"buildings":0,"edits":0,"latest":null},"geometry":{"type":"Point","coordinates":[0.1898750841541567,6.1118474489259595]}},{"type":"Feature","properties":{"lastActive":"no","title":"Missing Maps: Ghana, Volta River, Akosombo Area Floodplain","id":3839,"area":116.42032409621953,"year":"2018","lastUpdated":"2018-07-26T02:26:01.702288","changesets":1873,"mappers":231,"roads":102.868876812679,"buildings":24516,"edits":26150,"latest":"2018-06-27T21:10:37.000Z"},"geometry":{"type":"Point","coordinates":[0.09867759840172491,6.206696903361253]}}],"Vietnam":[{"type":"Feature","properties":{"lastActive":"no","title":"Missing Maps: Viet Nam, Can Tho, Bhin Thuy 2","id":4230,"area":10.207076955580114,"year":"2018","lastUpdated":"2018-07-19T03:16:20.840866","changesets":550,"mappers":25,"roads":0.00105022403918742,"buildings":1339,"edits":1378,"latest":"2018-07-25T08:17:22.000Z"},"geometry":{"type":"Point","coordinates":[105.71058748956719,10.087919204625848]}},{"type":"Feature","properties":{"lastActive":"no","title":"Can Tho Core City Mapathon Area","id":3895,"area":149.1174397768337,"year":"2018","lastUpdated":"2018-04-27T16:26:46.935925","changesets":484,"mappers":21,"roads":49.8156810371734,"buildings":4694,"edits":6133,"latest":"2018-04-27T16:33:46.000Z"},"geometry":{"type":"Point","coordinates":[105.71904173803547,10.03014896250419]}},{"type":"Feature","properties":{"lastActive":"no","title":"Missing Maps: Tam Ky, Vietnam 2","id":3868,"area":60.68202185336558,"year":"2018","lastUpdated":"2018-07-30T23:18:30.324488","changesets":978,"mappers":112,"roads":19.9596092044504,"buildings":9011,"edits":9171,"latest":"2018-07-30T23:22:39.000Z"},"geometry":{"type":"Point","coordinates":[108.5092704779448,15.609606878767911]}},{"type":"Feature","properties":{"lastActive":"no","title":"Missing Maps: Hoa Nhon, Da Nang, Viet Nam","id":4595,"area":32.75607542042544,"year":"2018","lastUpdated":"2018-07-27T19:42:50.895206","changesets":927,"mappers":200,"roads":194.04296143253,"buildings":10144,"edits":12016,"latest":"2018-07-27T19:41:03.000Z"},"geometry":{"type":"Point","coordinates":[108.11778095392042,16.016404351515657]}},{"type":"Feature","properties":{"lastActive":"no","title":"Missing Maps: Ha Tinh, Vietnam 2","id":3866,"area":39.30564147265127,"year":"2018","lastUpdated":"2018-08-01T04:18:57.342922","changesets":594,"mappers":74,"roads":66.2970888399494,"buildings":4319,"edits":5225,"latest":"2018-07-13T20:27:47.000Z"},"geometry":{"type":"Point","coordinates":[105.89258069216868,18.356182891614953]}},{"type":"Feature","properties":{"lastActive":"yes","title":"Missing Maps: Hoi An, Vietnam 1","id":3869,"area":18.63771684487168,"year":"2018","lastUpdated":"2018-08-03T04:28:26.063751","changesets":2292,"mappers":74,"roads":31.0728267936181,"buildings":17800,"edits":19818,"latest":"2018-08-03T04:32:26.000Z"},"geometry":{"type":"Point","coordinates":[108.33962329540384,15.877352770637094]}},{"type":"Feature","properties":{"lastActive":"no","title":"Missing Maps: Tam Ky, Vietnam 1","id":3867,"area":29.782527531875047,"year":"2018","lastUpdated":"2018-08-01T04:06:29.721843","changesets":5130,"mappers":46,"roads":62.7615273619727,"buildings":17426,"edits":18843,"latest":"2018-08-01T04:06:09.000Z"},"geometry":{"type":"Point","coordinates":[108.47375611872688,15.555141490567896]}},{"type":"Feature","properties":{"lastActive":"yes","title":"Missing Maps: Ha Tinh, Vietnam 1","id":3865,"area":17.235643815418214,"year":"2018","lastUpdated":"2018-08-03T01:11:10.334476","changesets":5326,"mappers":36,"roads":11.426865148843,"buildings":9391,"edits":10669,"latest":"2018-08-03T01:06:39.000Z"},"geometry":{"type":"Point","coordinates":[105.91710515176096,18.325757268387065]}},{"type":"Feature","properties":{"lastActive":"no","title":"Missing Maps: Hoi An, Vietnam 2","id":3870,"area":28.23479225087314,"year":"2018","lastUpdated":"2018-06-29T05:56:09.570787","changesets":878,"mappers":66,"roads":3.32189352049438,"buildings":8156,"edits":8331,"latest":"2018-07-12T05:28:29.000Z"},