{"totalEdits":38769120,"totalBuildings":31741478,"totalRoads":829814.378355938,"mappersOnline":30,"totalTasksMapped":1520021,"totalMappers":127281,"totalProjects":1544,"Tajikistan":[{"type":"Feature","properties":{"title":"Afghanistan Roads Inventory - Badakhshan Province","id":4383,"area":43447.969678524954,"year":"2018","lastUpdated":"2018-05-22T18:55:22.421497","changesets":3,"mappers":1,"roads":27.6802989557182,"buildings":1,"edits":22,"latest":"2018-05-22T18:55:12.000Z"},"geometry":{"type":"Point","coordinates":[71.57768013106761,36.92814991755027]}}],"totalArea":5836784.655692917,"Tanzania":[{"type":"Feature","properties":{"title":"Urambo, Tabora, Tanzania Mini Grids Project 04","id":4366,"area":1540.7875686482291,"year":"2018","lastUpdated":"2018-04-23T12:46:20.979070","changesets":1920,"mappers":73,"roads":6.2619827819317,"buildings":42229,"edits":42283,"latest":"2018-04-23T12:45:52.000Z"},"geometry":{"type":"Point","coordinates":[31.8072741219125,-5.113293963680001]}},{"type":"Feature","properties":{"title":"Mbozi, Mbeya, Tanzania Mini Grids Project 07","id":4350,"area":908.5380955685306,"year":"2018","lastUpdated":"2018-06-29T06:38:11.249834","changesets":907,"mappers":61,"roads":663.399475561412,"buildings":30497,"edits":31563,"latest":"2018-04-11T09:11:04.000Z"},"geometry":{"type":"Point","coordinates":[32.511668384650065,-8.419049370379382]}},{"type":"Feature","properties":{"title":"Mbozi, Mbeya, Tanzania Mini Grids Project 05","id":4291,"area":1217.253471872788,"year":"2018","lastUpdated":"2018-06-28T18:33:30.349701","changesets":1051,"mappers":65,"roads":1098.18198535427,"buildings":16367,"edits":18267,"latest":"2018-04-11T10:37:22.000Z"},"geometry":{"type":"Point","coordinates":[32.832228251564956,-8.77762069709877]}},{"type":"Feature","properties":{"title":"Missing Maps: Dar es Salaam - Ramani Huria 2.0 - 27","id":3424,"area":230.31173426208932,"year":"2018","lastUpdated":"2018-03-05T15:33:58.772352","changesets":2533,"mappers":79,"roads":1585.23523604963,"buildings":328,"edits":20922,"latest":"2017-08-31T08:30:39.000Z"},"geometry":{"type":"Point","coordinates":[39.10027660536416,-7.025038398924583]}},{"type":"Feature","properties":{"title":"Missing Maps: Dar es Salaam - Ramani Huria 2.0 - 22","id":3394,"area":193.3069912960159,"year":"2018","lastUpdated":"2018-03-05T15:37:43.885692","changesets":1930,"mappers":58,"roads":1.39294643325465,"buildings":23844,"edits":24048,"latest":"2017-08-13T19:03:52.000Z"},"geometry":{"type":"Point","coordinates":[39.08408207500271,-7.020948492257043]}},{"type":"Feature","properties":{"title":"Missing Maps: Dar es Salaam - Ramani Huria 2.0 - 06","id":3351,"area":42.09056201926153,"year":"2017","lastUpdated":"2017-09-18T13:32:44.404729","changesets":1060,"mappers":98,"roads":583.340797762564,"buildings":2543,"edits":21480,"latest":"2017-09-18T13:34:28.000Z"},"geometry":{"type":"Point","coordinates":[39.08745002746582,-6.700853885903787]}},{"type":"Feature","properties":{"title":"Tanzania Development Trust: Manyoni district mapping project","id":3253,"area":1144.4488878187772,"year":"2018","lastUpdated":"2018-02-19T11:31:46.467382","changesets":0,"mappers":0,"roads":0,"buildings":0,"edits":0,"latest":null},"geometry":{"type":"Point","coordinates":[34.83352661132815,-5.7092421794668216]}},{"type":"Feature","properties":{"title":"MSD & JSI/USAID Tanzania Road Import - Rukwa and Katavi regions","id":1462,"area":23601.174016426638,"year":"2016","lastUpdated":"2016-11-09T18:57:37.926429","changesets":0,"mappers":0,"roads":0,"buildings":0,"edits":0,"latest":null},"geometry":{"type":"Point","coordinates":[31.18854567490904,-7.033630568874043]}},{"type":"Feature","properties":{"title":"MSD & JSI/USAID Tanzania Road Import - Zanzibar region","id":1299,"area":2309.3542336056603,"year":"2017","lastUpdated":"2017-03-25T22:18:08.637646","changesets":0,"mappers":0,"roads":0,"buildings":0,"edits":0,"latest":null},"geometry":{"type":"Point","coordinates":[39.31937084402078,-6.027515801549827]}},{"type":"Feature","properties":{"title":"MSD & JSI/USAID Tanzania Road Import - Kigoma and Tabora regions","id":1233,"area":55716.44775664574,"year":"2017","lastUpdated":"2017-09-08T08:29:26.684641","changesets":89,"mappers":5,"roads":7164.0075520837,"buildings":137,"edits":14011,"latest":"2015-10-15T16:49:58.000Z"},"geometry":{"type":"Point","coordinates":[32.221144436424595,-4.716038295525221]}},{"type":"Feature","properties":{"title":"Central Singida, Singida, Tanzania Mini Grids Project 02","id":4518,"area":1414.1192851427202,"year":"2018","lastUpdated":"2018-05-17T11:04:47.566760","changesets":882,"mappers":58,"roads":0.0239845493890909,"buildings":17063,"edits":17069,"latest":"2018-05-17T08:50:47.000Z"},"geometry":{"type":"Point","coordinates":[34.41588549629685,-5.109440949915025]}},{"type":"Feature","properties":{"title":"S. Monduli, Simanjiro, Tanzania Mini Grids - MapSwipe Project 04 - 02","id":4479,"area":131.2262807333246,"year":"2018","lastUpdated":"2018-05-04T09:42:42.952002","changesets":136,"mappers":50,"roads":0.000165500103078919,"buildings":1412,"edits":1414,"latest":"2018-05-04T09:36:27.000Z"},"geometry":{"type":"Point","coordinates":[37.140374705660484,-4.974450733390372]}},{"type":"Feature","properties":{"title":"Tunduru, Ruvuma, Tanzania Mini Grids Project 06-07","id":4420,"area":2221.546325309108,"year":"2018","lastUpdated":"2018-06-26T09:46:42.343600","changesets":1985,"mappers":65,"roads":8.29642473632597,"buildings":30918,"edits":30981,"latest":"2018-06-14T11:13:23.000Z"},"geometry":{"type":"Point","coordinates":[37.34039799071685,-10.737231230373672]}},{"type":"Feature","properties":{"title":"Mbulu Center Village, Tanzania Mini Grids Project 01","id":4436,"area":12.606083526364179,"year":"2018","lastUpdated":"2018-04-19T11:23:53.908966","changesets":134,"mappers":33,"roads":0.0184481585815086,"buildings":1409,"edits":1446,"latest":"2018-04-20T09:10:43.000Z"},"geometry":{"type":"Point","coordinates":[33.0464779901525,-8.959391550342504]}},{"type":"Feature","properties":{"title":"Kigoma_5","id":4086,"area":3.7491092848574272,"year":"2018","lastUpdated":"2018-02-09T15:21:14.358247","changesets":156,"mappers":6,"roads":0.459783989828362,"buildings":1942,"edits":1948,"latest":"2018-02-07T11:29:30.000Z"},"geometry":{"type":"Point","coordinates":[30.01864971055042,-6.469512478105855]}},{"type":"Feature","properties":{"title":"Kigoma_2","id":4083,"area":1.965158778543636,"year":"2018","lastUpdated":"2018-01-30T14:05:17.983249","changesets":127,"mappers":2,"roads":0,"buildings":458,"edits":458,"latest":"2018-01-30T14:04:27.000Z"},"geometry":{"type":"Point","coordinates":[30.490210022071953,-6.813742245754607]}},{"type":"Feature","properties":{"title":"Urambo, Tabora, Tanzania Mini Grids Project 05","id":4352,"area":1522.3866868404682,"year":"2018","lastUpdated":"2018-06-29T06:39:44.799826","changesets":1420,"mappers":63,"roads":47.0933047252912,"buildings":58498,"edits":58580,"latest":"2018-04-11T09:35:31.000Z"},"geometry":{"type":"Point","coordinates":[31.750896252665452,-5.017669822392724]}},{"type":"Feature","properties":{"title":"Kigoma_6","id":4087,"area":3.103362564009721,"year":"2018","lastUpdated":"2018-02-15T12:32:16.947516","changesets":201,"mappers":8,"roads":0.0059086431357116,"buildings":3802,"edits":3802,"latest":"2018-02-13T11:37:26.000Z"},"geometry":{"type":"Point","coordinates":[29.957718322358744,-6.483041975356721]}},{"type":"Feature","properties":{"title":"Tanzania Development Trust: Kagera Road Mapping","id":4369,"area":15505.318016681384,"year":"2018","lastUpdated":"2018-06-17T15:44:26.132464","changesets":11,"mappers":3,"roads":12.7479650866356,"buildings":18,"edits":33,"latest":"2018-06-10T18:30:49.000Z"},"geometry":{"type":"Point","coordinates":[31.083802641369388,-1.6037426685457075]}},{"type":"Feature","properties":{"title":"Mbozi, Mbeya, Tanzania Mini Grids Project 04","id":4290,"area":1211.7161084477548,"year":"2018","lastUpdated":"2018-07-03T09:23:29.574736","changesets":1169,"mappers":69,"roads":1444.56368233182,"buildings":35862,"edits":38500,"latest":"2018-04-10T12:46:01.000Z"},"geometry":{"type":"Point","coordinates":[32.864289160170514,-8.870478995599651]}},{"type":"Feature","properties":{"title":"Mbozi, Mbeya, Tanzania Mini Grids Project 01","id":4286,"area":1427.754247465411,"year":"2018","lastUpdated":"2018-06-07T08:27:39.601646","changesets":3571,"mappers":68,"roads":3017.76610954661,"buildings":84064,"edits":91962,"latest":"2018-06-14T11:11:25.000Z"},"geometry":{"type":"Point","coordinates":[32.815140600291976,-9.28818806240448]}},{"type":"Feature","properties":{"title":"Kalobe-Data Zetu","id":4242,"area":5.581452341462152,"year":"2018","lastUpdated":"2018-03-07T09:09:27.180898","changesets":531,"mappers":5,"roads":0.0106237188235286,"buildings":6096,"edits":6109,"latest":"2018-03-07T09:02:49.000Z"},"geometry":{"type":"Point","coordinates":[33.4084716088529,-8.914847386034923]}},{"type":"Feature","properties":{"title":"Lindi - Mini Grids","id":4260,"area":235.67207484051517,"year":"2018","lastUpdated":"2018-04-18T21:53:41.412313","changesets":133,"mappers":23,"roads":23.0772557724216,"buildings":2266,"edits":2684,"latest":"2018-04-18T21:53:28.000Z"},"geometry":{"type":"Point","coordinates":[39.305670260454285,-10.707404745317382]}},{"type":"Feature","properties":{"title":"Urambo, Tabora, Tanzania Mini Grids Project 08","id":4355,"area":1512.9535222617567,"year":"2018","lastUpdated":"2018-06-29T06:36:14.716443","changesets":1416,"mappers":62,"roads":0.0220781814910548,"buildings":53735,"edits":53737,"latest":"2018-03-29T09:51:14.000Z"},"geometry":{"type":"Point","coordinates":[31.652766553125133,-4.666160203174864]}},{"type":"Feature","properties":{"title":"Mbozi, Mbeya, Tanzania Mini Grids Project 03","id":4289,"area":1303.883290131881,"year":"2018","lastUpdated":"2018-06-29T13:16:07.336988","changesets":2369,"mappers":71,"roads":1709.1223406615,"buildings":56972,"edits":61831,"latest":"2018-04-04T13:53:11.000Z"},"geometry":{"type":"Point","coordinates":[32.660369621525334,-8.981003005244997]}},{"type":"Feature","properties":{"title":"Mbeya minigrids","id":4208,"area":381.3150730146897,"year":"2018","lastUpdated":"2018-04-11T07:15:52.458810","changesets":8229,"mappers":81,"roads":545.472150450804,"buildings":454625,"edits":458780,"latest":"2018-03-29T12:55:24.000Z"},"geometry":{"type":"Point","coordinates":[33.273085375143864,-8.927145320940063]}},{"type":"Feature","properties":{"title":"Missing Maps: Dar es Salaam - Ramani Huria 2.0 - 34","id":3456,"area":196.89167630800463,"year":"2018","lastUpdated":"2018-03-05T15:30:13.278824","changesets":3676,"mappers":139,"roads":587.388974612295,"buildings":20987,"edits":38292,"latest":"2017-11-13T11:24:48.000Z"},"geometry":{"type":"Point","coordinates":[39.100288211273984,-6.877221494935376]}},{"type":"Feature","properties":{"title":"Kagera_Goziba","id":4079,"area":1.1395975392255964,"year":"2018","lastUpdated":"2018-01-29T07:04:24.380360","changesets":0,"mappers":0,"roads":0,"buildings":0,"edits":0,"latest":null},"geometry":{"type":"Point","coordinates":[32.61356799061652,-1.4704301698877245]}},{"type":"Feature","properties":{"title":"Ardhi University: Housing Development - Arusha City","id":3937,"area":28.84666648523269,"year":"2018","lastUpdated":"2018-03-15T09:06:53.133923","changesets":1278,"mappers":35,"roads":22.2386466845665,"buildings":3644,"edits":3818,"latest":"2018-05-11T01:10:09.000Z"},"geometry":{"type":"Point","coordinates":[36.790300973849895,-3.3836324243588614]}},{"type":"Feature","properties":{"title":"TZ IFC Mini-grids house count test","id":3876,"area":481.70619678590833,"year":"2018","lastUpdated":"2018-01-17T09:18:38.631606","changesets":3458,"mappers":35,"roads":5.06366089326074,"buildings":275823,"edits":276862,"latest":"2018-02-20T15:26:25.000Z"},"geometry":{"type":"Point","coordinates":[34.581446410258884,-7.300716320272623]}},{"type":"Feature","properties":{"title":"Mara","id":4073,"area":3.087873440053216,"year":"2018","lastUpdated":"2018-01-29T14:51:44.742950","changesets":0,"mappers":0,"roads":0,"buildings":0,"edits":0,"latest":null},"geometry":{"type":"Point","coordinates":[33.70828711361714,-1.4058350861409175]}},{"type":"Feature","properties":{"title":"Kigoma_8","id":4089,"area":3.170194931843662,"year":"2018","lastUpdated":"2018-02-14T08:58:00.280285","changesets":175,"mappers":7,"roads":0.00164720947993757,"buildings":5558,"edits":5558,"latest":"2018-02-15T13:52:57.000Z"},"geometry":{"type":"Point","coordinates":[29.77626862798747,-6.004675849692375]}},{"type":"Feature","properties":{"title":"Kigoma_9","id":4090,"area":1.722690665551124,"year":"2018","lastUpdated":"2018-02-15T09:43:57.762973","changesets":290,"mappers":6,"roads":0.249339693562493,"buildings":1929,"edits":1941,"latest":"2018-02-15T09:43:50.000Z"},"geometry":{"type":"Point","coordinates":[29.825238216387262,-6.003663870933533]}},{"type":"Feature","properties":{"title":"Urambo, Tabora, Tanzania Mini Grids Project 03","id":4365,"area":1398.7624508238905,"year":"2018","lastUpdated":"2018-07-04T09:14:48.213836","changesets":1186,"mappers":64,"roads":0.0350233998501786,"buildings":32670,"edits":32678,"latest":"2018-04-13T13:08:47.000Z"},"geometry":{"type":"Point","coordinates":[31.89778350716778,-5.22060588533778]}},{"type":"Feature","properties":{"title":"kagera_2","id":4071,"area":3.850874321865156,"year":"2018","lastUpdated":"2018-01-27T16:40:53.676551","changesets":0,"mappers":0,"roads":0,"buildings":0,"edits":0,"latest":null},"geometry":{"type":"Point","coordinates":[32.119615051499174,-1.4696475246974754]}},{"type":"Feature","properties":{"title":"Missing Maps: Kyela - Data Zetu","id":3698,"area":251.55720854707542,"year":"2018","lastUpdated":"2018-04-05T07:21:35.195103","changesets":794,"mappers":11,"roads":1.82568061664987,"buildings":29269,"edits":29334,"latest":"2018-04-04T13:51:14.000Z"},"geometry":{"type":"Point","coordinates":[33.84069567931769,-9.544454940746501]}},{"type":"Feature","properties":{"title":"Kigoma_14","id":4100,"area":0.8979043606940176,"year":"2018","lastUpdated":"2018-02-16T06:09:02.081829","changesets":179,"mappers":9,"roads":0,"buildings":906,"edits":906,"latest":"2018-02-16T06:08:51.000Z"},"geometry":{"type":"Point","coordinates":[29.64091800036702,-4.624237761570404]}},{"type":"Feature","properties":{"title":"Tunduru, Ruvuma, Tanzania Mini Grids Project 03","id":4378,"area":1369.2568876847938,"year":"2018","lastUpdated":"2018-05-03T12:58:11.041494","changesets":1018,"mappers":60,"roads":0.263537837490913,"buildings":23394,"edits":23430,"latest":"2018-05-03T13:14:28.000Z"},"geometry":{"type":"Point","coordinates":[37.28765739124834,-11.152541317436667]}},{"type":"Feature","properties":{"title":"Kigoma_17","id":4105,"area":4.227050493859274,"year":"2018","lastUpdated":"2018-02-15T09:58:31.382396","changesets":84,"mappers":8,"roads":0.193564177598396,"buildings":1322,"edits":1325,"latest":"2018-02-22T12:12:21.000Z"},"geometry":{"type":"Point","coordinates":[29.924467030509287,-5.732861759308482]}},{"type":"Feature","properties":{"title":"Priority Villages, Ruvuma Region, Tanzania Mini Grids Project","id":4801,"area":491.345226887175,"year":"2018","lastUpdated":"2018-07-03T15:18:55.293383","changesets":0,"mappers":0,"roads":0,"buildings":0,"edits":0,"latest":null},"geometry":{"type":"Point","coordinates":[35.45485146842986,-10.678797947427933]}},{"type":"Feature","properties":{"title":"Kagera_Goziba","id":4068,"area":1.2825061201820658,"year":"2018","lastUpdated":"2018-01-27T17:08:13.788121","changesets":1,"mappers":1,"roads":0,"buildings":0,"edits":0,"latest":"2018-01-27T17:01:56.000Z"},"geometry":{"type":"Point","coordinates":[32.613511747768825,-1.4704431873747166]}},{"type":"Feature","properties":{"title":"Tanzania Development Trust: Mwanza West Community Mapping Project","id":4358,"area":1290.9455273129195,"year":"2018","lastUpdated":"2018-07-04T22:32:54.428726","changesets":8458,"mappers":673,"roads":5049.72480169838,"buildings":87020,"edits":118446,"latest":"2018-06-17T03:51:37.000Z"},"geometry":{"type":"Point","coordinates":[32.548552534014256,-2.6391112035937363]}},{"type":"Feature","properties":{"title":"Tanzania Development Trust: Shinyanga East community mapping project","id":4166,"area":1007.0589397559861,"year":"2018","lastUpdated":"2018-07-04T12:47:46.906157","changesets":2304,"mappers":323,"roads":1359.78696359832,"buildings":23393,"edits":28852,"latest":"2018-06-16T04:35:02.000Z"},"geometry":{"type":"Point","coordinates":[33.66405700164086,-3.5303866913753184]}},{"type":"Feature","properties":{"title":"PEPFAR TANZANIA: GEITA DC","id":3903,"area":4738.968040349855,"year":"2018","lastUpdated":"2018-04-30T17:02:58.055569","changesets":5534,"mappers":266,"roads":3127.21453679912,"buildings":60035,"edits":83984,"latest":"2018-05-22T16:14:57.000Z"},"geometry":{"type":"Point","coordinates":[32.06279754752212,-2.682505789886702]}},{"type":"Feature","properties":{"title":"Tanzania Development Trust: Masasi district, Mtwara Region","id":3251,"area":1622.139093292662,"year":"2018","lastUpdated":"2018-02-17T10:13:50.185746","changesets":0,"mappers":0,"roads":0,"buildings":0,"edits":0,"latest":null},"geometry":{"type":"Point","coordinates":[38.77120971679688,-10.7730228886694]}},{"type":"Feature","properties":{"title":"Missing Maps: Dar es Salaam - Ramani Huria 2.0 - 21","id":3388,"area":69.65587897048133,"year":"2017","lastUpdated":"2017-08-29T20:18:54.288698","changesets":1939,"mappers":75,"roads":6.84000186734417,"buildings":36784,"edits":37868,"latest":"2017-08-11T12:28:34.000Z"},"geometry":{"type":"Point","coordinates":[39.1238626216775,-6.897961178878595]}},{"type":"Feature","properties":{"title":"MSD & JSI/USAID Tanzania Road Import - Mara region","id":2095,"area":18583.120612545095,"year":"2016","lastUpdated":"2016-12-02T22:50:50.785436","changesets":0,"mappers":0,"roads":0,"buildings":0,"edits":0,"latest":null},"geometry":{"type":"Point","coordinates":[34.25431061911746,-1.7219985711602823]}},{"type":"Feature","properties":{"title":"MSD & JSI/USAID Tanzania Road Import - Iringa region","id":2157,"area":30284.59973311939,"year":"2016","lastUpdated":"2016-10-20T13:22:29.952382","changesets":85,"mappers":13,"roads":2909.39047680426,"buildings":712,"edits":3579,"latest":"2016-10-19T21:15:43.000Z"},"geometry":{"type":"Point","coordinates":[35.12966588259462,-8.90039717715023]}},{"type":"Feature","properties":{"title":"MSD & JSI/USAID Tanzania Road Import - Tanga region","id":1921,"area":26453.26230241192,"year":"2016","lastUpdated":"2016-11-26T18:48:48.999774","changesets":0,"mappers":0,"roads":0,"buildings":0,"edits":0,"latest":null},"geometry":{"type":"Point","coordinates":[38.09654675335962,-5.362412457676792]}},{"type":"Feature","properties":{"title":"Tanzania Development Trust: Manyoni district mapping project part 2","id":3389,"area":7477.8484249126495,"year":"2018","lastUpdated":"2018-07-04T20:18:52.294829","changesets":0,"mappers":0,"roads":0,"buildings":0,"edits":0,"latest":null},"geometry":{"type":"Point","coordinates":[35.27572631835939,-4.379171736396492]}},{"type":"Feature","properties":{"title":"Tanzania Development Trust: Maswa district mapping project part 1","id":2578,"area":159.57894576974346,"year":"2017","lastUpdated":"2017-10-19T10:37:48.653512","changesets":0,"mappers":0,"roads":0,"buildings":0,"edits":0,"latest":null},"geometry":{"type":"Point","coordinates":[33.817882557580745,-3.2813052403453997]}},{"type":"Feature","properties":{"title":"Tanzania Development Trust: Serengeti district mapping project part 2","id":2261,"area":11207.631576365555,"year":"2018","lastUpdated":"2018-05-22T06:15:57.092496","changesets":33972,"mappers":1624,"roads":29371.8658993649,"buildings":602966,"edits":917459,"latest":"2018-05-22T10:49:25.000Z"},"geometry":{"type":"Point","coordinates":[33.563361167907715,-1.6146094797775092]}},{"type":"Feature","properties":{"title":"MSD & JSI/USAID Tanzania Road Import - Manyara region","id":1973,"area":40580.74888215921,"year":"2016","lastUpdated":"2016-07-03T20:50:06.210422","changesets":0,"mappers":0,"roads":0,"buildings":0,"edits":0,"latest":null},"geometry":{"type":"Point","coordinates":[36.2647809052761,-4.352401182141463]}},{"type":"Feature","properties":{"title":"Missing Maps: Dar es Salaam - Ramani Huria 8","id":2242,"area":18.297857125006182,"year":"2017","lastUpdated":"2017-04-26T13:26:16.487958","changesets":402,"mappers":13,"roads":17.3508405937143,"buildings":9226,"edits":9722,"latest":"2016-12-08T19:06:28.000Z"},"geometry":{"type":"Point","coordinates":[39.19390890056493,-6.76004283446328]}},{"type":"Feature","properties":{"title":"Peace Corps Tanzania -- Lushoto","id":1903,"area":69.21165370312055,"year":"2017","lastUpdated":"2017-09-19T04:44:26.195543","changesets":640,"mappers":88,"roads":126.39665147357,"buildings":9101,"edits":10836,"latest":"2017-07-28T23:41:56.000Z"},"geometry":{"type":"Point","coordinates":[38.303773299507476,-4.810238891566513]}},{"type":"Feature","properties":{"title":"MSD & JSI/USAID Tanzania Road Import - Kilimanjaro region","id":1972,"area":11317.826802773296,"year":"2016","lastUpdated":"2016-08-31T08:40:56.222091","changesets":0,"mappers":0,"roads":0,"buildings":0,"edits":0,"latest":null},"geometry":{"type":"Point","coordinates":[37.47095374471149,-3.5857099932097873]}},{"type":"Feature","properties":{"title":"Tanzania Development Trust: Rusesa, Kwaga and Kigembe districts community mapping project ","id":3134,"area":554.3164257263877,"year":"2017","lastUpdated":"2017-12-12T20:58:40.374306","changesets":0,"mappers":0,"roads":0,"buildings":0,"edits":0,"latest":null},"geometry":{"type":"Point","coordinates":[30.003875680949932,-4.84165310145059]}},{"type":"Feature","properties":{"title":"PEPFAR Tanzania: Mbeya CC","id":2556,"area":256.08947868821076,"year":"2018","lastUpdated":"2018-05-07T03:44:11.992952","changesets":3674,"mappers":263,"roads":1309.65000981764,"buildings":21914,"edits":54339,"latest":"2018-05-15T06:12:15.000Z"},"geometry":{"type":"Point","coordinates":[33.487846817016006,-8.911443046528687]}},{"type":"Feature","properties":{"title":"Ngorongoro Conservation Area","id":1040,"area":8640.922363295951,"year":"2017","lastUpdated":"2017-04-25T12:38:43.230359","changesets":0,"mappers":0,"roads":0,"buildings":0,"edits":0,"latest":null},"geometry":{"type":"Point","coordinates":[35.421957288469606,-3.139810074677604]}},{"type":"Feature","properties":{"title":"MSD & JSI/USAID Tanzania Road Import - Arusha region","id":1971,"area":31245.987566415035,"year":"2017","lastUpdated":"2017-07-24T23:13:32.143193","changesets":0,"mappers":0,"roads":0,"buildings":0,"edits":0,"latest":null},"geometry":{"type":"Point","coordinates":[35.98178328230096,-2.99082315747327]}},{"type":"Feature","properties":{"title":"MSD & JSI/USAID Tanzania Road Import - West Ruvuma region","id":1256,"area":10512.14514732082,"year":"2016","lastUpdated":"2016-04-04T16:27:39.061397","changesets":0,"mappers":0,"roads":0,"buildings":0,"edits":0,"latest":null},"geometry":{"type":"Point","coordinates":[35.73071423073114,-10.644452430898227]}},{"type":"Feature","properties":{"title":"Central Singida, Singida, Tanzania Mini Grids Project 03","id":4519,"area":2105.041518258272,"year":"2018","lastUpdated":"2018-05-16T13:46:42.174753","changesets":1720,"mappers":63,"roads":0.0426727988520717,"buildings":55117,"edits":55135,"latest":"2018-05-16T14:10:04.000Z"},"geometry":{"type":"Point","coordinates":[34.9139572099927,-4.933032473319332]}},{"type":"Feature","properties":{"title":"Chemba and Bahi Districts, Tanzania Mini Grids Project 06","id":4657,"area":1954.498784623165,"year":"2018","lastUpdated":"2018-06-14T09:15:54.656575","changesets":1739,"mappers":67,"roads":0.0871877791220345,"buildings":23455,"edits":23473,"latest":"2018-06-15T19:15:22.000Z"},"geometry":{"type":"Point","coordinates":[35.518366503705884,-5.7085387258819065]}},{"type":"Feature","properties":{"title":"Serengeti National Park","id":834,"area":13370.038280033767,"year":"2017","lastUpdated":"2017-07-05T09:52:49.480984","changesets":0,"mappers":0,"roads":0,"buildings":0,"edits":0,"latest":null},"geometry":{"type":"Point","coordinates":[34.71995007142858,-1.969435597802197]}},{"type":"Feature","properties":{"title":"Lindi, Lindi, Tanzania Mini Grids Project 04","id":4495,"area":2400.161505147141,"year":"2018","lastUpdated":"2018-07-02T06:32:32.947392","changesets":1491,"mappers":64,"roads":3.71317177369055,"buildings":44871,"edits":44997,"latest":"2018-05-10T12:37:32.000Z"},"geometry":{"type":"Point","coordinates":[39.76326133480001,-10.168453829364001]}},{"type":"Feature","properties":{"title":"Songea Rural, Ruvuma, Tanzania Mini Grids Project 07","id":4721,"area":2150.916415219976,"year":"2018","lastUpdated":"2018-06-14T07:42:10.260484","changesets":527,"mappers":55,"roads":0.110758162123934,"buildings":9680,"edits":9693,"latest":"2018-06-13T11:23:25.000Z"},"geometry":{"type":"Point","coordinates":[35.565031022546556,-11.40219846168882]}},{"type":"Feature","properties":{"title":"Priority Villages, Kigoma Region, Tanzania Mini Grids Project","id":4779,"area":2340.2938543456194,"year":"2018","lastUpdated":"2018-06-27T23:26:21.748956","changesets":0,"mappers":0,"roads":0,"buildings":0,"edits":0,"latest":null},"geometry":{"type":"Point","coordinates":[30.81891173150636,-3.4042847246900707]}},{"type":"Feature","properties":{"title":"Tabora, Tabora, Tanzania Mini Grids Project 06","id":4613,"area":1436.2802264029842,"year":"2018","lastUpdated":"2018-07-02T12:07:55.077015","changesets":961,"mappers":61,"roads":0.120539467063506,"buildings":21833,"edits":21837,"latest":"2018-05-31T13:52:52.000Z"},"geometry":{"type":"Point","coordinates":[33.948245197465845,-5.104981749651359]}},{"type":"Feature","properties":{"title":"Tabora, Tabora, Tanzania Mini Grids Project 02","id":4584,"area":2042.6757607922066,"year":"2018","lastUpdated":"2018-06-20T13:56:00.211684","changesets":1616,"mappers":62,"roads":4.94742136269652,"buildings":36681,"edits":37463,"latest":"2018-06-14T10:00:02.000Z"},"geometry":{"type":"Point","coordinates":[33.55636968293966,-4.778208007358041]}},{"type":"Feature","properties":{"title":"Ivugula Village, Tanzania Mini Grids Project 01","id":4435,"area":12.603608518468686,"year":"2018","lastUpdated":"2018-04-19T11:25:13.979143","changesets":270,"mappers":44,"roads":23.4950636574225,"buildings":1686,"edits":2161,"latest":"2018-06-13T18:16:09.000Z"},"geometry":{"type":"Point","coordinates":[33.072913842202496,-8.994998857575]}},{"type":"Feature","properties":{"title":"Chemba and Bahi Districts, Tanzania Mini Grids Project 02","id":4653,"area":1921.3143960736681,"year":"2018","lastUpdated":"2018-06-06T08:56:05.854973","changesets":1303,"mappers":60,"roads":0.436199179573519,"buildings":33413,"edits":33434,"latest":"2018-06-07T11:55:30.000Z"},"geometry":{"type":"Point","coordinates":[35.47357948199084,-6.541668254164324]}},{"type":"Feature","properties":{"title":"Manyoni, Singida, Tanzania Mini Grids Project 02","id":4532,"area":1743.3360624738941,"year":"2018","lastUpdated":"2018-05-21T06:12:05.383529","changesets":885,"mappers":62,"roads":0.198161772673363,"buildings":17096,"edits":17116,"latest":"2018-05-21T06:05:53.000Z"},"geometry":{"type":"Point","coordinates":[34.272985485616104,-5.75358385726637]}},{"type":"Feature","properties":{"title":"Lindi, Lindi, Tanzania Mini Grids Project 02","id":4488,"area":1271.4706951916876,"year":"2018","lastUpdated":"2018-06-29T06:38:21.906483","changesets":573,"mappers":60,"roads":0.509649478878156,"buildings":9921,"edits":9949,"latest":"2018-05-10T13:59:37.000Z"},"geometry":{"type":"Point","coordinates":[39.32480989462478,-9.704243210868535]}},{"type":"Feature","properties":{"title":"Central Singida, Singida, Tanzania Mini Grids Project 00 North","id":4508,"area":2138.0235797080213,"year":"2018","lastUpdated":"2018-06-29T06:38:01.506131","changesets":2083,"mappers":64,"roads":1.80693813624998,"buildings":83421,"edits":83643,"latest":"2018-05-15T14:47:17.000Z"},"geometry":{"type":"Point","coordinates":[34.85630752643853,-4.7195257307215375]}},{"type":"Feature","properties":{"title":"Priority Villages, Lindi Region, Tanzania Mini Grids Project","id":4802,"area":616.0229189680824,"year":"2018","lastUpdated":"2018-07-02T20:42:12.174538","changesets":0,"mappers":0,"roads":0,"buildings":0,"edits":0,"latest":null},"geometry":{"type":"Point","coordinates":[38.35241233283509,-10.284012504908642]}},{"type":"Feature","properties":{"title":"Kipili Ward, Rukwa, Tanzania Mini Grids Project 01","id":4401,"area":180.26824654575853,"year":"2018","lastUpdated":"2018-05-08T10:13:30.293395","changesets":455,"mappers":51,"roads":0.000599220796289046,"buildings":9512,"edits":9513,"latest":"2018-05-08T10:13:16.000Z"},"geometry":{"type":"Point","coordinates":[30.596896102411772,-7.461640143485554]}},{"type":"Feature","properties":{"title":"Tunduru, Ruvuma, Tanzania Mini Grids Project 02","id":4424,"area":1549.6766515243964,"year":"2018","lastUpdated":"2018-05-04T08:55:20.079197","changesets":855,"mappers":63,"roads":0.0711115935309787,"buildings":21117,"edits":21136,"latest":"2018-05-07T07:56:42.000Z"},"geometry":{"type":"Point","coordinates":[37.44642487877472,-11.304728564657015]}},{"type":"Feature","properties":{"title":"Tabora, Tabora, Tanzania Mini Grids Project 04","id":4611,"area":1431.5287309262178,"year":"2018","lastUpdated":"2018-06-21T06:43:17.878145","changesets":1289,"mappers":60,"roads":17.4569544106012,"buildings":23456,"edits":24034,"latest":"2018-05-31T10:10:18.000Z"},"geometry":{"type":"Point","coordinates":[32.9989006523097,-5.09063064812292]}},{"type":"Feature","properties":{"title":"Chemba and Bahi Districts, Tanzania Mini Grids Project 03","id":4654,"area":1954.525377556312,"year":"2018","lastUpdated":"2018-06-06T01:13:39.569207","changesets":1245,"mappers":41,"roads":0.106920348528221,"buildings":20636,"edits":20657,"latest":"2018-06-05T14:25:23.000Z"},"geometry":{"type":"Point","coordinates":[35.36975679869405,-5.440254667200012]}},{"type":"Feature","properties":{"title":"Manyoni, Singida, Tanzania Mini Grids Project 05","id":4555,"area":2172.2334385231957,"year":"2018","lastUpdated":"2018-05-24T13:47:51.718614","changesets":1476,"mappers":57,"roads":0.354646008845444,"buildings":32058,"edits":32104,"latest":"2018-05-24T13:46:32.000Z"},"geometry":{"type":"Point","coordinates":[34.89457414391987,-6.337178718154652]}},{"type":"Feature","properties":{"title":"Missing Maps: Dar es Salaam - Ramani Huria 2.0 - 39","id":3505,"area":96.83711970341507,"year":"2018","lastUpdated":"2018-03-04T23:01:32.143525","changesets":3897,"mappers":79,"roads":269.298159883004,"buildings":48923,"edits":63495,"latest":"2017-09-18T11:50:06.000Z"},"geometry":{"type":"Point","coordinates":[39.305843254526984,-6.840568905719535]}},{"type":"Feature","properties":{"title":"Kigoma_3","id":4084,"area":5.097450161720606,"year":"2018","lastUpdated":"2018-02-01T07:42:27.258246","changesets":288,"mappers":6,"roads":2.31764270978854,"buildings":6302,"edits":6359,"latest":"2018-02-08T07:46:42.000Z"},"geometry":{"type":"Point","coordinates":[30.406732561710204,-6.745298521099169]}},{"type":"Feature","properties":{"title":"Kigoma_13","id":4099,"area":2.897626588524291,"year":"2018","lastUpdated":"2018-02-12T06:41:14.209893","changesets":98,"mappers":5,"roads":0.000234970678110244,"buildings":1712,"edits":1719,"latest":"2018-02-12T06:40:16.000Z"},"geometry":{"type":"Point","coordinates":[29.658303477039862,-4.485456020104669]}},{"type":"Feature","properties":{"title":"Muheza malaria","id":4039,"area":580.7567384439337,"year":"2018","lastUpdated":"2018-06-01T20:37:30.159547","changesets":423,"mappers":18,"roads":9.04284919882175,"buildings":24405,"edits":24586,"latest":"2018-06-03T11:25:54.000Z"},"geometry":{"type":"Point","coordinates":[38.769019369140786,-5.149994286049941]}},{"type":"Feature","properties":{"title":"Tunduru, Ruvuma, Tanzania Mini Grids Project 04","id":4412,"area":1554.890184050325,"year":"2018","lastUpdated":"2018-05-25T06:52:25.748652","changesets":1325,"mappers":68,"roads":0.398203610661417,"buildings":26966,"edits":27033,"latest":"2018-04-30T08:47:26.000Z"},"geometry":{"type":"Point","coordinates":[37.58529301248964,-11.01510385295025]}},{"type":"Feature","properties":{"title":"Mbozi, Mbeya, Tanzania Mini Grids Project 06","id":4349,"area":1339.4689946738515,"year":"2018","lastUpdated":"2018-06-29T09:45:45.880967","changesets":847,"mappers":62,"roads":741.067165124288,"buildings":16598,"edits":17935,"latest":"2018-04-11T08:43:29.000Z"},"geometry":{"type":"Point","coordinates":[32.47751628437078,-8.583821597525402]}},{"type":"Feature","properties":{"title":"Missing Maps: Dar es Salaam - Ramani Huria 2.0 - 28","id":3425,"area":238.90307672725964,"year":"2018","lastUpdated":"2018-03-05T15:33:37.319997","changesets":3337,"mappers":175,"roads":1979.67874635539,"buildings":2573,"edits":35065,"latest":"2017-11-03T04:15:17.000Z"},"geometry":{"type":"Point","coordinates":[39.23760432535289,-6.936433155607072]}},{"type":"Feature","properties":{"title":"Missing Maps: Dar es Salaam - Ramani Huria 2.0 - 29","id":3426,"area":297.76980439882516,"year":"2018","lastUpdated":"2018-03-05T15:32:07.612903","changesets":627,"mappers":46,"roads":1351.44697865554,"buildings":91,"edits":10344,"latest":"2017-09-06T11:56:12.000Z"},"geometry":{"type":"Point","coordinates":[39.45915654892912,-6.919374059784676]}},{"type":"Feature","properties":{"title":"Missing Maps: Dar es Salaam - Ramani Huria 2.0 - 24","id":3410,"area":178.71077034656207,"year":"2018","lastUpdated":"2018-03-05T15:35:12.366029","changesets":1325,"mappers":49,"roads":0.0922744730575409,"buildings":7624,"edits":7650,"latest":"2017-08-16T00:47:29.000Z"},"geometry":{"type":"Point","coordinates":[39.49870437090148,-6.9536467580624555]}},{"type":"Feature","properties":{"title":"Missing Maps: Dar es Salaam - Ramani Huria 2.0 - 23","id":3395,"area":200.39044222285065,"year":"2018","lastUpdated":"2018-03-05T15:37:23.174798","changesets":11931,"mappers":207,"roads":6.40062292346281,"buildings":130739,"edits":132569,"latest":"2017-12-05T17:05:23.000Z"},"geometry":{"type":"Point","coordinates":[39.17679213744439,-6.900453055307525]}},{"type":"Feature","properties":{"title":"Zanzibar Roads - Unguja Island - 03","id":3670,"area":891.0473088683418,"year":"2017","lastUpdated":"2017-10-05T10:03:33.314686","changesets":401,"mappers":16,"roads":2063.39671273138,"buildings":70,"edits":11338,"latest":"2018-04-05T16:35:12.000Z"},"geometry":{"type":"Point","coordinates":[39.43088050601065,-6.258244508731397]}},{"type":"Feature","properties":{"title":"Ikuna Ward Mapping Project","id":3203,"area":224.51296025612464,"year":"2018","lastUpdated":"2018-03-05T15:47:24.873442","changesets":335,"mappers":7,"roads":742.813559438956,"buildings":4401,"edits":9943,"latest":"2017-10-31T12:28:59.000Z"},"geometry":{"type":"Point","coordinates":[34.9328327178955,-9.190730246414187]}},{"type":"Feature","properties":{"title":"Missing Maps: Dar es Salaam - Ramani Huria 2.0 - 31","id":3452,"area":122.32342510735991,"year":"2018","lastUpdated":"2018-03-05T15:31:01.812805","changesets":2509,"mappers":42,"roads":423.609994409643,"buildings":6830,"edits":24947,"latest":"2017-11-07T07:20:37.000Z"},"geometry":{"type":"Point","coordinates":[39.138780106334046,-6.615628277176966]}},{"type":"Feature","properties":{"title":"Missing Maps: Mbeya - Data Zetu","id":3697,"area":39.48024643275634,"year":"2018","lastUpdated":"2018-03-05T06:16:20.685049","changesets":2340,"mappers":21,"roads":8.22290546014696,"buildings":79467,"edits":79938,"latest":"2018-03-05T10:02:12.000Z"},"geometry":{"type":"Point","coordinates":[33.45143106176986,-8.924156507539553]}},{"type":"Feature","properties":{"title":"Chemba and Bahi Districts, Tanzania Mini Grids Project 05","id":4656,"area":1943.7393401406555,"year":"2018","lastUpdated":"2018-06-14T09:06:01.145611","changesets":2139,"mappers":66,"roads":1.37724754241375,"buildings":26302,"edits":26408,"latest":"2018-06-14T08:37:58.000Z"},"geometry":{"type":"Point","coordinates":[35.24210727602255,-5.287224282992947]}}],"Botswana":[{"type":"Feature","properties":{"title":"Botswana, Motopi Village - National Malaria Programme","id":4338,"area":13.131378829193364,"year":"2018","lastUpdated":"2018-05-04T15:39:57.857560","changesets":167,"mappers":32,"roads":94.5419408108963,"buildings":964,"edits":1503,"latest":"2018-05-03T22:32:17.000Z"},"geometry":{"type":"Point","coordinates":[24.115712164009352,-20.23742594346273]}},{"type":"Feature","properties":{"title":"Peace Corps Botswana - Mochudi","id":1515,"area":55.63006078479333,"year":"2018","lastUpdated":"2018-01-18T21:04:31.595591","changesets":1002,"mappers":74,"roads":254.358048449744,"buildings":23626,"edits":33566,"latest":"2018-02-06T20:54:55.000Z"},"geometry":{"type":"Point","coordinates":[26.151640113893446,-24.385703587704437]}},{"type":"Feature","properties":{"title":"Peace Corps Botswana - Molepolole IV","id":1036,"area":12.72823325148611,"year":"2017","lastUpdated":"2017-02-24T08:55:52.960292","changesets":255,"mappers":26,"roads":55.8420030486039,"buildings":3952,"edits":5662,"latest":"2017-02-24T08:28:49.000Z"},"geometry":{"type":"Point","coordinates":[25.53034732216284,-24.415434665052377]}},{"type":"Feature","properties":{"title":"Peace Corps Botswana - Thamaga IV","id":952,"area":6.236986219341584,"year":"2015","lastUpdated":"2015-07-18T11:59:35.959036","changesets":21,"mappers":2,"roads":16.2447485867183,"buildings":554,"edits":788,"latest":"2015-07-18T11:59:51.000Z"},"geometry":{"type":"Point","coordinates":[25.527516603469852,-24.65753319071028]}},{"type":"Feature","properties":{"title":"Peace Corps Botswana - Shoshong IV","id":900,"area":3.0283048636333554,"year":"2017","lastUpdated":"2017-02-24T08:54:12.382861","changesets":64,"mappers":9,"roads":12.1378722661009,"buildings":573,"edits":745,"latest":"2017-02-24T08:52:26.000Z"},"geometry":{"type":"Point","coordinates":[26.508237361907952,-23.04180928311922]}},{"type":"Feature","properties":{"title":"Peace Corps Botswana -- Khudumelapye","id":2170,"area":4.587489905004571,"year":"2017","lastUpdated":"2017-02-23T10:13:45.453135","changesets":157,"mappers":36,"roads":112.430337520258,"buildings":1467,"edits":3993,"latest":"2017-02-23T10:13:16.000Z"},"geometry":{"type":"Point","coordinates":[24.952602019676796,-23.912261238462175]}},{"type":"Feature","properties":{"title":"Botswana, Gumare Village - National Malaria Programme","id":4339,"area":62.94267106863238,"year":"2018","lastUpdated":"2018-05-04T19:40:12.331089","changesets":408,"mappers":51,"roads":114.364259908699,"buildings":2711,"edits":3636,"latest":"2018-04-18T10:29:18.000Z"},"geometry":{"type":"Point","coordinates":[22.18267293596798,-19.359871131002357]}},{"type":"Feature","properties":{"title":"Peace Corps Botswana - Molepolole I","id":1022,"area":8.587554796204715,"year":"2015","lastUpdated":"2015-10-08T16:25:32.038745","changesets":748,"mappers":26,"roads":25.5928898708746,"buildings":2488,"edits":3244,"latest":"2015-09-12T21:01:44.000Z"},"geometry":{"type":"Point","coordinates":[25.584703683853153,-24.40124723053909]}},{"type":"Feature","properties":{"title":"Peace Corps -- Botswana","id":2152,"area":399.9650587062993,"year":"2018","lastUpdated":"2018-05-03T19:36:53.527994","changesets":3449,"mappers":362,"roads":3636.47181024405,"buildings":84120,"edits":111196,"latest":"2018-05-03T19:49:38.000Z"},"geometry":{"type":"Point","coordinates":[25.235665722897178,-23.056316073781915]}},{"type":"Feature","properties":{"title":"Peace Corps Botswana -- Sefhophe","id":1810,"area":8.936452630346272,"year":"2017","lastUpdated":"2017-07-12T18:27:37.144978","changesets":200,"mappers":17,"roads":118.532249805034,"buildings":2864,"edits":4794,"latest":"2017-07-12T18:27:38.000Z"},"geometry":{"type":"Point","coordinates":[27.962195927446544,-22.19457251180358]}},{"type":"Feature","properties":{"title":"Peace Corps Botswana -- Kang","id":1803,"area":28.34379858272266,"year":"2018","lastUpdated":"2018-03-13T19:53:56.822503","changesets":227,"mappers":17,"roads":197.59128660123,"buildings":4564,"edits":7204,"latest":"2018-03-13T19:53:20.000Z"},"geometry":{"type":"Point","coordinates":[22.79578481401715,-23.67143286902051]}},{"type":"Feature","properties":{"title":"Peace Corps Botswana - Thamaga V","id":953,"area":3.0178235475173096,"year":"2015","lastUpdated":"2015-05-21T11:47:26.245023","changesets":5,"mappers":2,"roads":0,"buildings":33,"edits":33,"latest":"2015-04-22T18:48:51.000Z"},"geometry":{"type":"Point","coordinates":[25.538025498390205,-24.684724591707454]}},{"type":"Feature","properties":{"title":"Peace Corps Botswana - Molepolole V","id":1037,"area":16.31817162737985,"year":"2017","lastUpdated":"2017-02-24T11:24:55.506120","changesets":1051,"mappers":90,"roads":230.955311071122,"buildings":8536,"edits":11426,"latest":"2017-02-24T11:38:02.000Z"},"geometry":{"type":"Point","coordinates":[25.475939512252808,-24.40643361725961]}},{"type":"Feature","properties":{"title":"Peace Corps Botswana - Serowe","id":1538,"area":103.03380657395984,"year":"2018","lastUpdated":"2018-04-26T00:56:57.976035","changesets":1122,"mappers":127,"roads":507.440389502026,"buildings":18420,"edits":23077,"latest":"2018-06-10T10:05:33.000Z"},"geometry":{"type":"Point","coordinates":[26.706292288643972,-22.38411146463497]}},{"type":"Feature","properties":{"title":"Peace Corps Botswana- Rakops","id":824,"area":13.302450582189476,"year":"2017","lastUpdated":"2017-09-08T18:05:09.130135","changesets":189,"mappers":11,"roads":183.979487286314,"buildings":3243,"edits":5850,"latest":"2017-09-08T18:04:25.000Z"},"geometry":{"type":"Point","coordinates":[24.399808645248413,-21.035069114679253]}},{"type":"Feature","properties":{"title":"Botswana, Chobe District - National Malaria Programme","id":4317,"area":2422.6655366125387,"year":"2018","lastUpdated":"2018-05-04T19:38:57.981887","changesets":1401,"mappers":158,"roads":1981.40636245231,"buildings":5944,"edits":11864,"latest":"2018-04-22T20:13:03.000Z"},"geometry":{"type":"Point","coordinates":[25.171173150295072,-18.0834268952089]}}],"Greenland":[{"type":"Feature","properties":{"title":"Message All Contributors Test Project Only","id":4312,"area":17333.865494475114,"year":"2018","lastUpdated":"2018-04-27T14:36:14.156965","changesets":1,"mappers":1,"roads":0,"buildings":0,"edits":0,"latest":"2018-04-27T14:37:56.000Z"},"geometry":{"type":"Point","coordinates":[-49.779848766955,79.09307376191651]}}],"Nepal":[{"type":"Feature","properties":{"title":"Missing Maps - Prevent children trafficking (Part 2)","id":4285,"area":314.83322760781954,"year":"2018","lastUpdated":"2018-06-29T12:13:55.373350","changesets":60,"mappers":19,"roads":63.6446533960621,"buildings":855,"edits":1080,"latest":"2018-06-11T09:05:21.000Z"},"geometry":{"type":"Point","coordinates":[81.87636773135003,29.59283899387187]}},{"type":"Feature","properties":{"title":"Mapping Flood Affected Community in Nepal (Jhapa District, Bank of KankaiMai River)","id":3406,"area":1610.1168785147927,"year":"2018","lastUpdated":"2018-07-03T15:11:12.381879","changesets":0,"mappers":0,"roads":0,"buildings":0,"edits":0,"latest":null},"geometry":{"type":"Point","coordinates":[87.97951066038503,26.57537728133027]}},{"type":"Feature","properties":{"title":"Nepal Earthquake Mapping - Langtang Rasuwa  ( Highly Effected Area ) ","id":1016,"area":503.7484641624975,"year":"2017","lastUpdated":"2017-06-21T16:11:58.939976","changesets":109,"mappers":50,"roads":22.8163040777894,"buildings":379,"edits":523,"latest":"2017-02-08T12:45:49.000Z"},"geometry":{"type":"Point","coordinates":[85.64112767224067,28.24863695081381]}},{"type":"Feature","properties":{"title":"Mapping Flooding Areas in Koshi Basin","id":337,"area":76.55912060172346,"year":"2017","lastUpdated":"2017-08-15T21:22:26.833349","changesets":179,"mappers":20,"roads":54.9738023166765,"buildings":2652,"edits":3490,"latest":"2017-08-06T15:58:24.000Z"},"geometry":{"type":"Point","coordinates":[86.93582073789841,26.545448624347145]}},{"type":"Feature","properties":{"title":"Kathmandu - GWU Mapping Exercise (Area 1)","id":327,"area":52.65568249665954,"year":"2016","lastUpdated":"2016-11-11T17:14:07.552782","changesets":55,"mappers":7,"roads":3.43224416941323,"buildings":990,"edits":1197,"latest":"2018-06-08T11:32:49.000Z"},"geometry":{"type":"Point","coordinates":[85.28682745699977,27.69516375230199]}},{"type":"Feature","properties":{"title":" Nepal Earthquake, 2015, ( Additional affected districts )","id":1090,"area":2561.440040938251,"year":"2018","lastUpdated":"2018-06-28T17:30:05.717299","changesets":7429,"mappers":747,"roads":4554.02840273072,"buildings":86042,"edits":135420,"latest":"2018-01-24T22:42:05.000Z"},"geometry":{"type":"Point","coordinates":[86.26567083114226,27.177909185060102]}},{"type":"Feature","properties":{"title":"Missing Maps: Nepal, buildings in Saptari district river basins","id":3605,"area":796.7951429797232,"year":"2018","lastUpdated":"2018-06-15T16:44:58.233263","changesets":2509,"mappers":166,"roads":157.254395740668,"buildings":40311,"edits":42241,"latest":"2018-06-15T16:42:35.000Z"},"geometry":{"type":"Point","coordinates":[86.70663241296718,26.589889979674556]}},{"type":"Feature","properties":{"title":"Mapping Flood Affected Community in Nepal (Morang District, Biratnagar)","id":3473,"area":1830.0915357323506,"year":"2018","lastUpdated":"2018-07-04T22:04:17.125947","changesets":0,"mappers":0,"roads":0,"buildings":0,"edits":0,"latest":null},"geometry":{"type":"Point","coordinates":[87.41436987053658,26.652046649252412]}},{"type":"Feature","properties":{"title":"Mapping Flood Affected Community in Nepal (Bank of East Rapti River)","id":3405,"area":814.4121243749338,"year":"2018","lastUpdated":"2018-07-04T15:47:55.460324","changesets":0,"mappers":0,"roads":0,"buildings":0,"edits":0,"latest":null},"geometry":{"type":"Point","coordinates":[84.77587980382584,27.517333661235245]}},{"type":"Feature","properties":{"title":"Kolti Mapping - Bajura (Kathmandu Living Labs)","id":3330,"area":147.69194823039064,"year":"2018","lastUpdated":"2018-04-24T02:46:56.466110","changesets":321,"mappers":52,"roads":133.321037552097,"buildings":3075,"edits":3709,"latest":"2018-04-24T02:43:44.000Z"},"geometry":{"type":"Point","coordinates":[81.60544529322915,29.57203413802083]}},{"type":"Feature","properties":{"title":"Kathmandu urban area (inside the Ring Road), Nepal - OSM data patrol and validation","id":3047,"area":43.016884533416324,"year":"2018","lastUpdated":"2018-07-01T11:09:43.398487","changesets":1451,"mappers":25,"roads":12.9063854477437,"buildings":24308,"edits":31900,"latest":"2018-06-15T14:40:59.000Z"},"geometry":{"type":"Point","coordinates":[85.32579613228638,27.701711697854677]}},{"type":"Feature","properties":{"title":" Nepal Earthquake, 2015, IDP camps in Banepa area","id":1010,"area":338.41199215971403,"year":"2016","lastUpdated":"2016-03-10T11:24:27.552357","changesets":96,"mappers":36,"roads":35.0002570613446,"buildings":881,"edits":1641,"latest":"2015-12-11T04:27:16.000Z"},"geometry":{"type":"Point","coordinates":[85.47511009489847,27.6793909390766]}},{"type":"Feature","properties":{"title":"Open Data Day Nepal 2017 - Rajapur Mapping","id":2614,"area":240.9449448084045,"year":"2018","lastUpdated":"2018-04-25T01:46:45.905920","changesets":96757,"mappers":3621,"roads":29392.4094332058,"buildings":1709775,"edits":2140791,"latest":"2018-06-17T11:13:31.000Z"},"geometry":{"type":"Point","coordinates":[81.15835880373676,28.43001877737917]}},{"type":"Feature","properties":{"title":"Hetauda Participatory GIS Assistance (Red Cross)","id":643,"area":5.910148296984261,"year":"2016","lastUpdated":"2016-06-03T11:34:18.651206","changesets":72,"mappers":15,"roads":138.591096955554,"buildings":2540,"edits":3779,"latest":"2014-09-27T16:52:28.000Z"},"geometry":{"type":"Point","coordinates":[85.03547549247742,27.405812557082058]}},{"type":"Feature","properties":{"title":"Kathmandu - GWU Mapping Exercise (Area 2)","id":328,"area":14.41967063680349,"year":"2016","lastUpdated":"2016-11-08T18:08:48.228082","changesets":0,"mappers":0,"roads":0,"buildings":0,"edits":0,"latest":null},"geometry":{"type":"Point","coordinates":[85.35882948640639,27.77109059305283]}},{"type":"Feature","properties":{"title":"Kathmandu University Mapping","id":452,"area":49.876618909115656,"year":"2017","lastUpdated":"2017-08-14T04:44:01.324186","changesets":0,"mappers":0,"roads":0,"buildings":0,"edits":0,"latest":null},"geometry":{"type":"Point","coordinates":[85.53715752260757,27.600252829001303]}},{"type":"Feature","properties":{"title":"OSM Patrol in Kathmandu","id":451,"area":39.123235135575364,"year":"2015","lastUpdated":"2015-05-19T01:37:16.471886","changesets":6,"mappers":2,"roads":0.590492741863659,"buildings":257,"edits":337,"latest":"2017-09-26T03:44:38.000Z"},"geometry":{"type":"Point","coordinates":[85.32945505855874,27.700963340015523]}},{"type":"Feature","properties":{"title":"Nepal Earthquake Mapping - Dhunche Rasuwa  ( Highly Effected Area ) ","id":1015,"area":70.19968393404724,"year":"2017","lastUpdated":"2017-04-05T13:14:47.016282","changesets":154,"mappers":40,"roads":16.4630165268003,"buildings":310,"edits":447,"latest":"2015-04-29T08:04:30.000Z"},"geometry":{"type":"Point","coordinates":[85.34239549990058,28.07104877189357]}},{"type":"Feature","properties":{"title":"Baglung Mapping - 2C Pokhara, GIS Day 2016 Mapathon","id":2324,"area":1840.3258148722687,"year":"2017","lastUpdated":"2017-10-16T10:53:36.378520","changesets":96757,"mappers":3621,"roads":29392.4094332058,"buildings":1709775,"edits":2140791,"latest":"2018-06-17T11:13:31.000Z"},"geometry":{"type":"Point","coordinates":[83.21388465782275,28.41800462490221]}},{"type":"Feature","properties":{"title":"Tanahu Mapping","id":2009,"area":1577.9339889134376,"year":"2017","lastUpdated":"2017-04-02T23:31:16.919181","changesets":0,"mappers":0,"roads":0,"buildings":0,"edits":0,"latest":null},"geometry":{"type":"Point","coordinates":[84.18261352582412,27.950608816405012]}}],"Madagascar":[{"type":"Feature","properties":{"title":"Validation Vatomandry (interne  Cartong)","id":4252,"area":2360.8743603630046,"year":"2018","lastUpdated":"2018-03-23T21:43:03.823010","changesets":220,"mappers":10,"roads":480.898775469685,"buildings":10669,"edits":13168,"latest":"2018-03-29T08:02:23.000Z"},"geometry":{"type":"Point","coordinates":[48.78345293722483,-19.2968725491406]}},{"type":"Feature","properties":{"title":"Missing Maps - Brickaville District, Madagascar - DRR","id":4388,"area":1403.468159685014,"year":"2018","lastUpdated":"2018-07-03T07:59:52.904915","changesets":944,"mappers":135,"roads":311.71452353378,"buildings":6778,"edits":7984,"latest":"2018-06-16T19:12:11.000Z"},"geometry":{"type":"Point","coordinates":[48.89845793087591,-18.98028857620782]}},{"type":"Feature","properties":{"title":"Peace Corps Madagascar - Maintinandry","id":1324,"area":10.280263308628735,"year":"2016","lastUpdated":"2016-01-26T17:35:10.542865","changesets":65,"mappers":17,"roads":26.247092548403,"buildings":375,"edits":618,"latest":"2016-04-14T11:38:31.000Z"},"geometry":{"type":"Point","coordinates":[48.92682695388793,-19.431098645010216]}},{"type":"Feature","properties":{"title":"Healthcare access - Ifanadiana, Madagascar - 03","id":4410,"area":1365.5299485396085,"year":"2018","lastUpdated":"2018-06-18T20:07:47.033964","changesets":69,"mappers":6,"roads":53.8047617548079,"buildings":386,"edits":594,"latest":"2018-06-11T23:47:00.000Z"},"geometry":{"type":"Point","coordinates":[47.50516524581082,-21.415631085139797]}},{"type":"Feature","properties":{"title":"Missing Maps - Ambodivoahangy, Madagascar - Rduction des risques de catastrophe","id":4618,"area":68.1270317934378,"year":"2018","lastUpdated":"2018-07-04T11:00:40.046704","changesets":250,"mappers":22,"roads":145.325676109176,"buildings":1532,"edits":2349,"latest":"2018-06-09T22:49:48.000Z"},"geometry":{"type":"Point","coordinates":[47.651374105588104,-20.6565571773044]}},{"type":"Feature","properties":{"title":"Economic Development - Ambanja (Digo Suarez), Madagascar","id":4438,"area":13.028330472911957,"year":"2018","lastUpdated":"2018-06-18T19:05:21.015027","changesets":497,"mappers":46,"roads":12.9803313749669,"buildings":7712,"edits":8066,"latest":"2018-06-15T10:10:59.000Z"},"geometry":{"type":"Point","coordinates":[48.454378025991886,-13.66858341612467]}},{"type":"Feature","properties":{"title":"Healthcare access - Ifanadiana, Madagascar - 01","id":4408,"area":1545.733438263082,"year":"2018","lastUpdated":"2018-07-04T20:12:04.400378","changesets":2311,"mappers":219,"roads":3857.24002519254,"buildings":9604,"edits":20888,"latest":"2018-06-15T13:22:13.000Z"},"geometry":{"type":"Point","coordinates":[47.7493711551909,-20.91518481436984]}},{"type":"Feature","properties":{"title":"Ville de Soavinandriana, Madagascar, Diagnostic WASH, tape 3 = Hydrologie","id":3863,"area":139.904759250857,"year":"2018","lastUpdated":"2018-01-19T22:36:42.317341","changesets":10,"mappers":7,"roads":3.90461303148553,"buildings":112,"edits":226,"latest":"2017-11-26T09:59:37.000Z"},"geometry":{"type":"Point","coordinates":[46.73147846245848,-19.152404337541533]}},{"type":"Feature","properties":{"title":"Getting prepared to natural hazards by mapping evacuation routes in Madagascar rural areas (Menabe)","id":3571,"area":49.545216321632424,"year":"2018","lastUpdated":"2018-03-12T10:42:04.379181","changesets":539,"mappers":61,"roads":352.155038130635,"buildings":5949,"edits":8329,"latest":"2018-04-12T06:57:33.000Z"},"geometry":{"type":"Point","coordinates":[44.505091823818184,-20.229634748519775]}},{"type":"Feature","properties":{"title":"Peace Corps Madagascar - Beronono","id":1321,"area":81.54382424209479,"year":"2018","lastUpdated":"2018-04-23T03:03:59.535986","changesets":277,"mappers":30,"roads":80.7362147596282,"buildings":4079,"edits":4730,"latest":"2018-04-23T03:04:12.000Z"},"geometry":{"type":"Point","coordinates":[47.88203295539407,-22.256253765540045]}},{"type":"Feature","properties":{"title":"Peace Corps Madagascar - Mananara Avaratra","id":1325,"area":47.74801177617476,"year":"2016","lastUpdated":"2016-04-29T09:12:46.499550","changesets":509,"mappers":41,"roads":117.886973633989,"buildings":8531,"edits":9994,"latest":"2016-01-27T15:01:24.000Z"},"geometry":{"type":"Point","coordinates":[49.77281233843635,-16.1747848335589]}},{"type":"Feature","properties":{"title":"Peace Corps Madagascar - Fianarantsoa","id":1347,"area":86.73611210554974,"year":"2018","lastUpdated":"2018-04-20T01:07:40.193796","changesets":1734,"mappers":90,"roads":161.15296449187,"buildings":24144,"edits":27126,"latest":"2018-04-20T01:07:23.000Z"},"geometry":{"type":"Point","coordinates":[47.07387542724607,-21.44307016012036]}},{"type":"Feature","properties":{"title":"Peace Corps Madagascar - Andranofasika","id":1320,"area":103.31981960146135,"year":"2018","lastUpdated":"2018-04-24T01:00:08.125477","changesets":320,"mappers":26,"roads":202.927764428283,"buildings":3277,"edits":5526,"latest":"2018-04-24T00:59:40.000Z"},"geometry":{"type":"Point","coordinates":[46.85537624359131,-16.33984655234676]}},{"type":"Feature","properties":{"title":"Peace Corps Madagascar - Tsarasambo","id":1383,"area":97.77283488322261,"year":"2018","lastUpdated":"2018-04-17T01:29:27.957736","changesets":226,"mappers":21,"roads":87.4547722664873,"buildings":5368,"edits":6298,"latest":"2018-04-17T01:28:07.000Z"},"geometry":{"type":"Point","coordinates":[48.884271025657654,-19.43973726729207]}},{"type":"Feature","properties":{"title":"Peace Corps Madagascar -- Sava Region","id":2030,"area":433.6114765014878,"year":"2018","lastUpdated":"2018-04-25T03:52:12.166512","changesets":955,"mappers":90,"roads":128.353426807432,"buildings":10120,"edits":11215,"latest":"2018-05-04T01:10:44.000Z"},"geometry":{"type":"Point","coordinates":[49.811859130859375,-14.238786070993747]}},{"type":"Feature","properties":{"title":"Missing Maps Madagascar - Diana region, Andranovondronina commune - Road network (Step 3)","id":2334,"area":496.9408841444561,"year":"2017","lastUpdated":"2017-09-18T19:18:53.872207","changesets":65,"mappers":18,"roads":67.6376486370036,"buildings":248,"edits":564,"latest":"2017-09-18T19:16:12.000Z"},"geometry":{"type":"Point","coordinates":[49.23578959425234,-12.1067224301916]}}],"Ghana":[{"type":"Feature","properties":{"title":"Cape Coast, Ghana - Yemaapi Ghana - Amenities","id":4238,"area":15.035284309269873,"year":"2018","lastUpdated":"2018-03-17T13:28:36.949132","changesets":22,"mappers":11,"roads":141.350783432443,"buildings":16,"edits":38,"latest":"2018-04-16T18:14:27.000Z"},"geometry":{"type":"Point","coordinates":[-1.2768227471427498,5.117525038125339]}},{"type":"Feature","properties":{"title":"Tarkwa, Ghana - Yemaapi Ghana - Amenities","id":4249,"area":28.659723787299637,"year":"2018","lastUpdated":"2018-03-02T04:25:17.686752","changesets":5,"mappers":2,"roads":0,"buildings":54,"edits":54,"latest":"2018-06-07T16:19:32.000Z"},"geometry":{"type":"Point","coordinates":[-1.9910479955371894,5.294347901167613]}},{"type":"Feature","properties":{"title":"Kumasi, Ghana - Yemaapi Ghana - Amenities","id":4248,"area":43.03637157395998,"year":"2018","lastUpdated":"2018-03-02T04:26:31.637441","changesets":1,"mappers":1,"roads":0.00536883682056749,"buildings":0,"edits":3,"latest":"2018-03-12T07:15:35.000Z"},"geometry":{"type":"Point","coordinates":[-1.595349232125805,6.686407857464747]}},{"type":"Feature","properties":{"title":"Missing Maps:  Ghana, Volta River, Kpong Dam Area 1","id":3840,"area":105.40279453196466,"year":"2018","lastUpdated":"2018-05-13T01:37:38.653649","changesets":0,"mappers":0,"roads":0,"buildings":0,"edits":0,"latest":null},"geometry":{"type":"Point","coordinates":[0.1898750841541567,6.1118474489259595]}},{"type":"Feature","properties":{"title":"OpenStreetMap-Workshop-2015 #AccraFloods","id":1100,"area":0.41042591015655777,"year":"2017","lastUpdated":"2017-07-08T21:54:55.572942","changesets":487,"mappers":52,"roads":506.826280483439,"buildings":1957,"edits":4419,"latest":"2018-03-08T02:10:29.000Z"},"geometry":{"type":"Point","coordinates":[-0.21522581577301003,5.568234795153613]}},{"type":"Feature","properties":{"title":"Colleges of Education  (Ghana) - learn about relations and how to validate them","id":3296,"area":270.8033752270311,"year":"2018","lastUpdated":"2018-01-24T19:23:18.869564","changesets":212,"mappers":19,"roads":82.1060465896964,"buildings":2818,"edits":4591,"latest":"2018-01-24T19:39:28.000Z"},"geometry":{"type":"Point","coordinates":[-0.9084750055668072,7.18968153921742]}}],"Philippines":[{"type":"Feature","properties":{"title":"Soccsksargen, PH - Missing Roads","id":4227,"area":3.1029043042642748,"year":"2018","lastUpdated":"2018-03-13T03:34:04.475986","changesets":16941512,"mappers":778190,"roads":11029202.6294279,"buildings":272493430,"edits":351602460,"latest":"2018-06-17T11:30:54.000Z"},"geometry":{"type":"Point","coordinates":[124.99650831963473,6.287009318987416]}},{"type":"Feature","properties":{"title":"Central Luzon, PH - Missing Roads","id":4221,"area":7.136402147325932,"year":"2018","lastUpdated":"2018-02-26T08:37:41.735560","changesets":16941512,"mappers":778190,"roads":11029202.6294279,"buildings":272493430,"edits":351602460,"latest":"2018-06-17T11:30:54.000Z"},"geometry":{"type":"Point","coordinates":[120.56681226874122,15.170671477112618]}},{"type":"Feature","properties":{"title":"UP-NOAH Mapping Campuses (UP Manila School of Health Sciences in Leyte) ","id":3472,"area":1.400988753814339,"year":"2018","lastUpdated":"2018-06-27T04:56:51.430180","changesets":0,"mappers":0,"roads":0,"buildings":0,"edits":0,"latest":null},"geometry":{"type":"Point","coordinates":[124.99088051332731,11.157825800825774]}},{"type":"Feature","properties":{"title":"UP-NOAH Mapping Campuses (UP Los Baos)","id":3457,"area":12.20182994686138,"year":"2017","lastUpdated":"2017-11-25T08:00:53.306934","changesets":0,"mappers":0,"roads":0,"buildings":0,"edits":0,"latest":null},"geometry":{"type":"Point","coordinates":[121.23180969901695,14.164937408864516]}},{"type":"Feature","properties":{"title":"UP-NOAH Mapping Campuses (UP Diliman)","id":3436,"area":4.428477183303132,"year":"2017","lastUpdated":"2017-11-25T02:29:08.008725","changesets":0,"mappers":0,"roads":0,"buildings":0,"edits":0,"latest":null},"geometry":{"type":"Point","coordinates":[121.06184657303031,14.651228369067912]}},{"type":"Feature","properties":{"title":"Missing Maps: Barangay Santiago, Alang Alang, Leyte, Philippines","id":3771,"area":0.8479729148703923,"year":"2018","lastUpdated":"2018-07-02T20:59:29.790626","changesets":14,"mappers":4,"roads":5.85505912721407,"buildings":335,"edits":456,"latest":"2017-11-04T23:35:40.000Z"},"geometry":{"type":"Point","coordinates":[124.80951261520379,11.198883343411826]}},{"type":"Feature","properties":{"title":"Danao, Bohol Island, Philippines OpenRoad project, Part IIII -- MapGive","id":1056,"area":187.61116003075477,"year":"2017","lastUpdated":"2017-10-29T00:50:25.079341","changesets":0,"mappers":0,"roads":0,"buildings":0,"edits":0,"latest":null},"geometry":{"type":"Point","coordinates":[124.20165233660025,9.943714169953921]}},{"type":"Feature","properties":{"title":"CRS-UP NOAH Building Footprints Mapping - Malabon City (Free for All)","id":4306,"area":0.8869727357098613,"year":"2018","lastUpdated":"2018-03-16T08:07:15.295915","changesets":11,"mappers":2,"roads":0,"buildings":86,"edits":86,"latest":"2018-03-18T13:04:12.000Z"},"geometry":{"type":"Point","coordinates":[120.96156142151258,14.659111625361861]}},{"type":"Feature","properties":{"title":"Ilocos, PH - Missing Roads","id":4218,"area":3.351577108453254,"year":"2018","lastUpdated":"2018-04-21T11:33:08.077367","changesets":16941512,"mappers":778190,"roads":11029202.6294279,"buildings":272493430,"edits":351602460,"latest":"2018-06-17T11:30:54.000Z"},"geometry":{"type":"Point","coordinates":[120.46469931330267,17.425280842293475]}},{"type":"Feature","properties":{"title":"Eastern Visayas, PH - Missing Roads","id":4225,"area":0.9011879212974336,"year":"2018","lastUpdated":"2018-03-11T12:29:20.589974","changesets":16941512,"mappers":778190,"roads":11029202.6294279,"buildings":272493430,"edits":351602460,"latest":"2018-06-17T11:30:54.000Z"},"geometry":{"type":"Point","coordinates":[124.82231154030616,11.386736510106921]}},{"type":"Feature","properties":{"title":"Cagayan Valley, PH - Missing Roads","id":4219,"area":2.940942559638417,"year":"2018","lastUpdated":"2018-02-28T22:13:59.163821","changesets":16941512,"mappers":778190,"roads":11029202.6294279,"buildings":272493430,"edits":351602460,"latest":"2018-06-17T11:30:54.000Z"},"geometry":{"type":"Point","coordinates":[121.68249184541031,17.195568942139595]}},{"type":"Feature","properties":{"title":"Bicol, PH - Missing Roads","id":4222,"area":1.7672697508978923,"year":"2018","lastUpdated":"2018-07-02T05:00:59.725115","changesets":16941512,"mappers":778190,"roads":11029202.6294279,"buildings":272493430,"edits":351602460,"latest":"2018-06-17T11:30:54.000Z"},"geometry":{"type":"Point","coordinates":[123.39593163594877,13.44488249297075]}},{"type":"Feature","properties":{"title":"CRS-UP NOAH Building Footprints Mapping - Malabon City","id":3907,"area":15.859280000650813,"year":"2018","lastUpdated":"2018-06-06T07:45:46.150299","changesets":18,"mappers":2,"roads":0.908475572641972,"buildings":67,"edits":74,"latest":"2018-06-06T08:03:26.000Z"},"geometry":{"type":"Point","coordinates":[120.9674154212251,14.667902897859918]}},{"type":"Feature","properties":{"title":"CRS-UP NOAH Building Footprints Mapping - Navotas City","id":4044,"area":10.600105663830165,"year":"2018","lastUpdated":"2018-03-08T02:29:27.821773","changesets":1,"mappers":1,"roads":0,"buildings":0,"edits":2,"latest":"2018-03-22T20:25:17.000Z"},"geometry":{"type":"Point","coordinates":[120.93501364287877,14.667356142422948]}},{"type":"Feature","properties":{"title":"Bulacan, PH - Missing Roads","id":4016,"area":6.0283202796513065,"year":"2018","lastUpdated":"2018-02-20T02:18:36.061862","changesets":16941512,"mappers":778190,"roads":11029202.6294279,"buildings":272493430,"edits":351602460,"latest":"2018-06-17T11:30:54.000Z"},"geometry":{"type":"Point","coordinates":[120.93522425231751,14.844564135152403]}},{"type":"Feature","properties":{"title":"Pampanga, PH - Missing Roads","id":4018,"area":7.393817777829668,"year":"2018","lastUpdated":"2018-02-20T02:18:16.216128","changesets":16941512,"mappers":778190,"roads":11029202.6294279,"buildings":272493430,"edits":351602460,"latest":"2018-06-17T11:30:54.000Z"},"geometry":{"type":"Point","coordinates":[120.60901479206947,15.12644299857575]}},{"type":"Feature","properties":{"title":"Pangasinan, PH - Missing Roads","id":4026,"area":1.1581224982077116,"year":"2018","lastUpdated":"2018-02-20T02:17:00.941318","changesets":16941512,"mappers":778190,"roads":11029202.6294279,"buildings":272493430,"edits":351602460,"latest":"2018-06-17T11:30:54.000Z"},"geometry":{"type":"Point","coordinates":[120.38341801763256,16.007853906949467]}},{"type":"Feature","properties":{"title":"Mayon Volcano USAID & USGS","id":4202,"area":23.191221545963582,"year":"2018","lastUpdated":"2018-06-28T08:11:52.717080","changesets":440,"mappers":92,"roads":30.0360065595488,"buildings":7728,"edits":8051,"latest":"2018-06-14T08:09:46.000Z"},"geometry":{"type":"Point","coordinates":[123.708816541763,13.271475957593504]}},{"type":"Feature","properties":{"title":"Barangay Talisay, Mayorga, Leyte - Missing Maps","id":3829,"area":2.270534722569991,"year":"2018","lastUpdated":"2018-01-25T15:59:08.065074","changesets":61,"mappers":13,"roads":3.70690145632449,"buildings":738,"edits":928,"latest":"2017-12-24T15:19:57.000Z"},"geometry":{"type":"Point","coordinates":[124.9775838851929,10.91758102492891]}},{"type":"Feature","properties":{"title":"Barangay Marasbaras, Tacloban, Leyte - Missing Maps","id":3300,"area":7.807989010258504,"year":"2018","lastUpdated":"2018-06-28T16:24:54.135765","changesets":122,"mappers":8,"roads":4.68267612392508,"buildings":3427,"edits":3757,"latest":"2018-06-11T23:19:11.000Z"},"geometry":{"type":"Point","coordinates":[125.01222282424382,11.203458223071134]}},{"type":"Feature","properties":{"title":"DOST-Project NOAH (ISAIAH) Structures Map Up Zambales","id":1966,"area":4983.089272993,"year":"2017","lastUpdated":"2017-06-29T07:11:51.796592","changesets":0,"mappers":0,"roads":0,"buildings":0,"edits":0,"latest":null},"geometry":{"type":"Point","coordinates":[120.14176535981657,15.274302892442977]}},{"type":"Feature","properties":{"title":"Northern Cebu Risk Mapping Project - Daanbantayan and Medellin","id":1509,"area":165.4687088247908,"year":"2018","lastUpdated":"2018-05-27T16:30:44.519125","changesets":0,"mappers":0,"roads":0,"buildings":0,"edits":0,"latest":null},"geometry":{"type":"Point","coordinates":[124.00373259912789,11.183437208381003]}},{"type":"Feature","properties":{"title":"Bohol Island, Philippines OpenRoad project, Part I -- MapGive","id":768,"area":457.54507236444925,"year":"2017","lastUpdated":"2017-12-23T20:17:30.223354","changesets":0,"mappers":0,"roads":0,"buildings":0,"edits":0,"latest":null},"geometry":{"type":"Point","coordinates":[124.34127807617182,9.80611072723312]}},{"type":"Feature","properties":{"title":"Mapping in Cavite, Philippines - SA activities","id":378,"area":347.85007544928436,"year":"2018","lastUpdated":"2018-01-31T02:41:47.484533","changesets":1184,"mappers":74,"roads":37.6705904876275,"buildings":9795,"edits":11838,"latest":"2018-05-17T21:48:06.000Z"},"geometry":{"type":"Point","coordinates":[120.95298071824062,14.44782100733958]}},{"type":"Feature","properties":{"title":"DOST-Project NOAH (ISAIAH) Structures Map Up La Union","id":1885,"area":2912.909394539788,"year":"2018","lastUpdated":"2018-04-16T21:25:19.930509","changesets":0,"mappers":0,"roads":0,"buildings":0,"edits":0,"latest":null},"geometry":{"type":"Point","coordinates":[120.45269986810342,16.621796748275862]}},{"type":"Feature","properties":{"title":"CRS-UP NOAH Building Footprints Mapping - Angono, Rizal","id":4476,"area":14.749809999799018,"year":"2018","lastUpdated":"2018-06-29T07:51:11.470720","changesets":2,"mappers":2,"roads":0,"buildings":28,"edits":28,"latest":"2018-06-08T03:16:27.000Z"},"geometry":{"type":"Point","coordinates":[121.16528400038572,14.535180941214387]}},{"type":"Feature","properties":{"title":"Bohol Island, Philippines OpenRoad project, Part III -- MapGive","id":1055,"area":167.18586226424708,"year":"2017","lastUpdated":"2017-09-25T18:13:41.155784","changesets":0,"mappers":0,"roads":0,"buildings":0,"edits":0,"latest":null},"geometry":{"type":"Point","coordinates":[124.06711940467797,9.665902699165224]}},{"type":"Feature","properties":{"title":"DOST-Project NOAH (ISAIAH) Structures Map Up Ilocos Sur","id":2008,"area":4406.481445663697,"year":"2017","lastUpdated":"2017-02-17T02:28:23.354580","changesets":0,"mappers":0,"roads":0,"buildings":0,"edits":0,"latest":null},"geometry":{"type":"Point","coordinates":[120.58246795429858,17.199380731674214]}},{"type":"Feature","properties":{"title":"UP-NOAH Mapping Campuses (UP Bonifacio Global City)","id":3437,"area":0.5192619410537112,"year":"2017","lastUpdated":"2017-11-25T07:36:04.585128","changesets":0,"mappers":0,"roads":0,"buildings":0,"edits":0,"latest":null},"geometry":{"type":"Point","coordinates":[121.06018819307005,14.55389432235206]}},{"type":"Feature","properties":{"title":"UP-NOAH Mapping Campuses (UP Cebu City)","id":3461,"area":3.674962024941641,"year":"2017","lastUpdated":"2017-11-25T07:56:15.435752","changesets":0,"mappers":0,"roads":0,"buildings":0,"edits":0,"latest":null},"geometry":{"type":"Point","coordinates":[123.89678955078128,10.319099143827456]}},{"type":"Feature","properties":{"title":"NOAH-UNICEF: Mapping Mapanas, Northern Samar","id":2724,"area":132.45656122565023,"year":"2017","lastUpdated":"2017-04-11T05:01:07.136767","changesets":36,"mappers":2,"roads":0.547703860688767,"buildings":1607,"edits":1629,"latest":"2017-04-11T03:23:10.000Z"},"geometry":{"type":"Point","coordinates":[125.26437313867976,12.485027118499048]}},{"type":"Feature","properties":{"title":"UP-NOAH Mapping Campuses (UP Mindanao)","id":3791,"area":3.6910639697608496,"year":"2017","lastUpdated":"2017-11-29T16:06:57.989146","changesets":0,"mappers":0,"roads":0,"buildings":0,"edits":0,"latest":null},"geometry":{"type":"Point","coordinates":[125.48628379471575,7.085765528020958]}},{"type":"Feature","properties":{"title":"Western Visayas, PH - Missing Roads","id":4224,"area":7.047203961449363,"year":"2018","lastUpdated":"2018-06-05T02:38:37.140065","changesets":16941512,"mappers":778190,"roads":11029202.6294279,"buildings":272493430,"edits":351602460,"latest":"2018-06-17T11:30:54.000Z"},"geometry":{"type":"Point","coordinates":[122.6953061950292,10.934054961778411]}},{"type":"Feature","properties":{"title":"Missing Maps: San Jose, Panay Island, Philippines","id":2449,"area":92.17194200794256,"year":"2018","lastUpdated":"2018-03-08T02:22:03.657473","changesets":7079,"mappers":210,"roads":144.04700009821,"buildings":23700,"edits":26904,"latest":"2018-03-08T02:15:30.000Z"},"geometry":{"type":"Point","coordinates":[121.95624289313717,10.761148689531957]}}],"Turkey":[{"type":"Feature","properties":{"title":"Beyolu District of Istanbul, Turkey","id":4207,"area":8.976916187097956,"year":"2018","lastUpdated":"2018-03-23T14:44:44.253666","changesets":302,"mappers":34,"roads":1.67434867197883,"buildings":5117,"edits":5807,"latest":"2018-05-02T21:24:22.000Z"},"geometry":{"type":"Point","coordinates":[28.963020104785894,41.03966862443326]}},{"type":"Feature","properties":{"title":"Istanbul, TR - Missing Roads","id":4520,"area":117.69928123734232,"year":"2018","lastUpdated":"2018-07-02T19:41:10.550354","changesets":0,"mappers":0,"roads":0,"buildings":0,"edits":0,"latest":null},"geometry":{"type":"Point","coordinates":[28.956042650483134,41.117615423675694]}},{"type":"Feature","properties":{"title":"Krklareli, TR - Missing Roads","id":4671,"area":23.070417115860916,"year":"2018","lastUpdated":"2018-06-05T04:43:29.098568","changesets":0,"mappers":0,"roads":0,"buildings":0,"edits":0,"latest":null},"geometry":{"type":"Point","coordinates":[27.391714163116273,41.60718562980086]}},{"type":"Feature","properties":{"title":"Eskiehir, TR - Missing Roads","id":4669,"area":64.98133666550791,"year":"2018","lastUpdated":"2018-06-05T04:34:09.061861","changesets":0,"mappers":0,"roads":0,"buildings":0,"edits":0,"latest":null},"geometry":{"type":"Point","coordinates":[30.79114605305074,39.653712907908556]}},{"type":"Feature","properties":{"title":"Kocaeli, TR - Missing Roads","id":4672,"area":113.8116471611437,"year":"2018","lastUpdated":"2018-06-05T04:44:09.814309","changesets":0,"mappers":0,"roads":0,"buildings":0,"edits":0,"latest":null},"geometry":{"type":"Point","coordinates":[29.766853800723556,40.799700959537496]}},{"type":"Feature","properties":{"title":"anakkale, TR - Missing Roads","id":4666,"area":47.60704007640385,"year":"2018","lastUpdated":"2018-06-05T04:39:10.227368","changesets":0,"mappers":0,"roads":0,"buildings":0,"edits":0,"latest":null},"geometry":{"type":"Point","coordinates":[26.79974061591992,40.090569108763795]}}],"Kenya":[{"type":"Feature","properties":{"title":"Thika - Kenya","id":4195,"area":4.232094962485982,"year":"2018","lastUpdated":"2018-02-27T09:10:05.019661","changesets":456,"mappers":6,"roads":19.7830596921561,"buildings":3560,"edits":3762,"latest":"2018-02-27T09:22:23.000Z"},"geometry":{"type":"Point","coordinates":[37.11712764862,-1.0534824928399926]}},{"type":"Feature","properties":{"title":"PEPFAR Kenya: Siaya (Bondo)","id":2742,"area":697.6313879334233,"year":"2018","lastUpdated":"2018-07-04T09:45:35.817838","changesets":4206,"mappers":355,"roads":3077.48055618628,"buildings":78703,"edits":112305,"latest":"2018-06-12T12:54:00.000Z"},"geometry":{"type":"Point","coordinates":[34.274940490722635,-0.19898933479797087]}},{"type":"Feature","properties":{"title":"Tracing Laisamis Constituency - Roads","id":307,"area":24876.70650294308,"year":"2017","lastUpdated":"2017-08-23T18:16:54.781576","changesets":49,"mappers":6,"roads":214.106229956566,"buildings":17,"edits":236,"latest":"2016-09-08T21:25:52.000Z"},"geometry":{"type":"Point","coordinates":[37.25302303020064,2.3250797026155943]}},{"type":"Feature","properties":{"title":"Mapping Bukira East Ward, Migori County","id":4395,"area":38.113991282680686,"year":"2018","lastUpdated":"2018-06-16T22:01:42.800398","changesets":49,"mappers":27,"roads":19.5314149793494,"buildings":717,"edits":807,"latest":"2018-06-16T22:01:44.000Z"},"geometry":{"type":"Point","coordinates":[34.61281463403942,-1.1913635729656766]}},{"type":"Feature","properties":{"title":"Missing Maps: Mapping informal settlements in Mombasa, Kenya to improve access to healthcare","id":3475,"area":5.044005256974101,"year":"2018","lastUpdated":"2018-06-20T03:51:06.253728","changesets":0,"mappers":0,"roads":0,"buildings":0,"edits":0,"latest":null},"geometry":{"type":"Point","coordinates":[39.63163106383532,-4.021639044787146]}},{"type":"Feature","properties":{"title":"Mapping Kabarnet Ward, Baringo County","id":4272,"area":160.31838656509228,"year":"2018","lastUpdated":"2018-06-27T12:47:32.851987","changesets":2678,"mappers":12,"roads":887.02099972485,"buildings":8529,"edits":13097,"latest":"2018-06-14T12:32:03.000Z"},"geometry":{"type":"Point","coordinates":[35.69189210237559,0.522327367406214]}},{"type":"Feature","properties":{"title":"Mapping Mbooni Ward, Makueni County","id":4274,"area":58.66062861806336,"year":"2018","lastUpdated":"2018-06-11T13:19:10.760750","changesets":1177,"mappers":25,"roads":356.737196713982,"buildings":8438,"edits":11162,"latest":"2018-06-11T13:22:58.000Z"},"geometry":{"type":"Point","coordinates":[37.42368532576408,-1.6602485906596427]}},{"type":"Feature","properties":{"title":"EUROSHA Kenya Kuresoi District, job 1: mapping roads and buildings","id":165,"area":1.2362275181143012,"year":"2016","lastUpdated":"2016-05-02T09:25:16.216783","changesets":0,"mappers":0,"roads":0,"buildings":0,"edits":0,"latest":null},"geometry":{"type":"Point","coordinates":[35.529407496275255,-0.30133299151763643]}},{"type":"Feature","properties":{"title":"EUROSHA Kenya Mapping in Molo town","id":184,"area":12.357915057013763,"year":"2017","lastUpdated":"2017-10-10T09:33:02.444007","changesets":16,"mappers":4,"roads":5.2731059812041,"buildings":384,"edits":451,"latest":"2017-10-10T09:32:46.000Z"},"geometry":{"type":"Point","coordinates":[35.7252216289414,-0.24343225823147221]}},{"type":"Feature","properties":{"title":"Nyamira County, Kenya. Jumpstart County GIS","id":759,"area":903.2581044301878,"year":"2018","lastUpdated":"2018-01-17T14:36:21.832886","changesets":802,"mappers":77,"roads":1060.56902883166,"buildings":2501,"edits":6656,"latest":"2018-01-17T22:29:51.000Z"},"geometry":{"type":"Point","coordinates":[34.94925518812263,-0.6270269816091953]}},{"type":"Feature","properties":{"title":"Missing Maps - Kenya - Mara region (buildings) with Mapbox","id":2544,"area":612.5201544848798,"year":"2018","lastUpdated":"2018-03-05T15:56:29.687619","changesets":23,"mappers":6,"roads":33.0290527633165,"buildings":86,"edits":168,"latest":"2017-02-20T09:36:55.000Z"},"geometry":{"type":"Point","coordinates":[35.60225416996566,-1.2375315646778384]}}],"Peru":[{"type":"Feature","properties":{"title":"Missing Maps: Peru 3","id":3484,"area":2368.7706614451067,"year":"2018","lastUpdated":"2018-05-16T02:59:48.782992","changesets":1259,"mappers":122,"roads":402.856368903665,"buildings":18238,"edits":21571,"latest":"2018-05-16T02:59:40.000Z"},"geometry":{"type":"Point","coordinates":[-73.31710379464286,-4.068961172522368]}},{"type":"Feature","properties":{"title":"Peru Flood Support - ANPE Carapongo","id":2721,"area":2.3897474078506047,"year":"2017","lastUpdated":"2017-04-11T04:51:12.651228","changesets":81,"mappers":12,"roads":1.40428618234097,"buildings":179,"edits":191,"latest":"2018-03-07T00:13:52.000Z"},"geometry":{"type":"Point","coordinates":[-76.86263441235053,-12.006078440774738]}},{"type":"Feature","properties":{"title":"The Santa Maria and Larapa, Cusco, Peru","id":4513,"area":39.55014288875528,"year":"2018","lastUpdated":"2018-07-03T10:59:46.156315","changesets":207,"mappers":51,"roads":49.6256594199059,"buildings":1957,"edits":2254,"latest":"2018-06-14T10:56:30.000Z"},"geometry":{"type":"Point","coordinates":[-71.8779106117475,-13.5220735278]}},{"type":"Feature","properties":{"title":"Missing Maps - Peru - Iquitos","id":4586,"area":4968.712676885282,"year":"2018","lastUpdated":"2018-07-05T06:00:31.871017","changesets":396,"mappers":66,"roads":96.0966199922437,"buildings":3802,"edits":4323,"latest":"2018-06-13T19:37:40.000Z"},"geometry":{"type":"Point","coordinates":[-73.14220138876463,-3.6938852126741515]}},{"type":"Feature","properties":{"title":"Misti Volcano USAID and USGS (high risk areas)","id":4351,"area":123.24473999578873,"year":"2018","lastUpdated":"2018-07-04T15:47:15.818287","changesets":3904,"mappers":158,"roads":217.656009876583,"buildings":47183,"edits":50409,"latest":"2018-06-16T21:07:19.000Z"},"geometry":{"type":"Point","coordinates":[-71.54234348252237,-16.397387659243922]}},{"type":"Feature","properties":{"title":"Missing Maps: Pisco, Peru","id":2282,"area":16.257468658807248,"year":"2018","lastUpdated":"2018-03-17T00:04:01.407300","changesets":1473,"mappers":174,"roads":82.8681308665026,"buildings":19329,"edits":21316,"latest":"2018-03-20T13:39:49.000Z"},"geometry":{"type":"Point","coordinates":[-76.19990346735779,-13.71804266941074]}},{"type":"Feature","properties":{"title":"Missing Maps: Chincha Alta, Peru","id":2668,"area":38.129794390110106,"year":"2018","lastUpdated":"2018-05-29T05:09:37.362477","changesets":4619,"mappers":286,"roads":31.8415239635002,"buildings":31617,"edits":32533,"latest":"2018-05-29T05:02:23.000Z"},"geometry":{"type":"Point","coordinates":[-76.14218099478583,-13.418756601711635]}},{"type":"Feature","properties":{"title":"Peru Flood Support - ANPE Callahuanca, Santa Eulalia, San Mateo de Otao","id":2717,"area":25.53866379533114,"year":"2018","lastUpdated":"2018-03-06T17:40:57.185346","changesets":13,"mappers":6,"roads":3.07444073154132,"buildings":88,"edits":139,"latest":"2017-04-05T21:26:03.000Z"},"geometry":{"type":"Point","coordinates":[-76.63836822320916,-11.863190599289412]}},{"type":"Feature","properties":{"title":"Missing Maps: Peru 2","id":3483,"area":1812.597278135107,"year":"2018","lastUpdated":"2018-06-19T15:50:39.165104","changesets":1572,"mappers":92,"roads":721.495664189932,"buildings":12992,"edits":18179,"latest":"2018-03-12T12:28:14.000Z"},"geometry":{"type":"Point","coordinates":[-76.41832351684572,-6.884780202993695]}}],"Uganda":[{"type":"Feature","properties":{"title":"Uganda Bureau of Statistics Educational Facilities Buildings and Road Network Mapping","id":3374,"area":243082.79180043133,"year":"2018","lastUpdated":"2018-06-26T12:18:47.157999","changesets":99,"mappers":10,"roads":841.843949803121,"buildings":1392,"edits":2687,"latest":"2018-03-10T16:06:22.000Z"},"geometry":{"type":"Point","coordinates":[31.17184824163389,0.5547776361651102]}},{"type":"Feature","properties":{"title":"Uganda Crowd-sourcing Non-Camp Refugee Data - Roads (GPX Tracks) Mapping Arua District","id":4701,"area":4395.597295670786,"year":"2018","lastUpdated":"2018-07-04T10:10:07.305329","changesets":27,"mappers":6,"roads":322.395536757789,"buildings":754,"edits":1818,"latest":"2018-06-17T09:47:02.000Z"},"geometry":{"type":"Point","coordinates":[31.074578862085442,2.9228176868678046]}},{"type":"Feature","properties":{"title":"Uganda Crowdsourcing Non-Camp Refugee Data (Urban Mapping) Kampala Nakawa Division Part 1","id":4371,"area":27.407181548683663,"year":"2018","lastUpdated":"2018-06-18T17:12:28.543325","changesets":2418,"mappers":383,"roads":67.641466541415,"buildings":56190,"edits":57455,"latest":"2018-06-17T08:15:23.000Z"},"geometry":{"type":"Point","coordinates":[32.64702688918785,0.3114578744389416]}},{"type":"Feature","properties":{"title":"Maji Refugee Settlements, Adjumani Area","id":3187,"area":13.620559082078705,"year":"2017","lastUpdated":"2017-09-11T11:18:07.032226","changesets":492,"mappers":43,"roads":135.22450885648,"buildings":8791,"edits":12095,"latest":"2017-09-25T08:43:59.000Z"},"geometry":{"type":"Point","coordinates":[31.656158617762284,3.204269803158863]}},{"type":"Feature","properties":{"title":"Uganda Bureau Of Statistics Educational Facilities Import","id":1434,"area":176984.6233742301,"year":"2017","lastUpdated":"2017-10-14T04:58:15.546262","changesets":0,"mappers":0,"roads":0,"buildings":0,"edits":0,"latest":null},"geometry":{"type":"Point","coordinates":[32.54942959729942,1.3571209017835755]}},{"type":"Feature","properties":{"title":"Uganda CrowdSourcing Non-Refugee Data, Isingiro District","id":4497,"area":1029.2287197351604,"year":"2018","lastUpdated":"2018-05-23T20:34:53.947108","changesets":2552,"mappers":270,"roads":344.47992231982,"buildings":25805,"edits":26685,"latest":"2018-05-24T11:09:35.000Z"},"geometry":{"type":"Point","coordinates":[31.00773680704972,-0.8648341878436095]}},{"type":"Feature","properties":{"title":"Uganda Crowd-sourcing Non-Camp Refugee Data- Arua Town Urban Mapping","id":370,"area":44.12170916687399,"year":"2018","lastUpdated":"2018-05-24T21:16:55.977333","changesets":1030,"mappers":180,"roads":112.942480705611,"buildings":16117,"edits":17224,"latest":"2018-05-23T21:33:27.000Z"},"geometry":{"type":"Point","coordinates":[30.89424132870814,3.0302632370707423]}},{"type":"Feature","properties":{"title":"Salesforce, Uganda Crowd-Sourcing Non-Camp Refugee Data (Urban Mapping) Rubaga Division Part 3 Kampala District","id":4330,"area":13.01779996853652,"year":"2018","lastUpdated":"2018-04-11T11:58:50.107806","changesets":1272,"mappers":120,"roads":16.3060620637681,"buildings":13776,"edits":14085,"latest":"2018-05-18T12:59:22.000Z"},"geometry":{"type":"Point","coordinates":[32.52909745736579,0.2890472003472374]}},{"type":"Feature","properties":{"title":"Uganda Crowd-sourcing Non-Camp Refugee Data, Rwebisengo, Kahondo, Makondo Villages, Ntoroko District Base Mapping","id":4295,"area":162.10041758428503,"year":"2018","lastUpdated":"2018-05-25T05:31:04.061957","changesets":1286,"mappers":54,"roads":10.4920207350625,"buildings":3532,"edits":3557,"latest":"2018-04-04T00:30:34.000Z"},"geometry":{"type":"Point","coordinates":[30.27564502638289,1.0482015863826952]}},{"type":"Feature","properties":{"title":"Uganda Crowd-sourcing Non-Camp Refugee Data, Offaka, Anyiribu Subcounty, Arua District Base Mapping","id":4314,"area":292.26457151971164,"year":"2018","lastUpdated":"2018-04-03T16:10:44.554351","changesets":1614,"mappers":182,"roads":169.132518589228,"buildings":11036,"edits":12198,"latest":"2018-03-29T15:15:29.000Z"},"geometry":{"type":"Point","coordinates":[31.089419945984925,2.6427265966896725]}},{"type":"Feature","properties":{"title":"Salesforce, Uganda Crowd-Sourcing Non-Camp Refugee Data (Urban Mapping), Rubaga Division Part 2, Kampala District","id":4328,"area":10.441771719335271,"year":"2018","lastUpdated":"2018-04-03T16:09:44.121669","changesets":2540,"mappers":106,"roads":12.5259851096213,"buildings":12470,"edits":12759,"latest":"2018-03-30T13:26:57.000Z"},"geometry":{"type":"Point","coordinates":[32.532463481935196,0.31771719846770996]}},{"type":"Feature","properties":{"title":"Uganda Crowdsourcing Non-Camp Refugee Data Base Mapping, Kyangwali Area, Hoima, Kagadi District","id":4277,"area":223.49057286073074,"year":"2018","lastUpdated":"2018-06-26T08:53:42.433904","changesets":1363,"mappers":182,"roads":169.046331057569,"buildings":21325,"edits":22452,"latest":"2018-06-13T18:57:27.000Z"},"geometry":{"type":"Point","coordinates":[30.773839361582926,1.1603113359856785]}},{"type":"Feature","properties":{"title":"Uganda Crowd-sourcing Non-Camp Refugee Data (Urban Mapping), Hoima Municipality, Hoima District","id":4593,"area":40.21494542121517,"year":"2018","lastUpdated":"2018-06-18T11:34:01.390657","changesets":647,"mappers":135,"roads":14.2171444025833,"buildings":7146,"edits":7297,"latest":"2018-06-15T10:53:42.000Z"},"geometry":{"type":"Point","coordinates":[31.345254619743375,1.4316581460231461]}},{"type":"Feature","properties":{"title":"Uganda Crowd-sourcing Non-Camp Refugee Data,Vurra Subcounty, Arua","id":4686,"area":125.97781211607399,"year":"2018","lastUpdated":"2018-07-04T11:59:16.340626","changesets":428,"mappers":49,"roads":2.55470864636047,"buildings":2717,"edits":2735,"latest":"2018-06-17T08:28:04.000Z"},"geometry":{"type":"Point","coordinates":[30.908277625357083,2.891373568463031]}},{"type":"Feature","properties":{"title":"Uganda Crowdsourcing Non-Camp Refugee Data, Rwamwanja Refugee Settlement, Kamwenge District","id":4798,"area":343.59803817321034,"year":"2018","lastUpdated":"2018-07-04T15:16:53.728989","changesets":0,"mappers":0,"roads":0,"buildings":0,"edits":0,"latest":null},"geometry":{"type":"Point","coordinates":[30.67052946158785,0.3056601787846434]}},{"type":"Feature","properties":{"title":"Salesforce, Uganda Crowd-sourcing Non-Camp Refugee Data (Urban Mapping), Ndeeba, Wankulukuku","id":4135,"area":4.371431618487186,"year":"2018","lastUpdated":"2018-03-27T16:15:22.176595","changesets":1031,"mappers":144,"roads":9.29574392161781,"buildings":10517,"edits":10741,"latest":"2018-04-03T08:49:40.000Z"},"geometry":{"type":"Point","coordinates":[32.55563010348889,0.2863901650888876]}},{"type":"Feature","properties":{"title":"Uganda Crowdsourcing Non-Camp Refugee Data, Palabek Kal, Lamwo Distrcit","id":4268,"area":84.40290946779128,"year":"2018","lastUpdated":"2018-05-10T14:31:40.842466","changesets":399,"mappers":64,"roads":49.6563847880299,"buildings":6125,"edits":6415,"latest":"2018-03-27T16:26:33.000Z"},"geometry":{"type":"Point","coordinates":[32.56513191674855,3.3711969971804834]}},{"type":"Feature","properties":{"title":"PEPFAR Uganda: Rakai","id":3205,"area":1538.4469936367382,"year":"2018","lastUpdated":"2018-06-29T19:33:13.461410","changesets":3164,"mappers":341,"roads":4863.28248420532,"buildings":38717,"edits":88082,"latest":"2018-06-16T07:25:06.000Z"},"geometry":{"type":"Point","coordinates":[31.448796675463146,-0.6710344974046747]}},{"type":"Feature","properties":{"title":"PEPFAR Uganda: Rakai Coast, Kasensero Landing Site","id":2290,"area":390.7426047377783,"year":"2018","lastUpdated":"2018-02-21T23:52:45.656780","changesets":487,"mappers":33,"roads":447.456340402132,"buildings":9032,"edits":12430,"latest":"2018-02-21T23:52:26.000Z"},"geometry":{"type":"Point","coordinates":[31.789911428571425,-0.7308521428571428]}},{"type":"Feature","properties":{"title":"PEPFAR Uganda: Kalangala","id":2269,"area":2542.196115017722,"year":"2018","lastUpdated":"2018-05-19T19:48:02.892438","changesets":797,"mappers":59,"roads":966.35338646559,"buildings":18488,"edits":24861,"latest":"2018-05-19T20:12:56.000Z"},"geometry":{"type":"Point","coordinates":[32.24791390555245,-0.356560572172055]}},{"type":"Feature","properties":{"title":"MapUganda - Phase 2: Tororo (Butaleja, Namutumba, Bugiri, Namiyango and Busia)","id":1437,"area":5529.26414171349,"year":"2018","lastUpdated":"2018-05-21T15:50:07.552229","changesets":458,"mappers":95,"roads":798.507032670049,"buildings":7900,"edits":12313,"latest":"2018-05-21T15:30:01.000Z"},"geometry":{"type":"Point","coordinates":[33.95315401570563,0.6248404540072142]}},{"type":"Feature","properties":{"title":"Peace Corps Uganda - Masaka","id":1196,"area":43.130343075892235,"year":"2018","lastUpdated":"2018-04-17T21:06:34.717732","changesets":741,"mappers":102,"roads":231.711531316098,"buildings":15963,"edits":18969,"latest":"2018-04-17T22:43:56.000Z"},"geometry":{"type":"Point","coordinates":[31.744541440691275,-0.3259157183268582]}},{"type":"Feature","properties":{"title":"Peace Corps Uganda - Arua","id":1197,"area":7.649398362963315,"year":"2018","lastUpdated":"2018-01-12T01:22:10.507348","changesets":795,"mappers":45,"roads":86.0095814458602,"buildings":13691,"edits":15829,"latest":"2018-01-12T01:21:21.000Z"},"geometry":{"type":"Point","coordinates":[30.911480096670296,3.0199597258060704]}}],"Myanmar":[{"type":"Feature","properties":{"title":"Missing Maps: Bogale, Myanmar #1","id":3339,"area":957.1878538184479,"year":"2018","lastUpdated":"2018-04-06T19:37:44.169815","changesets":0,"mappers":0,"roads":0,"buildings":0,"edits":0,"latest":null},"geometry":{"type":"Point","coordinates":[95.23271288652319,15.974044517505755]}},{"type":"Feature","properties":{"title":"Missing Maps: Labutta, Myanmar 5","id":3745,"area":937.7812067205886,"year":"2018","lastUpdated":"2018-07-03T08:09:04.299025","changesets":0,"mappers":0,"roads":0,"buildings":0,"edits":0,"latest":null},"geometry":{"type":"Point","coordinates":[94.93456852285155,15.900524187804264]}},{"type":"Feature","properties":{"title":"Missing Maps: Myaungmya, Myanmar","id":2896,"area":509.575471121068,"year":"2018","lastUpdated":"2018-07-03T11:42:27.099803","changesets":0,"mappers":0,"roads":0,"buildings":0,"edits":0,"latest":null},"geometry":{"type":"Point","coordinates":[94.76710715420732,16.463608293264897]}},{"type":"Feature","properties":{"title":"Missing Maps: Mawlamyinegyun, Myanmar #4","id":3691,"area":508.81879909198335,"year":"2018","lastUpdated":"2018-06-29T07:56:35.819475","changesets":1551,"mappers":171,"roads":51.5412017797,"buildings":24510,"edits":24802,"latest":"2018-06-03T09:44:42.000Z"},"geometry":{"type":"Point","coordinates":[95.3965620438874,16.457677250918447]}},{"type":"Feature","properties":{"title":"Missing Maps: Pyapon, Myanmar #4","id":3338,"area":271.4046468499522,"year":"2018","lastUpdated":"2018-03-22T05:50:37.835394","changesets":0,"mappers":0,"roads":0,"buildings":0,"edits":0,"latest":null},"geometry":{"type":"Point","coordinates":[95.69678220927732,16.237405099739362]}},{"type":"Feature","properties":{"title":"Missing Maps: Mawlamyinegyun, Myanmar #1","id":3688,"area":267.95522733398417,"year":"2018","lastUpdated":"2018-04-25T00:59:26.684587","changesets":621,"mappers":99,"roads":9.92578145649791,"buildings":7997,"edits":8089,"latest":"2018-05-02T04:41:29.000Z"},"geometry":{"type":"Point","coordinates":[95.10533091768269,16.22352191657049]}},{"type":"Feature","properties":{"title":"Solidarit International, refugees crisis, Bandarban (Bengladesh)","id":4331,"area":145.63066042938559,"year":"2018","lastUpdated":"2018-06-27T10:35:06.293900","changesets":786,"mappers":101,"roads":505.010522482213,"buildings":11634,"edits":14256,"latest":"2018-06-14T10:12:50.000Z"},"geometry":{"type":"Point","coordinates":[92.2341151572248,21.37998345996593]}},{"type":"Feature","properties":{"title":"Missing Maps: Thabaung, Myanmar 3","id":4161,"area":435.66539985620176,"year":"2018","lastUpdated":"2018-06-25T09:46:13.669548","changesets":1233,"mappers":117,"roads":98.6118847117234,"buildings":12670,"edits":13127,"latest":"2018-06-11T20:12:01.000Z"},"geometry":{"type":"Point","coordinates":[94.83960315561043,17.206533222437205]}},{"type":"Feature","properties":{"title":"Missing Maps: Thabaung, Myanmar 2","id":4160,"area":440.6827719380873,"year":"2018","lastUpdated":"2018-06-25T10:19:00.219223","changesets":1209,"mappers":114,"roads":19.6472491003114,"buildings":17198,"edits":17302,"latest":"2018-06-14T18:25:43.000Z"},"geometry":{"type":"Point","coordinates":[94.9331397141187,17.066206912056927]}},{"type":"Feature","properties":{"title":"Missing Maps: Ngapudaw, Myanmar 3","id":3807,"area":439.83707595362574,"year":"2018","lastUpdated":"2018-06-30T03:56:23.469644","changesets":1683,"mappers":181,"roads":138.439066380885,"buildings":25445,"edits":27252,"latest":"2018-06-16T00:14:06.000Z"},"geometry":{"type":"Point","coordinates":[94.59767165733061,16.392480203982295]}},{"type":"Feature","properties":{"title":"Missing Maps: Myaungmya, Myanmar (urban)","id":3798,"area":53.88744052798395,"year":"2018","lastUpdated":"2018-07-02T12:24:29.961264","changesets":1592,"mappers":141,"roads":10.8779609106271,"buildings":18900,"edits":19588,"latest":"2018-04-27T03:52:21.000Z"},"geometry":{"type":"Point","coordinates":[94.91455149550082,16.58923145052583]}},{"type":"Feature","properties":{"title":"Missing Maps: Ngapudaw, Myanmar 4","id":3808,"area":333.8449305432847,"year":"2018","lastUpdated":"2018-05-03T15:52:45.462409","changesets":768,"mappers":49,"roads":219.243691140147,"buildings":8494,"edits":10705,"latest":"2018-05-03T15:51:53.000Z"},"geometry":{"type":"Point","coordinates":[94.31713352475742,16.512816982314448]}},{"type":"Feature","properties":{"title":"Missing Maps: Pyapon, Myanmar #2","id":3336,"area":569.7196286833451,"year":"2018","lastUpdated":"2018-07-04T05:11:53.365376","changesets":0,"mappers":0,"roads":0,"buildings":0,"edits":0,"latest":null},"geometry":{"type":"Point","coordinates":[95.61312064893197,15.968033641220504]}},{"type":"Feature","properties":{"title":"Missing Maps: Pyapon, Myanmar #1","id":3335,"area":704.0196862171777,"year":"2018","lastUpdated":"2018-07-03T10:26:08.791582","changesets":0,"mappers":0,"roads":0,"buildings":0,"edits":0,"latest":null},"geometry":{"type":"Point","coordinates":[95.35416484539562,15.788094481146144]}},{"type":"Feature","properties":{"title":"Mapping in Hpa-an, Myanmar - SA activities","id":368,"area":21.979402938789597,"year":"2017","lastUpdated":"2017-09-19T18:35:38.582658","changesets":252,"mappers":9,"roads":505.936266559858,"buildings":3574,"edits":6792,"latest":"2017-10-28T18:58:25.000Z"},"geometry":{"type":"Point","coordinates":[97.64815805984709,16.868976951016524]}},{"type":"Feature","properties":{"title":"Missing Maps: Kyalkiat, Myanmar","id":3344,"area":719.0284110402209,"year":"2018","lastUpdated":"2018-07-05T04:41:54.756609","changesets":0,"mappers":0,"roads":0,"buildings":0,"edits":0,"latest":null},"geometry":{"type":"Point","coordinates":[95.58422576249544,16.495173469835887]}},{"type":"Feature","properties":{"title":"Missing Maps: Labutta, Myanmar 1","id":3384,"area":377.9010720431459,"year":"2018","lastUpdated":"2018-03-10T20:28:45.343996","changesets":1412,"mappers":182,"roads":128.180358628648,"buildings":4920,"edits":6467,"latest":"2018-03-10T20:28:38.000Z"},"geometry":{"type":"Point","coordinates":[94.7573087758212,16.302400117586565]}},{"type":"Feature","properties":{"title":"Missing Maps: Bogale, Myanmar #4","id":3342,"area":593.1290218907964,"year":"2018","lastUpdated":"2018-06-01T19:59:12.280421","changesets":0,"mappers":0,"roads":0,"buildings":0,"edits":0,"latest":null},"geometry":{"type":"Point","coordinates":[95.4855453430372,16.36719776005521]}},{"type":"Feature","properties":{"title":"Missing Maps: Mawlamyinegyun, Myanmar #6","id":4641,"area":270.6695310265817,"year":"2018","lastUpdated":"2018-06-29T23:53:49.150734","changesets":0,"mappers":0,"roads":0,"buildings":0,"edits":0,"latest":null},"geometry":{"type":"Point","coordinates":[95.02331558704475,16.096143559596957]}}],"South Africa":[{"type":"Feature","properties":{"title":"Knysna, Western Cape, South Africa - Wildfires Recovery","id":3314,"area":315.89437607213915,"year":"2018","lastUpdated":"2018-05-24T21:31:41.544680","changesets":1524,"mappers":157,"roads":2111.75880158504,"buildings":27654,"edits":49998,"latest":"2017-08-15T17:51:04.000Z"},"geometry":{"type":"Point","coordinates":[23.125075467314282,-34.04019707911527]}},{"type":"Feature","properties":{"title":"Training","id":1160,"area":0.11313864342977396,"year":"2017","lastUpdated":"2017-09-06T16:22:17.849756","changesets":1,"mappers":1,"roads":0,"buildings":1,"edits":1,"latest":"2017-08-21T15:12:55.000Z"},"geometry":{"type":"Point","coordinates":[18.65474224090575,-34.01967559021888]}}],"Malawi":[{"type":"Feature","properties":{"title":"Missing Maps: Mwambo (east), Zomba District, Southern Region, Malawi (buildings)","id":3241,"area":337.6375730637035,"year":"2018","lastUpdated":"2018-03-16T21:18:25.901851","changesets":1791,"mappers":89,"roads":55.5260817304889,"buildings":10543,"edits":11437,"latest":"2017-10-04T17:30:21.000Z"},"geometry":{"type":"Point","coordinates":[35.550407887804674,-15.45507341736443]}},{"type":"Feature","properties":{"title":"Missing Maps: Mphuka, Thyolo District, Southern Region, Malawi","id":3209,"area":170.0092494355972,"year":"2018","lastUpdated":"2018-06-15T00:29:25.545025","changesets":0,"mappers":0,"roads":0,"buildings":0,"edits":0,"latest":null},"geometry":{"type":"Point","coordinates":[35.013110643319635,-16.105947833374042]}},{"type":"Feature","properties":{"title":"Missing Maps - Malawi - TA Ndamena","id":2965,"area":189.65797622132658,"year":"2018","lastUpdated":"2018-03-05T15:51:01.041248","changesets":271,"mappers":46,"roads":168.635932273369,"buildings":7615,"edits":9988,"latest":"2018-01-27T18:07:32.000Z"},"geometry":{"type":"Point","coordinates":[35.14833757683088,-17.061735743568352]}},{"type":"Feature","properties":{"title":"Missing Maps - Malawi - Mwambo West (Buildings)","id":3100,"area":278.2275896931429,"year":"2017","lastUpdated":"2017-11-13T10:19:23.984291","changesets":1775,"mappers":93,"roads":17.0233371608272,"buildings":25502,"edits":25872,"latest":"2017-07-24T19:28:31.000Z"},"geometry":{"type":"Point","coordinates":[35.446619575884924,-15.453184046719608]}},{"type":"Feature","properties":{"title":"Missing Maps: Kapichi, Thyolo District, Southern Region, Malawi","id":3208,"area":187.56481268312072,"year":"2018","lastUpdated":"2018-03-16T21:22:09.005949","changesets":0,"mappers":0,"roads":0,"buildings":0,"edits":0,"latest":null},"geometry":{"type":"Point","coordinates":[35.27041672626454,-16.116625721818085]}},{"type":"Feature","properties":{"title":"Kapelulu","id":4379,"area":338.62418037046297,"year":"2018","lastUpdated":"2018-06-29T15:44:16.949724","changesets":1086,"mappers":81,"roads":1196.194907635,"buildings":19154,"edits":26182,"latest":"2018-06-15T12:29:17.000Z"},"geometry":{"type":"Point","coordinates":[33.87933429655841,-12.928213987958761]}},