{"totalEdits":43184716,"totalBuildings":35829479,"totalRoads":911164.846114852,"mappersOnline":173,"totalTasksMapped":1719478,"totalMappers":147306,"totalProjects":4205,"totalArea":2402198543.6927586,"Ghana":[{"type":"Feature","properties":{"id":3258,"title":"Ghana Road Network","status":"ARCHIVED","created":"2017","lastUpdated":"2017","lastActive":"no","area":240283.49476583445,"changesets":2201,"mappers":44,"roads":26236.740704396,"buildings":1493,"edits":93237,"latest":"2017-10-31T08:56:17.000Z"},"geometry":{"type":"Point","coordinates":[-1.20609848970644,7.96435295892783]}},{"type":"Feature","properties":{"id":4864,"title":"Open Cities Africa, Accra - Akweteman","status":"PUBLISHED","created":"2018","lastUpdated":"2018","lastActive":"no","area":1.42459790882853,"changesets":327,"mappers":29,"roads":6.65217064445881,"buildings":8067,"edits":8673,"latest":"2018-11-11T12:03:07.000Z"},"geometry":{"type":"Point","coordinates":[-0.240865150510112,5.61388128958971]}},{"type":"Feature","properties":{"id":4249,"title":"Tarkwa, Ghana - Yemaapi Ghana - Amenities","status":"PUBLISHED","created":"2018","lastUpdated":"2018","lastActive":"no","area":28.659723787299637,"changesets":5,"mappers":2,"roads":0,"buildings":54,"edits":54,"latest":"2018-06-07T16:19:32.000Z"},"geometry":{"type":"Point","coordinates":[-1.99117576151021,5.29313922403117]}},{"type":"Feature","properties":{"id":4871,"title":"Open Cities Africa, Accra - Alogboshie","status":"ARCHIVED","created":"2018","lastUpdated":"2018","lastActive":"no","area":2.218942766602261,"changesets":332,"mappers":27,"roads":6.56466441914645,"buildings":6228,"edits":6355,"latest":"2018-08-07T12:09:21.000Z"},"geometry":{"type":"Point","coordinates":[-0.234323275400405,5.63395602091084]}},{"type":"Feature","properties":{"id":3840,"title":"Missing Maps:  Ghana, Volta River, Kpong Dam Area 1","status":"PUBLISHED","created":"2017","lastUpdated":"2018","lastActive":"no","area":105.40279453196466,"changesets":267,"mappers":17,"roads":1.26548532993406,"buildings":6143,"edits":6164,"latest":"2018-10-06T13:01:03.000Z"},"geometry":{"type":"Point","coordinates":[0.18249648504593,6.10018651036724]}},{"type":"Feature","properties":{"id":3857,"title":"Missing Maps: Ghana, Volta River, Kpong Area 2 Floodplain","status":"PUBLISHED","created":"2017","lastUpdated":"2018","lastActive":"no","area":148.00935440911226,"changesets":197,"mappers":17,"roads":103.591422670651,"buildings":2361,"edits":2667,"latest":"2018-10-09T20:30:13.000Z"},"geometry":{"type":"Point","coordinates":[0.280485746736379,6.04535119064338]}},{"type":"Feature","properties":{"id":3322,"title":"Teshie Nungua, Accra, Ghana - Buildings #AODC17","status":"PUBLISHED","created":"2017","lastUpdated":"2018","lastActive":"no","area":22.84511529088694,"changesets":1313,"mappers":218,"roads":21.7545335558156,"buildings":23527,"edits":24306,"latest":"2018-11-14T17:32:34.000Z"},"geometry":{"type":"Point","coordinates":[-0.105215224349903,5.59491338538036]}},{"type":"Feature","properties":{"id":4767,"title":"Kumasi, Ghana","status":"PUBLISHED","created":"2018","lastUpdated":"2018","lastActive":"no","area":505.4883488037384,"changesets":644,"mappers":13,"roads":551.527235356168,"buildings":3985,"edits":6756,"latest":"2018-09-13T15:51:55.000Z"},"geometry":{"type":"Point","coordinates":[-1.60848067986499,6.70241717108566]}},{"type":"Feature","properties":{"id":4963,"title":"Open Cities Africa, Accra - Day 1 - Maptime","status":"PUBLISHED","created":"2018","lastUpdated":"2018","lastActive":"no","area":0.6775931079849041,"changesets":141,"mappers":22,"roads":18.3393764191781,"buildings":1425,"edits":1586,"latest":"2018-09-22T20:08:59.000Z"},"geometry":{"type":"Point","coordinates":[-0.19638999351199,5.68272988480813]}},{"type":"Feature","properties":{"id":1100,"title":"OpenStreetMap-Workshop-2015 #AccraFloods","status":"PUBLISHED","created":"2015","lastUpdated":"2017","lastActive":"no","area":0.41042591015655777,"changesets":487,"mappers":52,"roads":506.826280483439,"buildings":1957,"edits":4419,"latest":"2018-03-08T02:10:29.000Z"},"geometry":{"type":"Point","coordinates":[-0.21523474195459,5.56819165986384]}},{"type":"Feature","properties":{"id":4247,"title":"Accra University, Ghana - Yemaapi Ghana - Amenities","status":"PUBLISHED","created":"2018","lastUpdated":"2018","lastActive":"no","area":42.09203843894026,"changesets":0,"mappers":0,"roads":0,"buildings":0,"edits":0,"latest":null},"geometry":{"type":"Point","coordinates":[-0.208219132076309,5.63982874617544]}}],"Tanzania":[{"type":"Feature","properties":{"id":4260,"title":"Lindi - Mini Grids","status":"PUBLISHED","created":"2018","lastUpdated":"2018","lastActive":"no","area":235.67207484051517,"changesets":137,"mappers":24,"roads":23.0772557724216,"buildings":2599,"edits":3017,"latest":"2018-09-04T05:43:44.000Z"},"geometry":{"type":"Point","coordinates":[39.1930035755225,-10.7075182203544]}},{"type":"Feature","properties":{"id":1256,"title":"MSD & JSI/USAID Tanzania Road Import - West Ruvuma region","status":"PUBLISHED","created":"2015","lastUpdated":"2016","lastActive":"no","area":10512.14514732082,"changesets":39,"mappers":4,"roads":5476.97375385643,"buildings":7,"edits":9471,"latest":"2016-04-04T16:27:27.000Z"},"geometry":{"type":"Point","coordinates":[35.4090779040358,-10.7330492383707]}},{"type":"Feature","properties":{"id":4208,"title":"Mbeya minigrids","status":"PUBLISHED","created":"2018","lastUpdated":"2018","lastActive":"no","area":381.3150730146897,"changesets":8229,"mappers":81,"roads":545.472150450803,"buildings":454625,"edits":458780,"latest":"2018-03-29T12:55:24.000Z"},"geometry":{"type":"Point","coordinates":[33.2834313083823,-8.86666978309615]}},{"type":"Feature","properties":{"id":3670,"title":"Zanzibar Roads - Unguja Island - 03","status":"PUBLISHED","created":"2017","lastUpdated":"2018","lastActive":"no","area":891.0473088683418,"changesets":412,"mappers":18,"roads":2063.39671273259,"buildings":162,"edits":11431,"latest":"2018-09-29T05:14:47.000Z"},"geometry":{"type":"Point","coordinates":[39.4232119996911,-6.23876844212124]}},{"type":"Feature","properties":{"id":3666,"title":"Zanzibar Roads - Unguja Island - 02","status":"PUBLISHED","created":"2017","lastUpdated":"2017","lastActive":"no","area":467.0999763333136,"changesets":182,"mappers":13,"roads":1127.1061948184,"buildings":5,"edits":6570,"latest":"2017-10-04T08:29:26.000Z"},"geometry":{"type":"Point","coordinates":[39.2879567596863,-5.91889676940709]}},{"type":"Feature","properties":{"id":4440,"title":"Tanzania Development Trust: Kihurio Community Mapping Project","status":"ARCHIVED","created":"2018","lastUpdated":"2018","lastActive":"no","area":25.149218397883203,"changesets":424,"mappers":67,"roads":255.735874916018,"buildings":3520,"edits":4623,"latest":"2018-04-21T23:10:25.000Z"},"geometry":{"type":"Point","coordinates":[38.0710346364441,-4.47694510234758]}},{"type":"Feature","properties":{"id":4336,"title":"Tanzania Development Trust: Mingoyo Community Mapping Project","status":"ARCHIVED","created":"2018","lastUpdated":"2018","lastActive":"no","area":6.093244915676354,"changesets":452,"mappers":71,"roads":108.978266720093,"buildings":3373,"edits":5105,"latest":"2018-03-25T17:50:56.000Z"},"geometry":{"type":"Point","coordinates":[39.6150235515117,-10.1073176624119]}},{"type":"Feature","properties":{"id":4326,"title":"Tanzania Development Trust: Chamchuzi Karagwe Community Mapping Project","status":"ARCHIVED","created":"2018","lastUpdated":"2018","lastActive":"no","area":14.620352225319428,"changesets":96,"mappers":13,"roads":118.753544967722,"buildings":625,"edits":1031,"latest":"2018-03-18T21:53:31.000Z"},"geometry":{"type":"Point","coordinates":[30.8657918691606,-1.79784583007795]}},{"type":"Feature","properties":{"id":4405,"title":"Tanzania Development Trust: Rushwa Community Mapping Project","status":"ARCHIVED","created":"2018","lastUpdated":"2018","lastActive":"no","area":28.44762453258442,"changesets":298,"mappers":40,"roads":300.470888123495,"buildings":1582,"edits":3500,"latest":"2018-04-12T05:58:16.000Z"},"geometry":{"type":"Point","coordinates":[31.4939209647812,-1.78766119268283]}},{"type":"Feature","properties":{"id":4368,"title":"Tanzania Development Trust: Morogoro Community Mapping Project","status":"ARCHIVED","created":"2018","lastUpdated":"2018","lastActive":"no","area":6.725652855463129,"changesets":1281,"mappers":89,"roads":81.8895955188457,"buildings":19328,"edits":20942,"latest":"2018-07-08T14:32:19.000Z"},"geometry":{"type":"Point","coordinates":[37.6521283051778,-6.82130428335325]}},{"type":"Feature","properties":{"id":4334,"title":"Tanzania Development Trust: Ihemi Iringa Community Mapping Project","status":"ARCHIVED","created":"2018","lastUpdated":"2018","lastActive":"no","area":17.979652120471023,"changesets":138,"mappers":17,"roads":162.956597880068,"buildings":1531,"edits":2481,"latest":"2018-03-20T18:15:43.000Z"},"geometry":{"type":"Point","coordinates":[35.5059379677161,-8.01149565167227]}},{"type":"Feature","properties":{"id":4282,"title":"Tanzania Development Trust: Kamishango Community Mapping Project","status":"ARCHIVED","created":"2018","lastUpdated":"2018","lastActive":"no","area":9.427409216356606,"changesets":237,"mappers":26,"roads":63.4951655647916,"buildings":946,"edits":1796,"latest":"2018-03-27T14:29:57.000Z"},"geometry":{"type":"Point","coordinates":[31.6140883568513,-1.8374625035104]}},{"type":"Feature","properties":{"id":4315,"title":"Tanzania Development Trust: Nshamba Community Mapping Project","status":"ARCHIVED","created":"2018","lastUpdated":"2018","lastActive":"no","area":20.728217465742752,"changesets":502,"mappers":54,"roads":258.414508170386,"buildings":5488,"edits":8174,"latest":"2018-03-18T15:53:19.000Z"},"geometry":{"type":"Point","coordinates":[31.5495323621043,-1.80167815244229]}},{"type":"Feature","properties":{"id":4294,"title":"Tanzania Development Trust: Mubunda Muleba Community Mapping Project","status":"ARCHIVED","created":"2018","lastUpdated":"2018","lastActive":"no","area":7.587230914571072,"changesets":306,"mappers":43,"roads":177.651635751973,"buildings":1516,"edits":2786,"latest":"2018-03-16T04:45:19.000Z"},"geometry":{"type":"Point","coordinates":[31.5148740880789,-1.94608709963417]}},{"type":"Feature","properties":{"id":4978,"title":"Tanzania Development Trust: Magata Karutonga  Community Mapping Project","status":"ARCHIVED","created":"2018","lastUpdated":"2018","lastActive":"no","area":34.0634342157299,"changesets":760,"mappers":56,"roads":433.264175834421,"buildings":3163,"edits":6211,"latest":"2018-08-19T16:59:22.000Z"},"geometry":{"type":"Point","coordinates":[31.6336096442559,-1.87369450984158]}},{"type":"Feature","properties":{"id":4292,"title":"Tanzania Development Trust: Nyaishozi Karagwe Community Mapping Project","status":"ARCHIVED","created":"2018","lastUpdated":"2018","lastActive":"no","area":34.276689435879305,"changesets":399,"mappers":36,"roads":474.815969390101,"buildings":2973,"edits":4948,"latest":"2018-03-18T21:40:04.000Z"},"geometry":{"type":"Point","coordinates":[31.1192616184384,-1.74718623175017]}},{"type":"Feature","properties":{"id":4324,"title":"Tanzania Development Trust: Nyakaiga Karagwe Community Mapping Project","status":"ARCHIVED","created":"2018","lastUpdated":"2018","lastActive":"no","area":12.111231176337705,"changesets":103,"mappers":12,"roads":99.5600341898669,"buildings":1190,"edits":1678,"latest":"2018-03-18T16:20:36.000Z"},"geometry":{"type":"Point","coordinates":[30.9630721040928,-1.72913994836662]}},{"type":"Feature","properties":{"id":5474,"title":"Tanzania missing buildings Harang District, Manyara Region","status":"PUBLISHED","created":"2018","lastUpdated":"2018","lastActive":"yes","area":310.80393427101467,"changesets":818,"mappers":87,"roads":32.463450597918,"buildings":3403,"edits":3643,"latest":"2018-11-21T14:11:37.000Z"},"geometry":{"type":"Point","coordinates":[35.3330397028835,-4.60695096355219]}},{"type":"Feature","properties":{"id":3459,"title":"Tanzania Development Trust: Nshamba Community Mapping Project","status":"ARCHIVED","created":"2017","lastUpdated":"2017","lastActive":"no","area":46.014908284249266,"changesets":1320,"mappers":99,"roads":645.897463633866,"buildings":7191,"edits":20283,"latest":"2017-09-08T21:24:18.000Z"},"geometry":{"type":"Point","coordinates":[31.5612210026871,-1.7322936400178]}},{"type":"Feature","properties":{"id":5534,"title":"Nondwa","status":"PUBLISHED","created":"2018","lastUpdated":"2018","lastActive":"yes","area":1008.4644905302546,"changesets":0,"mappers":0,"roads":0,"buildings":0,"edits":0,"latest":null},"geometry":{"type":"Point","coordinates":[35.326350963294,-6.53971625781216]}},{"type":"Feature","properties":{"id":5442,"title":"Ukonga","status":"PUBLISHED","created":"2018","lastUpdated":"2018","lastActive":"no","area":9.973212227035186,"changesets":1,"mappers":1,"roads":0.0957173698489048,"buildings":0,"edits":1,"latest":"2018-11-08T18:22:56.000Z"},"geometry":{"type":"Point","coordinates":[39.1716103075864,-6.87643354356797]}},{"type":"Feature","properties":{"id":834,"title":"Serengeti National Park","status":"PUBLISHED","created":"2015","lastUpdated":"2017","lastActive":"no","area":13370.038280033767,"changesets":165,"mappers":19,"roads":648.970986560487,"buildings":336,"edits":1752,"latest":"2017-10-23T10:50:06.000Z"},"geometry":{"type":"Point","coordinates":[34.781220904536,-2.33150605571682]}},{"type":"Feature","properties":{"id":5467,"title":"Makuburi","status":"PUBLISHED","created":"2018","lastUpdated":"2018","lastActive":"no","area":7.6743988229254745,"changesets":63,"mappers":8,"roads":7.63816287996377e-10,"buildings":236,"edits":238,"latest":"2018-11-15T20:52:51.000Z"},"geometry":{"type":"Point","coordinates":[39.2000761299092,-6.80869248275905]}},{"type":"Feature","properties":{"id":5422,"title":"Tanzania Mbinga Test","status":"ARCHIVED","created":"2018","lastUpdated":"2018","lastActive":"no","area":0.09678392301278596,"changesets":0,"mappers":0,"roads":0,"buildings":0,"edits":0,"latest":null},"geometry":{"type":"Point","coordinates":[35.0530360761986,-10.9293321539577]}},{"type":"Feature","properties":{"id":5397,"title":"TPDC_METEOR","status":"PUBLISHED","created":"2018","lastUpdated":"2018","lastActive":"no","area":0.11797338733636886,"changesets":94,"mappers":18,"roads":0.266615772031029,"buildings":517,"edits":536,"latest":"2018-11-01T12:33:09.000Z"},"geometry":{"type":"Point","coordinates":[39.2441458818339,-6.76148596392833]}},{"type":"Feature","properties":{"id":5444,"title":"Kawe","status":"PUBLISHED","created":"2018","lastUpdated":"2018","lastActive":"no","area":14.787548318407664,"changesets":273,"mappers":19,"roads":0.443529945999423,"buildings":2287,"edits":2362,"latest":"2018-11-14T18:15:29.000Z"},"geometry":{"type":"Point","coordinates":[39.225268225533,-6.72642707641227]}},{"type":"Feature","properties":{"id":5395,"title":"Pwani 2_METEOR","status":"PUBLISHED","created":"2018","lastUpdated":"2018","lastActive":"no","area":0.3697493857621717,"changesets":0,"mappers":0,"roads":0,"buildings":0,"edits":0,"latest":null},"geometry":{"type":"Point","coordinates":[39.0994490443233,-6.90247043542125]}},{"type":"Feature","properties":{"id":5387,"title":"Kagera Mikoroshoni_METEOR","status":"PUBLISHED","created":"2018","lastUpdated":"2018","lastActive":"no","area":0.08697368560971801,"changesets":267,"mappers":16,"roads":0.854564025781823,"buildings":1018,"edits":1290,"latest":"2018-10-26T11:50:08.000Z"},"geometry":{"type":"Point","coordinates":[39.2429037515631,-6.79943400787608]}},{"type":"Feature","properties":{"id":5405,"title":"keko magurumbasi_METEOR","status":"PUBLISHED","created":"2018","lastUpdated":"2018","lastActive":"no","area":0.03630974064275755,"changesets":62,"mappers":8,"roads":0.307114787463726,"buildings":204,"edits":378,"latest":"2018-10-29T07:08:01.000Z"},"geometry":{"type":"Point","coordinates":[39.2738899567246,-6.83651914744131]}},{"type":"Feature","properties":{"id":5371,"title":"DAR Wards_METEOR","status":"PUBLISHED","created":"2018","lastUpdated":"2018","lastActive":"no","area":1.4384185421356332,"changesets":132,"mappers":16,"roads":6.29776572367043,"buildings":1424,"edits":1694,"latest":"2018-10-31T14:01:56.000Z"},"geometry":{"type":"Point","coordinates":[39.2733530998677,-6.83014324994139]}},{"type":"Feature","properties":{"id":5318,"title":"Tandale","status":"PUBLISHED","created":"2018","lastUpdated":"2018","lastActive":"no","area":1.1670695349839497,"changesets":675,"mappers":19,"roads":1.999609349464,"buildings":5503,"edits":7596,"latest":"2018-10-22T11:33:48.000Z"},"geometry":{"type":"Point","coordinates":[39.2424390073453,-6.79411458257302]}},{"type":"Feature","properties":{"id":5326,"title":"Gerezani 2","status":"PUBLISHED","created":"2018","lastUpdated":"2018","lastActive":"no","area":0.1378230000413372,"changesets":53,"mappers":16,"roads":0.00932165201596649,"buildings":205,"edits":254,"latest":"2018-10-05T10:46:52.000Z"},"geometry":{"type":"Point","coordinates":[39.2777012004308,-6.82897780332198]}},{"type":"Feature","properties":{"id":4779,"title":"Priority Villages, Kigoma Region, Tanzania Mini Grids Project","status":"PUBLISHED","created":"2018","lastUpdated":"2018","lastActive":"no","area":2340.2938543456194,"changesets":1670,"mappers":48,"roads":0.846639744708577,"buildings":80160,"edits":80298,"latest":"2018-06-28T06:27:08.000Z"},"geometry":{"type":"Point","coordinates":[30.7271476477257,-3.50627583613387]}},{"type":"Feature","properties":{"id":5218,"title":"Vingunguti","status":"PUBLISHED","created":"2018","lastUpdated":"2018","lastActive":"no","area":4.5147969243730985,"changesets":1476,"mappers":25,"roads":5.76973550436218,"buildings":14462,"edits":17891,"latest":"2018-11-09T13:30:13.000Z"},"geometry":{"type":"Point","coordinates":[39.2283271509236,-6.845412414447]}},{"type":"Feature","properties":{"id":5321,"title":"Sinza","status":"PUBLISHED","created":"2018","lastUpdated":"2018","lastActive":"no","area":3.361250557091652,"changesets":797,"mappers":22,"roads":1.58255838155942,"buildings":10827,"edits":12143,"latest":"2018-10-12T08:09:26.000Z"},"geometry":{"type":"Point","coordinates":[39.2227970545496,-6.78373809051709]}},{"type":"Feature","properties":{"id":5391,"title":"Kivule_METEOR","status":"PUBLISHED","created":"2018","lastUpdated":"2018","lastActive":"no","area":0.5583741907798839,"changesets":105,"mappers":10,"roads":1.83379910834756,"buildings":757,"edits":834,"latest":"2018-10-31T08:17:39.000Z"},"geometry":{"type":"Point","coordinates":[39.169724511382,-6.9352240012431]}},{"type":"Feature","properties":{"id":5427,"title":"Tanzania missing buildings Mwanga District","status":"PUBLISHED","created":"2018","lastUpdated":"2018","lastActive":"no","area":531.5288207222752,"changesets":3686,"mappers":372,"roads":273.748041333242,"buildings":32081,"edits":33618,"latest":"2018-11-16T05:03:24.000Z"},"geometry":{"type":"Point","coordinates":[37.6385252591535,-3.69810262753919]}},{"type":"Feature","properties":{"id":5389,"title":"Karakata_METEOR","status":"PUBLISHED","created":"2018","lastUpdated":"2018","lastActive":"no","area":0.06278618638144412,"changesets":169,"mappers":16,"roads":0.00354592966511319,"buildings":653,"edits":657,"latest":"2018-10-29T08:18:50.000Z"},"geometry":{"type":"Point","coordinates":[39.2067495928809,-6.8487382427679]}},{"type":"Feature","properties":{"id":4571,"title":"Kasulu, Kasulu, Tanzania Mini Grids Project 04","status":"PUBLISHED","created":"2018","lastUpdated":"2018","lastActive":"no","area":2136.1760422465886,"changesets":2503,"mappers":67,"roads":13.868987608162,"buildings":55856,"edits":56705,"latest":"2018-09-05T09:57:12.000Z"},"geometry":{"type":"Point","coordinates":[30.0208203583934,-4.68429365785836]}},{"type":"Feature","properties":{"id":5194,"title":"Hananasifu","status":"PUBLISHED","created":"2018","lastUpdated":"2018","lastActive":"no","area":1.8382439011755702,"changesets":775,"mappers":19,"roads":3.34109193738526,"buildings":6357,"edits":7943,"latest":"2018-10-03T07:37:03.000Z"},"geometry":{"type":"Point","coordinates":[39.2696283358805,-6.79609178054355]}},{"type":"Feature","properties":{"id":5201,"title":"Mbagala Kuu","status":"PUBLISHED","created":"2018","lastUpdated":"2018","lastActive":"no","area":6.586352566704119,"changesets":696,"mappers":18,"roads":2.03386537084955,"buildings":7935,"edits":8531,"latest":"2018-10-18T10:59:16.000Z"},"geometry":{"type":"Point","coordinates":[39.2823935446052,-6.90745859327607]}},{"type":"Feature","properties":{"id":5131,"title":"Mwanga","status":"PUBLISHED","created":"2018","lastUpdated":"2018","lastActive":"no","area":3782.6420454970325,"changesets":569,"mappers":80,"roads":7.81830506173643,"buildings":21219,"edits":21349,"latest":"2018-09-05T19:32:28.000Z"},"geometry":{"type":"Point","coordinates":[37.5770749373082,-3.7639028140101]}},{"type":"Feature","properties":{"id":4570,"title":"Kasulu, Kasulu, Tanzania Mini Grids Project 03","status":"PUBLISHED","created":"2018","lastUpdated":"2018","lastActive":"no","area":1652.0254948432712,"changesets":774,"mappers":62,"roads":0.25450019539659,"buildings":10336,"edits":10388,"latest":"2018-07-18T11:48:21.000Z"},"geometry":{"type":"Point","coordinates":[30.5130429954929,-4.22710402465406]}},{"type":"Feature","properties":{"id":5155,"title":"Temeke","status":"PUBLISHED","created":"2018","lastUpdated":"2018","lastActive":"no","area":2.940691262220834,"changesets":949,"mappers":23,"roads":0.984664545466694,"buildings":7916,"edits":9508,"latest":"2018-10-08T14:01:02.000Z"},"geometry":{"type":"Point","coordinates":[39.2555695686437,-6.85004422213022]}},{"type":"Feature","properties":{"id":5338,"title":"Tabata_Msimbazi","status":"PUBLISHED","created":"2018","lastUpdated":"2018","lastActive":"no","area":2.7361327645312596,"changesets":598,"mappers":22,"roads":1.52976158880248,"buildings":5381,"edits":5750,"latest":"2018-10-29T18:04:45.000Z"},"geometry":{"type":"Point","coordinates":[39.2210232072559,-6.83783297253043]}},{"type":"Feature","properties":{"id":5027,"title":"Ilala","status":"PUBLISHED","created":"2018","lastUpdated":"2018","lastActive":"no","area":2.1401569895589914,"changesets":990,"mappers":36,"roads":0.685158972388243,"buildings":8391,"edits":9512,"latest":"2018-09-05T11:06:57.000Z"},"geometry":{"type":"Point","coordinates":[39.2595696928926,-6.82787629400169]}},{"type":"Feature","properties":{"id":5011,"title":"Jangwani","status":"PUBLISHED","created":"2018","lastUpdated":"2018","lastActive":"no","area":0.6459967593125133,"changesets":490,"mappers":40,"roads":0.568461679535798,"buildings":3198,"edits":3929,"latest":"2018-09-21T12:34:17.000Z"},"geometry":{"type":"Point","coordinates":[39.2733984600485,-6.81599868171233]}},{"type":"Feature","properties":{"id":5493,"title":"Tanzania missing buildings Kiteto District","status":"PUBLISHED","created":"2018","lastUpdated":"2018","lastActive":"yes","area":1290.482831031305,"changesets":792,"mappers":64,"roads":2.4081105197629,"buildings":3554,"edits":3629,"latest":"2018-11-22T09:24:40.000Z"},"geometry":{"type":"Point","coordinates":[36.7472050387162,-5.46671531227146]}},{"type":"Feature","properties":{"id":4250,"title":"Manyara","status":"ARCHIVED","created":"2018","lastUpdated":"2018","lastActive":"no","area":63.093260840318564,"changesets":0,"mappers":0,"roads":0,"buildings":0,"edits":0,"latest":null},"geometry":{"type":"Point","coordinates":[35.3368133697752,-4.30430004427207]}},{"type":"Feature","properties":{"id":4211,"title":"Tanzania Development Trust: Kayanga Karagwe Community Mapping Project","status":"ARCHIVED","created":"2018","lastUpdated":"2018","lastActive":"no","area":9.817134429272661,"changesets":2030,"mappers":111,"roads":257.875156407586,"buildings":6739,"edits":9339,"latest":"2018-06-25T20:44:51.000Z"},"geometry":{"type":"Point","coordinates":[31.1517912801376,-1.53378723172487]}},{"type":"Feature","properties":{"id":4166,"title":"Tanzania Development Trust: Shinyanga East community mapping project","status":"PUBLISHED","created":"2018","lastUpdated":"2018","lastActive":"yes","area":1007.0589397559861,"changesets":4070,"mappers":502,"roads":2606.90799407099,"buildings":34115,"edits":46660,"latest":"2018-11-21T18:20:33.000Z"},"geometry":{"type":"Point","coordinates":[33.6837535541805,-3.51751040221294]}},{"type":"Feature","properties":{"id":3251,"title":"Tanzania Development Trust: Masasi district, Mtwara Region","status":"PUBLISHED","created":"2017","lastUpdated":"2018","lastActive":"yes","area":1622.139093292662,"changesets":2463,"mappers":183,"roads":4785.67042099275,"buildings":85492,"edits":125435,"latest":"2018-11-21T20:33:24.000Z"},"geometry":{"type":"Point","coordinates":[38.7777142279862,-10.7640181242256]}},{"type":"Feature","properties":{"id":3826,"title":"Tanzania Development Trust: Ihanda Community Mapping Project","status":"ARCHIVED","created":"2017","lastUpdated":"2018","lastActive":"no","area":84.22986494226826,"changesets":308,"mappers":18,"roads":373.737137847268,"buildings":3803,"edits":6185,"latest":"2018-06-21T20:32:04.000Z"},"geometry":{"type":"Point","coordinates":[31.088492540636,-1.549140845654]}},{"type":"Feature","properties":{"id":4254,"title":"Manyara_minigrids","status":"ARCHIVED","created":"2018","lastUpdated":"2018","lastActive":"no","area":63.093260840318564,"changesets":0,"mappers":0,"roads":0,"buildings":0,"edits":0,"latest":null},"geometry":{"type":"Point","coordinates":[35.3368133697752,-4.30430004427207]}},{"type":"Feature","properties":{"id":5204,"title":"Makumbusho","status":"PUBLISHED","created":"2018","lastUpdated":"2018","lastActive":"no","area":1.7495807696096894,"changesets":1019,"mappers":20,"roads":5.8505806882872,"buildings":7506,"edits":9235,"latest":"2018-11-07T13:50:16.000Z"},"geometry":{"type":"Point","coordinates":[39.2508110711774,-6.78966677791311]}},{"type":"Feature","properties":{"id":5191,"title":"Arusha Urban","status":"PUBLISHED","created":"2018","lastUpdated":"2018","lastActive":"no","area":21.060253845499485,"changesets":416,"mappers":40,"roads":6.50091898417892,"buildings":9367,"edits":9585,"latest":"2018-11-15T12:15:14.000Z"},"geometry":{"type":"Point","coordinates":[36.6801067826224,-3.35473835249449]}},{"type":"Feature","properties":{"id":2095,"title":"MSD & JSI/USAID Tanzania Road Import - Mara region","status":"PUBLISHED","created":"2016","lastUpdated":"2016","lastActive":"no","area":18583.120612545095,"changesets":412,"mappers":12,"roads":2664.66783599299,"buildings":2995,"edits":11152,"latest":"2016-12-02T22:57:06.000Z"},"geometry":{"type":"Point","coordinates":[34.2964225881828,-1.80037216405206]}},{"type":"Feature","properties":{"id":5166,"title":"Mbeya_mbalizi","status":"PUBLISHED","created":"2018","lastUpdated":"2018","lastActive":"no","area":4.490606172472349,"changesets":997,"mappers":124,"roads":7.51774112907024,"buildings":10937,"edits":11617,"latest":"2018-09-07T08:30:01.000Z"},"geometry":{"type":"Point","coordinates":[33.3401519377328,-8.93506614586956]}},{"type":"Feature","properties":{"id":5159,"title":"Mbeya","status":"PUBLISHED","created":"2018","lastUpdated":"2018","lastActive":"no","area":8.421146412497725,"changesets":887,"mappers":139,"roads":3.09824799104304,"buildings":6638,"edits":6994,"latest":"2018-09-07T08:19:25.000Z"},"geometry":{"type":"Point","coordinates":[33.4236752858494,-8.89458266134112]}},{"type":"Feature","properties":{"id":5148,"title":"Magomeni","status":"PUBLISHED","created":"2018","lastUpdated":"2018","lastActive":"no","area":1.0950286991089058,"changesets":537,"mappers":24,"roads":1.68967398993952,"buildings":4473,"edits":5416,"latest":"2018-11-02T07:59:40.000Z"},"geometry":{"type":"Point","coordinates":[39.2615816536214,-6.80400422217293]}},{"type":"Feature","properties":{"id":5151,"title":"Sandali","status":"PUBLISHED","created":"2018","lastUpdated":"2018","lastActive":"no","area":2.754693570123113,"changesets":1143,"mappers":35,"roads":0.699111235055833,"buildings":7843,"edits":8260,"latest":"2018-09-18T13:58:19.000Z"},"geometry":{"type":"Point","coordinates":[39.2468576140869,-6.85541663438858]}},{"type":"Feature","properties":{"id":5029,"title":"Kigogo","status":"PUBLISHED","created":"2018","lastUpdated":"2018","lastActive":"no","area":1.919044857626449,"changesets":1335,"mappers":37,"roads":2.99758976000865,"buildings":13712,"edits":15491,"latest":"2018-08-31T08:16:38.000Z"},"geometry":{"type":"Point","coordinates":[39.245687327176,-6.81863004202305]}},{"type":"Feature","properties":{"id":5021,"title":"Upanga_Mashariki","status":"PUBLISHED","created":"2018","lastUpdated":"2018","lastActive":"no","area":1.4528463303068069,"changesets":556,"mappers":36,"roads":0.210929800621173,"buildings":3591,"edits":3907,"latest":"2018-08-23T07:15:45.000Z"},"geometry":{"type":"Point","coordinates":[39.2817166819394,-6.80692717291293]}},{"type":"Feature","properties":{"id":4424,"title":"Tunduru, Ruvuma, Tanzania Mini Grids Project 02","status":"PUBLISHED","created":"2018","lastUpdated":"2018","lastActive":"no","area":1549.6766515243964,"changesets":855,"mappers":63,"roads":0.0711115935309787,"buildings":21117,"edits":21136,"latest":"2018-05-07T07:56:42.000Z"},"geometry":{"type":"Point","coordinates":[37.1622341886943,-11.3445956375813]}},{"type":"Feature","properties":{"id":2578,"title":"Tanzania Development Trust: Maswa district mapping project part 1","status":"PUBLISHED","created":"2017","lastUpdated":"2017","lastActive":"no","area":159.57894576974346,"changesets":798,"mappers":47,"roads":907.460387698831,"buildings":10840,"edits":16860,"latest":"2018-06-24T09:29:40.000Z"},"geometry":{"type":"Point","coordinates":[33.8183321244147,-3.27981056061139]}},{"type":"Feature","properties":{"id":4070,"title":"kagera_1","status":"PUBLISHED","created":"2018","lastUpdated":"2018","lastActive":"no","area":36.69351653109927,"changesets":104,"mappers":15,"roads":21.2106946154807,"buildings":1058,"edits":1199,"latest":"2018-11-16T15:00:56.000Z"},"geometry":{"type":"Point","coordinates":[31.8764181723125,-1.66503615309336]}},{"type":"Feature","properties":{"id":4099,"title":"Kigoma_13","status":"PUBLISHED","created":"2018","lastUpdated":"2018","lastActive":"no","area":2.897626588524291,"changesets":98,"mappers":5,"roads":0.000234970678110244,"buildings":1712,"edits":1719,"latest":"2018-02-12T06:40:16.000Z"},"geometry":{"type":"Point","coordinates":[29.6580900736946,-4.48594525532537]}},{"type":"Feature","properties":{"id":4824,"title":"Zanzibar-Digitization","status":"PUBLISHED","created":"2018","lastUpdated":"2018","lastActive":"no","area":448.3142744445994,"changesets":603,"mappers":31,"roads":4.54690549735974,"buildings":12573,"edits":12893,"latest":"2018-08-17T09:34:31.000Z"},"geometry":{"type":"Point","coordinates":[39.2874808727826,-5.91212678450974]}},{"type":"Feature","properties":{"id":2125,"title":"Missing Maps: Dar es Salaam - Ramani Huria 7","status":"PUBLISHED","created":"2016","lastUpdated":"2017","lastActive":"no","area":15.59172030179052,"changesets":681,"mappers":54,"roads":23.3546858581493,"buildings":15759,"edits":16703,"latest":"2017-12-11T17:19:19.000Z"},"geometry":{"type":"Point","coordinates":[39.2272702302774,-6.72482139604585]}},{"type":"Feature","properties":{"id":4323,"title":"Tanzania Development Trust: Simiyu South","status":"PUBLISHED","created":"2018","lastUpdated":"2018","lastActive":"yes","area":3977.4740524717954,"changesets":7546,"mappers":556,"roads":5398.28814042806,"buildings":89531,"edits":107211,"latest":"2018-11-20T22:35:37.000Z"},"geometry":{"type":"Point","coordinates":[34.3684346241635,-3.14466084541383]}},{"type":"Feature","properties":{"id":4236,"title":"Tanzania Development Trust: Mitwero, Lindi Community Mapping Project","status":"ARCHIVED","created":"2018","lastUpdated":"2018","lastActive":"no","area":80.77775171781835,"changesets":528,"mappers":67,"roads":468.376805254013,"buildings":2230,"edits":4918,"latest":"2018-06-22T20:06:01.000Z"},"geometry":{"type":"Point","coordinates":[39.7342788001324,-9.91500147746219]}},{"type":"Feature","properties":{"id":4778,"title":"Chato District Villages, Geita Region, Tanzania Mini Grids Project","status":"PUBLISHED","created":"2018","lastUpdated":"2018","lastActive":"no","area":4421.105608459506,"changesets":4930,"mappers":59,"roads":55.2059060410998,"buildings":266071,"edits":266569,"latest":"2018-08-02T09:44:15.000Z"},"geometry":{"type":"Point","coordinates":[32.0397914259504,-2.93095561585775]}},{"type":"Feature","properties":{"id":2050,"title":"MSD & JSI/USAID Tanzania Road Import - Morogoro region","status":"PUBLISHED","created":"2016","lastUpdated":"2016","lastActive":"no","area":28136.915277094853,"changesets":232,"mappers":9,"roads":5403.72286464984,"buildings":8,"edits":6562,"latest":"2016-08-17T09:47:25.000Z"},"geometry":{"type":"Point","coordinates":[37.1326578119178,-7.21230071196328]}},{"type":"Feature","properties":{"id":3650,"title":"Zanzibar Roads - Unguja Island - 01","status":"PUBLISHED","created":"2017","lastUpdated":"2017","lastActive":"no","area":234.75514110431052,"changesets":573,"mappers":18,"roads":1191.68951939582,"buildings":43,"edits":17373,"latest":"2017-10-07T12:28:50.000Z"},"geometry":{"type":"Point","coordinates":[39.2486087200348,-6.16759671156422]}},{"type":"Feature","properties":{"id":3204,"title":"PEPFAR Tanzania: Kyela (Coast)","status":"PUBLISHED","created":"2017","lastUpdated":"2018","lastActive":"no","area":267.9000890686287,"changesets":2170,"mappers":236,"roads":904.598187828586,"buildings":19959,"edits":29760,"latest":"2018-11-15T20:05:32.000Z"},"geometry":{"type":"Point","coordinates":[33.8624923854606,-9.60932245038593]}},{"type":"Feature","properties":{"id":1971,"title":"MSD & JSI/USAID Tanzania Road Import - Arusha region","status":"PUBLISHED","created":"2016","lastUpdated":"2017","lastActive":"no","area":31245.987566415035,"changesets":35,"mappers":2,"roads":4684.0273299004,"buildings":2,"edits":2696,"latest":"2016-06-26T10:45:01.000Z"},"geometry":{"type":"Point","coordinates":[36.012472285039,-2.97438359363947]}},{"type":"Feature","properties":{"id":3078,"title":"Tanzania Development Trust: Ishunju, Ishozi and Gera districts community mapping project ","status":"ARCHIVED","created":"2017","lastUpdated":"2018","lastActive":"no","area":117.52166194056245,"changesets":514,"mappers":48,"roads":167.554220708217,"buildings":5211,"edits":9222,"latest":"2018-07-03T14:55:27.000Z"},"geometry":{"type":"Point","coordinates":[31.7577065704359,-1.19192302980064]}},{"type":"Feature","properties":{"id":2000,"title":"MSD & JSI/USAID Tanzania Road Import - Kagera region","status":"PUBLISHED","created":"2016","lastUpdated":"2017","lastActive":"no","area":20054.048144070715,"changesets":358,"mappers":13,"roads":5109.7295790206,"buildings":602,"edits":5030,"latest":"2016-09-01T07:25:22.000Z"},"geometry":{"type":"Point","coordinates":[31.2939426199718,-2.04845084133451]}},{"type":"Feature","properties":{"id":3329,"title":"Ramani Huria 2.0 Session 01","status":"PUBLISHED","created":"2017","lastUpdated":"2017","lastActive":"no","area":31.68859428995046,"changesets":257,"mappers":67,"roads":32.0605720986966,"buildings":1717,"edits":2201,"latest":"2017-08-10T21:06:16.000Z"},"geometry":{"type":"Point","coordinates":[36.0471962350792,-7.67799543151297]}},{"type":"Feature","properties":{"id":3313,"title":"Tanzania Development Trust: Muzye, Muhunga and Bugaga wards community mapping project ","status":"PUBLISHED","created":"2017","lastUpdated":"2018","lastActive":"no","area":467.01646755665894,"changesets":1341,"mappers":90,"roads":2020.46900906235,"buildings":22149,"edits":37326,"latest":"2018-11-18T06:53:32.000Z"},"geometry":{"type":"Point","coordinates":[30.0142412007814,-4.64239965954966]}},{"type":"Feature","properties":{"id":3319,"title":"Tanzania Development Trust and Institute for Rural Development Planning: Mvomero district student mapping project ","status":"PUBLISHED","created":"2017","lastUpdated":"2018","lastActive":"no","area":1439.4586268120136,"changesets":1012,"mappers":17,"roads":283.826662966217,"buildings":908,"edits":2232,"latest":"2018-09-27T19:29:14.000Z"},"geometry":{"type":"Point","coordinates":[37.5490091358043,-6.45241297893469]}},{"type":"Feature","properties":{"id":3334,"title":"Missing Maps: Dar es Salaam - Ramani Huria 2.0 - 04","status":"ARCHIVED","created":"2017","lastUpdated":"2017","lastActive":"no","area":23.992288124749287,"changesets":1440,"mappers":66,"roads":2.67422736285062,"buildings":11427,"edits":11769,"latest":"2017-08-11T19:30:56.000Z"},"geometry":{"type":"Point","coordinates":[39.1797498188247,-6.72221487133731]}},{"type":"Feature","properties":{"id":3697,"title":"Missing Maps: Mbeya - Data Zetu","status":"PUBLISHED","created":"2017","lastUpdated":"2018","lastActive":"no","area":39.48024643275634,"changesets":2341,"mappers":21,"roads":8.22290546014696,"buildings":79468,"edits":79939,"latest":"2018-07-25T09:58:02.000Z"},"geometry":{"type":"Point","coordinates":[33.4619735342138,-8.92674455878147]}},{"type":"Feature","properties":{"id":4072,"title":"kagera_3","status":"PUBLISHED","created":"2018","lastUpdated":"2018","lastActive":"no","area":5.425110699350517,"changesets":66,"mappers":4,"roads":0,"buildings":1436,"edits":1436,"latest":"2018-01-30T06:14:28.000Z"},"geometry":{"type":"Point","coordinates":[31.7868173826187,-1.9820906918101]}},{"type":"Feature","properties":{"id":4749,"title":"Njombe Region, Tanzania Mini Grids Project 04","status":"PUBLISHED","created":"2018","lastUpdated":"2018","lastActive":"no","area":2091.750428289223,"changesets":1152,"mappers":60,"roads":0.294694169499839,"buildings":42342,"edits":42390,"latest":"2018-06-25T11:40:34.000Z"},"geometry":{"type":"Point","coordinates":[34.6803178040892,-9.20303839806522]}},{"type":"Feature","properties":{"id":4804,"title":"Priority Villages, Shinyanga Region, Tanzania Mini Grids Project","status":"PUBLISHED","created":"2018","lastUpdated":"2018","lastActive":"no","area":1465.614946569395,"changesets":1321,"mappers":44,"roads":0.221320667325215,"buildings":61883,"edits":61936,"latest":"2018-11-15T09:30:56.000Z"},"geometry":{"type":"Point","coordinates":[32.879747752917,-4.01346413808607]}},{"type":"Feature","properties":{"id":4799,"title":"Priority Villages, Arusha Region, Tanzania Mini Grids Project","status":"PUBLISHED","created":"2018","lastUpdated":"2018","lastActive":"no","area":188.40438855389118,"changesets":190,"mappers":24,"roads":0.065129375727978,"buildings":5995,"edits":6000,"latest":"2018-06-27T08:53:12.000Z"},"geometry":{"type":"Point","coordinates":[35.7093307611836,-2.32524942071168]}},{"type":"Feature","properties":{"id":4401,"title":"Kipili Ward, Rukwa, Tanzania Mini Grids Project 01","status":"PUBLISHED","created":"2018","lastUpdated":"2018","lastActive":"no","area":180.26824654575853,"changesets":455,"mappers":51,"roads":0.000599220796289046,"buildings":9512,"edits":9513,"latest":"2018-05-08T10:13:16.000Z"},"geometry":{"type":"Point","coordinates":[30.6487933655884,-7.46688534597107]}},{"type":"Feature","properties":{"id":4353,"title":"Urambo, Tabora, Tanzania Mini Grids Project 06","status":"PUBLISHED","created":"2018","lastUpdated":"2018","lastActive":"no","area":1555.7313427834936,"changesets":2204,"mappers":67,"roads":0.0376777707116761,"buildings":58216,"edits":58229,"latest":"2018-06-29T06:36:08.000Z"},"geometry":{"type":"Point","coordinates":[31.8599232080963,-4.91518059883278]}},{"type":"Feature","properties":{"id":3454,"title":"Missing Maps: Dar es Salaam - Ramani Huria 2.0 - 32","status":"ARCHIVED","created":"2017","lastUpdated":"2017","lastActive":"no","area":148.77453796641805,"changesets":2812,"mappers":53,"roads":500.637012890815,"buildings":23079,"edits":38338,"latest":"2017-10-17T04:22:49.000Z"},"geometry":{"type":"Point","coordinates":[39.1340184011576,-6.6957405723263]}},{"type":"Feature","properties":{"id":4242,"title":"Kalobe-Data Zetu","status":"PUBLISHED","created":"2018","lastUpdated":"2018","lastActive":"no","area":5.581452341462152,"changesets":531,"mappers":5,"roads":0.0106237188235286,"buildings":6096,"edits":6109,"latest":"2018-03-07T09:02:49.000Z"},"geometry":{"type":"Point","coordinates":[33.4118519974232,-8.91506853593005]}},{"type":"Feature","properties":{"id":4234,"title":"Tanzania Development Trust: Sigunga Kigoma Community Mapping Project","status":"ARCHIVED","created":"2018","lastUpdated":"2018","lastActive":"no","area":818.7157786819456,"changesets":1881,"mappers":148,"roads":845.753785159551,"buildings":5279,"edits":10353,"latest":"2018-04-11T09:53:47.000Z"},"geometry":{"type":"Point","coordinates":[30.0041057178603,-5.67930749441936]}},{"type":"Feature","properties":{"id":4076,"title":"Shinyanga_Tabora_Geita","status":"PUBLISHED","created":"2018","lastUpdated":"2018","lastActive":"no","area":3994.8430365253507,"changesets":50,"mappers":14,"roads":0.000161002645333808,"buildings":2248,"edits":2251,"latest":"2018-08-23T03:54:33.000Z"},"geometry":{"type":"Point","coordinates":[31.8409955510823,-4.30414913053918]}},{"type":"Feature","properties":{"id":4955,"title":"Msigani, Dar es Salaam - Ramani Huria 2.0","status":"PUBLISHED","created":"2018","lastUpdated":"2018","lastActive":"no","area":14.732300581422955,"changesets":75,"mappers":19,"roads":0.408947956373816,"buildings":768,"edits":791,"latest":"2018-08-31T08:18:28.000Z"},"geometry":{"type":"Point","coordinates":[39.1166689708451,-6.80285279520175]}},{"type":"Feature","properties":{"id":3159,"title":"Tanzania Development Trust: Singida district community mapping project ","status":"PUBLISHED","created":"2017","lastUpdated":"2018","lastActive":"no","area":746.5381861519145,"changesets":8150,"mappers":372,"roads":10510.3568767361,"buildings":97686,"edits":203262,"latest":"2018-08-01T11:02:23.000Z"},"geometry":{"type":"Point","coordinates":[34.973843496759,-4.67540763811596]}},{"type":"Feature","properties":{"id":4719,"title":"Songea Rural, Ruvuma, Tanzania Mini Grids Project 05","status":"PUBLISHED","created":"2018","lastUpdated":"2018","lastActive":"no","area":2073.141928637436,"changesets":1420,"mappers":54,"roads":0.925980022800688,"buildings":30459,"edits":30541,"latest":"2018-06-12T10:58:13.000Z"},"geometry":{"type":"Point","coordinates":[35.4782949633589,-10.7224020173536]}},{"type":"Feature","properties":{"id":3971,"title":"Tanzania Development Trust: 2nd Mtwara Community Mapping Project","status":"ARCHIVED","created":"2018","lastUpdated":"2018","lastActive":"no","area":98.24692106163043,"changesets":687,"mappers":24,"roads":511.802625732125,"buildings":11183,"edits":19631,"latest":"2018-06-22T19:53:56.000Z"},"geometry":{"type":"Point","coordinates":[39.428959871461,-10.8447995271352]}},{"type":"Feature","properties":{"id":4528,"title":"Central Singida, Singida, Tanzania Mini Grids Project 04 South","status":"PUBLISHED","created":"2018","lastUpdated":"2018","lastActive":"no","area":2679.1732629690173,"changesets":1170,"mappers":63,"roads":0.0259764287875841,"buildings":20358,"edits":20362,"latest":"2018-05-17T13:46:29.000Z"},"geometry":{"type":"Point","coordinates":[34.7279889209458,-5.4378630362986]}},{"type":"Feature","properties":{"id":4518,"title":"Central Singida, Singida, Tanzania Mini Grids Project 02","status":"PUBLISHED","created":"2018","lastUpdated":"2018","lastActive":"no","area":1414.1192851427202,"changesets":882,"mappers":58,"roads":0.0239845493890909,"buildings":17063,"edits":17069,"latest":"2018-05-17T08:50:47.000Z"},"geometry":{"type":"Point","coordinates":[34.4158854962968,-5.10944094991503]}},{"type":"Feature","properties":{"id":2609,"title":"Tanzania Development Trust: Maswa district mapping project part 2","status":"ARCHIVED","created":"2017","lastUpdated":"2017","lastActive":"no","area":562.8015857815028,"changesets":3334,"mappers":121,"roads":2584.15851997412,"buildings":32479,"edits":61974,"latest":"2017-07-23T02:02:02.000Z"},"geometry":{"type":"Point","coordinates":[33.8216815175903,-3.13671054186429]}},{"type":"Feature","properties":{"id":3352,"title":"Missing Maps: Dar es Salaam - Ramani Huria 2.0 - 07","status":"ARCHIVED","created":"2017","lastUpdated":"2017","lastActive":"no","area":43.602163515930684,"changesets":1015,"mappers":62,"roads":384.282174733634,"buildings":221,"edits":8861,"latest":"2017-08-04T07:19:27.000Z"},"geometry":{"type":"Point","coordinates":[39.1225445864321,-6.72392047199685]}},{"type":"Feature","properties":{"id":3431,"title":"Missing Maps: Iringa - OpenStreetMap Tanzania","status":"PUBLISHED","created":"2017","lastUpdated":"2018","lastActive":"no","area":13.946474979484007,"changesets":682,"mappers":57,"roads":22.5822159299126,"buildings":4795,"edits":5743,"latest":"2018-09-23T18:49:09.000Z"},"geometry":{"type":"Point","coordinates":[35.7043219148728,-7.76082147715177]}},{"type":"Feature","properties":{"id":2364,"title":"PEPFAR Tanzania: Mbeya CC West","status":"ARCHIVED","created":"2016","lastUpdated":"2017","lastActive":"no","area":313.7964362335892,"changesets":723,"mappers":60,"roads":144.308325077847,"buildings":11368,"edits":14015,"latest":"2017-02-16T17:25:26.000Z"},"geometry":{"type":"Point","coordinates":[33.4157752990723,-8.91982473995592]}},{"type":"Feature","properties":{"id":4556,"title":"Manyoni, Singida, Tanzania Mini Grids Project 06","status":"PUBLISHED","created":"2018","lastUpdated":"2018","lastActive":"no","area":3110.180831968628,"changesets":1901,"mappers":69,"roads":0.0988541090635963,"buildings":35125,"edits":35164,"latest":"2018-07-11T13:29:54.000Z"},"geometry":{"type":"Point","coordinates":[33.9208946952443,-6.69112747679568]}},{"type":"Feature","properties":{"id":1389,"title":" Missing Maps: Dar es Salaam - Ramani Huria2","status":"ARCHIVED","created":"2015","lastUpdated":"2016","lastActive":"no","area":17.055250175253022,"changesets":1779,"mappers":105,"roads":2952.23609891391,"buildings":25963,"edits":29457,"latest":"2016-08-23T11:52:57.000Z"},"geometry":{"type":"Point","coordinates":[39.193973920295,-6.81759743655606]}},{"type":"Feature","properties":{"id":4723,"title":"Njombe Region, Tanzania Mini Grids Project 02","status":"PUBLISHED","created":"2018","lastUpdated":"2018","lastActive":"no","area":1983.7355070009462,"changesets":1103,"mappers":56,"roads":0.208227637578225,"buildings":50720,"edits":50749,"latest":"2018-06-13T07:14:52.000Z"},"geometry":{"type":"Point","coordinates":[34.5029185619066,-8.98827863427251]}},{"type":"Feature","properties":{"id":4378,"title":"Tunduru, Ruvuma, Tanzania Mini Grids Project 03","status":"PUBLISHED","created":"2018","lastUpdated":"2018","lastActive":"no","area":1369.2568876847938,"changesets":1018,"mappers":60,"roads":0.263537837490913,"buildings":23394,"edits":23430,"latest":"2018-05-03T13:14:28.000Z"},"geometry":{"type":"Point","coordinates":[37.4088345476761,-11.1598554676675]}},{"type":"Feature","properties":{"id":4105,"title":"Kigoma_17","status":"PUBLISHED","created":"2018","lastUpdated":"2018","lastActive":"no","area":4.227050493859274,"changesets":84,"mappers":8,"roads":0.193564177598396,"buildings":1322,"edits":1325,"latest":"2018-02-22T12:12:21.000Z"},"geometry":{"type":"Point","coordinates":[29.9287252179311,-5.73757948308089]}},{"type":"Feature","properties":{"id":4583,"title":"Tabora, Tabora, Tanzania Mini Grids Project 01","status":"PUBLISHED","created":"2018","lastUpdated":"2018","lastActive":"no","area":1907.1663208860407,"changesets":1628,"mappers":58,"roads":1.72537869257951,"buildings":34604,"edits":34909,"latest":"2018-06-21T06:45:40.000Z"},"geometry":{"type":"Point","coordinates":[32.6124136655299,-4.68181965916938]}},{"type":"Feature","properties":{"id":1194,"title":"MSD & JSI/USAID Tanzania Road Import - Mtwara & Lindi Regions + Tunduru District","status":"PUBLISHED","created":"2015","lastUpdated":"2016","lastActive":"no","area":59075.33727007736,"changesets":95,"mappers":14,"roads":8427.25928271959,"buildings":232,"edits":9140,"latest":"2015-09-27T16:09:33.000Z"},"geometry":{"type":"Point","coordinates":[38.6918770231749,-10.1588297147212]}},{"type":"Feature","properties":{"id":4097,"title":"Kigoma_11","status":"PUBLISHED","created":"2018","lastUpdated":"2018","lastActive":"no","area":4.492849273495634,"changesets":215,"mappers":4,"roads":0,"buildings":5705,"edits":5705,"latest":"2018-02-09T07:23:31.000Z"},"geometry":{"type":"Point","coordinates":[29.8986551180688,-5.94544192098447]}},{"type":"Feature","properties":{"id":1120,"title":"Missing Maps: Dar es Salaam (drone imagery)","status":"ARCHIVED","created":"2015","lastUpdated":"2017","lastActive":"no","area":40.83231488189995,"changesets":537,"mappers":49,"roads":42.810331637783,"buildings":9160,"edits":10112,"latest":"2015-09-28T15:01:19.000Z"},"geometry":{"type":"Point","coordinates":[39.2418397697296,-6.803097216574]}},{"type":"Feature","properties":{"id":1040,"title":"Ngorongoro Conservation Area","status":"PUBLISHED","created":"2015","lastUpdated":"2017","lastActive":"no","area":8640.922363295951,"changesets":4,"mappers":4,"roads":0.858932545129337,"buildings":9,"edits":22,"latest":"2018-11-05T21:26:14.000Z"},"geometry":{"type":"Point","coordinates":[35.3664176041182,-3.069196107836]}},{"type":"Feature","properties":{"id":4991,"title":"Data Zetu Hotsports_Mbeya","status":"PUBLISHED","created":"2018","lastUpdated":"2018","lastActive":"no","area":16.90944585735463,"changesets":1032,"mappers":30,"roads":0.570750636793558,"buildings":19667,"edits":19935,"latest":"2018-08-14T07:22:14.000Z"},"geometry":{"type":"Point","coordinates":[33.4961424334101,-8.92572377814541]}},{"type":"Feature","properties":{"id":1069,"title":"Missing Maps: Kigoma region, Tanzania","status":"ARCHIVED","created":"2015","lastUpdated":"2016","lastActive":"no","area":11794.499304666606,"changesets":8723,"mappers":260,"roads":12833.6849132917,"buildings":38357,"edits":107634,"latest":"2016-08-27T03:06:26.000Z"},"geometry":{"type":"Point","coordinates":[30.1513980652556,-4.5869623381225]}},{"type":"Feature","properties":{"id":3699,"title":"Missing Maps: Temeke - Data Zetu","status":"PUBLISHED","created":"2017","lastUpdated":"2018","lastActive":"no","area":14.051390146474496,"changesets":931,"mappers":30,"roads":58.5254100191776,"buildings":29137,"edits":33372,"latest":"2018-03-09T20:29:21.000Z"},"geometry":{"type":"Point","coordinates":[39.2689216235374,-6.89604721588135]}},{"type":"Feature","properties":{"id":4035,"title":"TZ IFC Mini-grids house count test-1","status":"PUBLISHED","created":"2018","lastUpdated":"2018","lastActive":"no","area":481.70619678590833,"changesets":3,"mappers":3,"roads":0,"buildings":180,"edits":180,"latest":"2018-02-09T12:27:18.000Z"},"geometry":{"type":"Point","coordinates":[33.965651545629,-6.53613031653059]}},{"type":"Feature","properties":{"id":4648,"title":"Lituhi, Luhagara, Ruanda Villages, Tanzania Mini Grids Project","status":"PUBLISHED","created":"2018","lastUpdated":"2018","lastActive":"no","area":8.186367673131722,"changesets":107,"mappers":30,"roads":0.135942160373434,"buildings":3904,"edits":3924,"latest":"2018-06-02T13:59:59.000Z"},"geometry":{"type":"Point","coordinates":[34.8120555554809,-10.543189622308]}},{"type":"Feature","properties":{"id":4646,"title":"Chemba District Villages, Tanzania Mini Grids Project","status":"PUBLISHED","created":"2018","lastUpdated":"2018","lastActive":"no","area":4.696678039184461,"changesets":75,"mappers":22,"roads":0.00801516130593583,"buildings":2731,"edits":2732,"latest":"2018-06-03T12:03:34.000Z"},"geometry":{"type":"Point","coordinates":[35.8524726241387,-5.16212165410825]}},{"type":"Feature","properties":{"id":4652,"title":"Chemba and Bahi Districts, Tanzania Mini Grids Project 01","status":"PUBLISHED","created":"2018","lastUpdated":"2018","lastActive":"no","area":2950.555321557993,"changesets":1731,"mappers":66,"roads":29.3981576364086,"buildings":66133,"edits":66262,"latest":"2018-06-05T14:50:27.000Z"},"geometry":{"type":"Point","coordinates":[35.736869703494,-5.08436705235821]}},{"type":"Feature","properties":{"id":3160,"title":"Tanzania Development Trust: Msisi ward community mapping project ","status":"PUBLISHED","created":"2017","lastUpdated":"2018","lastActive":"no","area":81.67279767012198,"changesets":772,"mappers":80,"roads":1098.74943739811,"buildings":3765,"edits":9852,"latest":"2018-11-19T15:31:32.000Z"},"geometry":{"type":"Point","coordinates":[34.6639591437227,-4.61768230807472]}},{"type":"Feature","properties":{"id":4509,"title":"Central Singida, Singida, Tanzania Mini Grids Project 01 East","status":"PUBLISHED","created":"2018","lastUpdated":"2018","lastActive":"no","area":1475.3604875927692,"changesets":937,"mappers":67,"roads":0.0165898988823745,"buildings":11972,"edits":11978,"latest":"2018-06-28T10:08:59.000Z"},"geometry":{"type":"Point","coordinates":[34.1286284936251,-5.08363727457584]}},{"type":"Feature","properties":{"id":5136,"title":"Tanzania Development Trust:  Manyara FGM 6","status":"PUBLISHED","created":"2018","lastUpdated":"2018","lastActive":"yes","area":1127.3539356225028,"changesets":3432,"mappers":247,"roads":1503.36486433518,"buildings":44209,"edits":47478,"latest":"2018-11-21T21:38:26.000Z"},"geometry":{"type":"Point","coordinates":[37.0715783941217,-6.08590867686194]}},{"type":"Feature","properties":{"id":4477,"title":"S. Monduli, Simanjiro, Tanzania Mini Grids - MapSwipe Project 04 - 04","status":"PUBLISHED","created":"2018","lastUpdated":"2018","lastActive":"no","area":139.74141127398454,"changesets":352,"mappers":54,"roads":0,"buildings":4700,"edits":4700,"latest":"2018-05-04T08:40:26.000Z"},"geometry":{"type":"Point","coordinates":[37.9774679014572,-5.07008836053818]}},{"type":"Feature","properties":{"id":4088,"title":"Kigoma_7","status":"PUBLISHED","created":"2018","lastUpdated":"2018","lastActive":"no","area":2.1750746662810996,"changesets":64,"mappers":6,"roads":0,"buildings":770,"edits":770,"latest":"2018-02-14T06:35:46.000Z"},"geometry":{"type":"Point","coordinates":[29.747674177169,-6.02882798381811]}},{"type":"Feature","properties":{"id":4369,"title":"Tanzania Development Trust: Kagera Road Mapping","status":"PUBLISHED","created":"2018","lastUpdated":"2018","lastActive":"no","area":15505.318016681384,"changesets":75,"mappers":7,"roads":775.676299576141,"buildings":409,"edits":1084,"latest":"2018-10-04T02:54:16.000Z"},"geometry":{"type":"Point","coordinates":[31.2684925052969,-1.52351392671619]}},{"type":"Feature","properties":{"id":4753,"title":"Njombe Region, Tanzania Mini Grids Project 07","status":"PUBLISHED","created":"2018","lastUpdated":"2018","lastActive":"no","area":2035.3854283933017,"changesets":870,"mappers":31,"roads":0.492269625730374,"buildings":19332,"edits":19400,"latest":"2018-07-02T08:36:50.000Z"},"geometry":{"type":"Point","coordinates":[34.7732339287425,-9.52302069979256]}},{"type":"Feature","properties":{"id":4422,"title":"S. Monduli, Simanjiro, Tanzania Mini Grids - MapSwipe Project 01","status":"PUBLISHED","created":"2018","lastUpdated":"2018","lastActive":"no","area":918.2087603729018,"changesets":4703,"mappers":86,"roads":7.83174281046291,"buildings":50610,"edits":50723,"latest":"2018-05-11T06:32:20.000Z"},"geometry":{"type":"Point","coordinates":[36.6076107426083,-3.61838637677281]}},{"type":"Feature","properties":{"id":4531,"title":"Manyoni, Singida, Tanzania Mini Grids Project 01","status":"PUBLISHED","created":"2018","lastUpdated":"2018","lastActive":"no","area":1326.5528682624965,"changesets":590,"mappers":59,"roads":1.45366588363026,"buildings":7569,"edits":7587,"latest":"2018-11-17T21:17:08.000Z"},"geometry":{"type":"Point","coordinates":[34.6075539482003,-5.56288622408193]}},{"type":"Feature","properties":{"id":5376,"title":"Tanzania Isolated Tertiary Highway Tags","status":"PUBLISHED","created":"2018","lastUpdated":"2018","lastActive":"no","area":2974.7878575458826,"changesets":178,"mappers":7,"roads":1494.7333276105,"buildings":1572,"edits":8728,"latest":"2018-11-20T11:55:35.000Z"},"geometry":{"type":"Point","coordinates":[34.6409452084005,-5.50791412422014]}},{"type":"Feature","properties":{"id":4489,"title":"Lindi, Lindi, Tanzania Mini Grids Project 03","status":"PUBLISHED","created":"2018","lastUpdated":"2018","lastActive":"no","area":1972.6554027241687,"changesets":1117,"mappers":68,"roads":0.712816430807669,"buildings":37574,"edits":37626,"latest":"2018-07-04T09:33:22.000Z"},"geometry":{"type":"Point","coordinates":[39.2489990334018,-10.1470862126786]}},{"type":"Feature","properties":{"id":4090,"title":"Kigoma_9","status":"PUBLISHED","created":"2018","lastUpdated":"2018","lastActive":"no","area":1.722690665551124,"changesets":290,"mappers":6,"roads":0.249339693562493,"buildings":1929,"edits":1941,"latest":"2018-02-15T09:43:50.000Z"},"geometry":{"type":"Point","coordinates":[29.8251364406655,-6.00624785298935]}},{"type":"Feature","properties":{"id":4699,"title":"Mivumoni Village, Pangani District, Tanzania Mini Grids Project","status":"PUBLISHED","created":"2018","lastUpdated":"2018","lastActive":"no","area":0.818188879689272,"changesets":78,"mappers":17,"roads":0.0276900086096642,"buildings":366,"edits":370,"latest":"2018-06-07T14:01:00.000Z"},"geometry":{"type":"Point","coordinates":[38.9036715263947,-5.30813941973504]}},{"type":"Feature","properties":{"id":4721,"title":"Songea Rural, Ruvuma, Tanzania Mini Grids Project 07","status":"PUBLISHED","created":"2018","lastUpdated":"2018","lastActive":"no","area":2150.916415219976,"changesets":529,"mappers":56,"roads":0.110758162123934,"buildings":9687,"edits":9700,"latest":"2018-08-16T06:38:13.000Z"},"geometry":{"type":"Point","coordinates":[35.5937322600906,-11.359078653805]}},{"type":"Feature","properties":{"id":4656,"title":"Chemba and Bahi Districts, Tanzania Mini Grids Project 05","status":"PUBLISHED","created":"2018","lastUpdated":"2018","lastActive":"no","area":1943.7393401406555,"changesets":2139,"mappers":66,"roads":1.37724754241375,"buildings":26302,"edits":26408,"latest":"2018-06-14T08:37:58.000Z"},"geometry":{"type":"Point","coordinates":[35.693942385692,-5.27392956674015]}},{"type":"Feature","properties":{"id":1973,"title":"MSD & JSI/USAID Tanzania Road Import - Manyara region","status":"PUBLISHED","created":"2016","lastUpdated":"2016","lastActive":"no","area":40580.74888215921,"changesets":70,"mappers":8,"roads":5229.19108914286,"buildings":8,"edits":4911,"latest":"2016-07-03T21:50:05.000Z"},"geometry":{"type":"Point","coordinates":[36.5449764408768,-4.57830216661689]}},{"type":"Feature","properties":{"id":4637,"title":"Mkakatih Village, Tanzania Mini Grids Project","status":"PUBLISHED","created":"2018","lastUpdated":"2018","lastActive":"no","area":33.36735469325082,"changesets":73,"mappers":32,"roads":0.0531955537922062,"buildings":1062,"edits":1067,"latest":"2018-06-03T11:19:19.000Z"},"geometry":{"type":"Point","coordinates":[35.361299461125,-5.90004952122001]}},{"type":"Feature","properties":{"id":4704,"title":"Songea Rural, Ruvuma, Tanzania Mini Grids Project 03","status":"PUBLISHED","created":"2018","lastUpdated":"2018","lastActive":"no","area":2223.7007441409824,"changesets":559,"mappers":53,"roads":1.3997523367762,"buildings":4565,"edits":4600,"latest":"2018-07-26T11:48:10.000Z"},"geometry":{"type":"Point","coordinates":[35.4845429905191,-10.0895331115736]}},{"type":"Feature","properties":{"id":4082,"title":"Kigoma_1","status":"PUBLISHED","created":"2018","lastUpdated":"2018","lastActive":"no","area":3.220895758602432,"changesets":128,"mappers":5,"roads":0,"buildings":3113,"edits":3113,"latest":"2018-02-19T11:05:31.000Z"},"geometry":{"type":"Point","coordinates":[30.4406843233075,-6.82013200035033]}},{"type":"Feature","properties":{"id":4620,"title":"Misungwi, Mwanza, Tanzania Mini Grids Project 01","status":"PUBLISHED","created":"2018","lastUpdated":"2018","lastActive":"no","area":1505.6277470567059,"changesets":2108,"mappers":68,"roads":13.4694336037439,"buildings":52916,"edits":53379,"latest":"2018-07-27T10:35:50.000Z"},"geometry":{"type":"Point","coordinates":[32.9858926670162,-3.06285488354204]}},{"type":"Feature","properties":{"id":4068,"title":"Kagera_Goziba","status":"PUBLISHED","created":"2018","lastUpdated":"2018","lastActive":"no","area":1.2825061201820658,"changesets":1,"mappers":1,"roads":0,"buildings":0,"edits":0,"latest":"2018-01-27T17:01:56.000Z"},"geometry":{"type":"Point","coordinates":[32.6139163551729,-1.47155678215259]}},{"type":"Feature","properties":{"id":4533,"title":"Manyoni, Singida, Tanzania Mini Grids Project 03","status":"PUBLISHED","created":"2018","lastUpdated":"2018","lastActive":"no","area":2145.5742223790444,"changesets":1111,"mappers":60,"roads":11.822358790697,"buildings":20618,"edits":21074,"latest":"2018-05-18T13:10:25.000Z"},"geometry":{"type":"Point","coordinates":[34.9997702528283,-5.75710614386221]}},{"type":"Feature","properties":{"id":4086,"title":"Kigoma_5","status":"PUBLISHED","created":"2018","lastUpdated":"2018","lastActive":"no","area":3.7491092848574272,"changesets":156,"mappers":6,"roads":0.459783989828362,"buildings":1942,"edits":1948,"latest":"2018-02-07T11:29:30.000Z"},"geometry":{"type":"Point","coordinates":[30.0140478228083,-6.47067176048628]}},{"type":"Feature","properties":{"id":4572,"title":"Kasulu, Kasulu, Tanzania Mini Grids Project 05","status":"PUBLISHED","created":"2018","lastUpdated":"2018","lastActive":"no","area":2206.993164418614,"changesets":659,"mappers":53,"roads":0.332538602551102,"buildings":7553,"edits":7645,"latest":"2018-06-21T06:47:28.000Z"},"geometry":{"type":"Point","coordinates":[30.6215386726987,-4.76597813768529]}},{"type":"Feature","properties":{"id":4079,"title":"Kagera_Goziba","status":"PUBLISHED","created":"2018","lastUpdated":"2018","lastActive":"no","area":1.1395975392255964,"changesets":0,"mappers":0,"roads":0,"buildings":0,"edits":0,"latest":null},"geometry":{"type":"Point","coordinates":[32.6139907107105,-1.47123684237771]}},{"type":"Feature","properties":{"id":4084,"title":"Kigoma_3","status":"PUBLISHED","created":"2018","lastUpdated":"2018","lastActive":"no","area":5.097450161720606,"changesets":288,"mappers":6,"roads":2.31764270978854,"buildings":6302,"edits":6359,"latest":"2018-02-08T07:46:42.000Z"},"geometry":{"type":"Point","coordinates":[30.4069129893841,-6.74299494501321]}},{"type":"Feature","properties":{"id":4258,"title":"Lindi_minigrids","status":"ARCHIVED","created":"2018","lastUpdated":"2018","lastActive":"no","area":399.008958691099,"changesets":0,"mappers":0,"roads":0,"buildings":0,"edits":0,"latest":null},"geometry":{"type":"Point","coordinates":[39.206344562057,-10.7886215078052]}},{"type":"Feature","properties":{"id":4585,"title":"Tabora, Tabora, Tanzania Mini Grids Project 03","status":"PUBLISHED","created":"2018","lastUpdated":"2018","lastActive":"no","area":1693.3910497782038,"changesets":1678,"mappers":65,"roads":5.09675418876548,"buildings":25872,"edits":26598,"latest":"2018-05-30T13:54:08.000Z"},"geometry":{"type":"Point","coordinates":[32.6289834190743,-5.08439195561257]}},{"type":"Feature","properties":{"id":4642,"title":"Villages in Pangani District, Tanzania Mini Grids Project","status":"PUBLISHED","created":"2018","lastUpdated":"2018","lastActive":"no","area":3.2853624864693787,"changesets":85,"mappers":27,"roads":0.0728887891265449,"buildings":3068,"edits":3101,"latest":"2018-06-08T10:05:47.000Z"},"geometry":{"type":"Point","coordinates":[38.9510503654064,-5.45416108609809]}},{"type":"Feature","properties":{"id":4612,"title":"Tabora, Tabora, Tanzania Mini Grids Project 05","status":"PUBLISHED","created":"2018","lastUpdated":"2018","lastActive":"no","area":1989.4559724518444,"changesets":1027,"mappers":62,"roads":1.12987965804484,"buildings":17432,"edits":17662,"latest":"2018-06-01T13:36:34.000Z"},"geometry":{"type":"Point","coordinates":[33.4026607737608,-5.09063064812292]}},{"type":"Feature","properties":{"id":4569,"title":"Kasulu, Kasulu, Tanzania Mini Grids Project 02","status":"PUBLISHED","created":"2018","lastUpdated":"2018","lastActive":"no","area":1983.2479906601172,"changesets":1354,"mappers":62,"roads":1.61439788714098,"buildings":46289,"edits":46619,"latest":"2018-06-20T13:13:28.000Z"},"geometry":{"type":"Point","coordinates":[30.212024270479,-4.1763726716107]}},{"type":"Feature","properties":{"id":4102,"title":"Kigoma_15","status":"PUBLISHED","created":"2018","lastUpdated":"2018","lastActive":"no","area":1.4561334248441051,"changesets":36,"mappers":5,"roads":0.613262345810854,"buildings":921,"edits":929,"latest":"2018-02-06T11:58:55.000Z"},"geometry":{"type":"Point","coordinates":[29.7539727931363,-5.41871598951743]}},{"type":"Feature","properties":{"id":4487,"title":"Lindi, Lindi, Tanzania Mini Grids Project 01","status":"PUBLISHED","created":"2018","lastUpdated":"2018","lastActive":"no","area":2262.000623549842,"changesets":1674,"mappers":68,"roads":0.902342152134417,"buildings":56663,"edits":56749,"latest":"2018-05-14T14:03:37.000Z"},"geometry":{"type":"Point","coordinates":[38.9173096989872,-10.0781727355739]}},{"type":"Feature","properties":{"id":4074,"title":"Mwanza","status":"PUBLISHED","created":"2018","lastUpdated":"2018","lastActive":"no","area":121.88924319716057,"changesets":6,"mappers":3,"roads":0.470326699343026,"buildings":24,"edits":42,"latest":"2018-03-27T15:44:50.000Z"},"geometry":{"type":"Point","coordinates":[33.0101693875627,-2.17497390734264]}},{"type":"Feature","properties":{"id":4654,"title":"Chemba and Bahi Districts, Tanzania Mini Grids Project 03","status":"PUBLISHED","created":"2018","lastUpdated":"2018","lastActive":"no","area":1954.525377556312,"changesets":1245,"mappers":41,"roads":0.106920348528221,"buildings":20636,"edits":20657,"latest":"2018-06-05T14:25:23.000Z"},"geometry":{"type":"Point","coordinates":[35.5847311116868,-5.42682995375007]}},{"type":"Feature","properties":{"id":4623,"title":"Rufiji, Pwani, Tanzania Mini Grids Project 03","status":"PUBLISHED","created":"2018","lastUpdated":"2018","lastActive":"no","area":1539.3249459809983,"changesets":1141,"mappers":46,"roads":0.239674830143507,"buildings":25465,"edits":25525,"latest":"2018-06-13T07:45:23.000Z"},"geometry":{"type":"Point","coordinates":[39.2743309681675,-7.88542189986384]}},{"type":"Feature","properties":{"id":4563,"title":"Kasulu, Kasulu, Tanzania Mini Grids Project 01","status":"PUBLISHED","created":"2018","lastUpdated":"2018","lastActive":"no","area":1132.117945620699,"changesets":1683,"mappers":62,"roads":6.80675700959665,"buildings":46061,"edits":46543,"latest":"2018-06-22T13:37:34.000Z"},"geometry":{"type":"Point","coordinates":[30.223387298585,-4.60036034805499]}},{"type":"Feature","properties":{"id":4411,"title":"Tunduru, Ruvuma, Tanzania Mini Grids Project 05","status":"PUBLISHED","created":"2018","lastUpdated":"2018","lastActive":"no","area":1479.9129003136538,"changesets":1947,"mappers":62,"roads":3.59696148842831,"buildings":30085,"edits":30123,"latest":"2018-05-17T04:42:41.000Z"},"geometry":{"type":"Point","coordinates":[37.4466069429557,-10.8885669665714]}},{"type":"Feature","properties":{"id":4355,"title":"Urambo, Tabora, Tanzania Mini Grids Project 08","status":"PUBLISHED","created":"2018","lastUpdated":"2018","lastActive":"no","area":1512.9535222617567,"changesets":1803,"mappers":62,"roads":0.0539411172980745,"buildings":55003,"edits":55009,"latest":"2018-06-29T06:38:59.000Z"},"geometry":{"type":"Point","coordinates":[32.0314904614418,-4.67837737836096]}},{"type":"Feature","properties":{"id":4479,"title":"S. Monduli, Simanjiro, Tanzania Mini Grids - MapSwipe Project 04 - 02","status":"PUBLISHED","created":"2018","lastUpdated":"2018","lastActive":"no","area":131.2262807333246,"changesets":136,"mappers":50,"roads":0.000165500103078919,"buildings":1412,"edits":1414,"latest":"2018-05-04T09:36:27.000Z"},"geometry":{"type":"Point","coordinates":[37.1526786235933,-4.96896345542438]}},{"type":"Feature","properties":{"id":1119,"title":"Missing Maps: Dar es Salaam (phase 2 & 3)","status":"ARCHIVED","created":"2015","lastUpdated":"2017","lastActive":"no","area":18.40993909198471,"changesets":922,"mappers":50,"roads":8.97784506878528,"buildings":3303,"edits":3812,"latest":"2015-11-18T19:10:47.000Z"},"geometry":{"type":"Point","coordinates":[39.245717821605,-6.81747513993096]}},{"type":"Feature","properties":{"id":1788,"title":"Tanzania Development Trust: Serengeti district mapping project","status":"ARCHIVED","created":"2016","lastUpdated":"2018","lastActive":"no","area":13584.124479203561,"changesets":22885,"mappers":911,"roads":32070.8722414285,"buildings":416061,"edits":635374,"latest":"2018-10-07T14:50:39.000Z"},"geometry":{"type":"Point","coordinates":[34.6535890667968,-1.94252940124096]}},{"type":"Feature","properties":{"id":1462,"title":"MSD & JSI/USAID Tanzania Road Import - Rukwa and Katavi regions","status":"PUBLISHED","created":"2016","lastUpdated":"2016","lastActive":"no","area":23601.174016426638,"changesets":46,"mappers":13,"roads":2965.50978720348,"buildings":26,"edits":3295,"latest":"2016-11-09T18:57:31.000Z"},"geometry":{"type":"Point","coordinates":[31.386548500474,-7.66185013891424]}},{"type":"Feature","properties":{"id":1544,"title":"Missing Maps: Dar es Salaam - Ramani Huria5","status":"ARCHIVED","created":"2016","lastUpdated":"2016","lastActive":"no","area":5.586401873878637,"changesets":1381,"mappers":124,"roads":368.316305127799,"buildings":20873,"edits":24593,"latest":"2016-09-07T11:12:52.000Z"},"geometry":{"type":"Point","coordinates":[39.2262531835573,-6.87782624257323]}},{"type":"Feature","properties":{"id":2343,"title":"Tanzania Development Trust - Shinyanga District","status":"ARCHIVED","created":"2016","lastUpdated":"2017","lastActive":"no","area":3427.959635629754,"changesets":242,"mappers":17,"roads":361.927248485148,"buildings":10209,"edits":12652,"latest":"2017-03-03T22:08:46.000Z"},"geometry":{"type":"Point","coordinates":[33.4638429794363,-3.57935372837378]}},{"type":"Feature","properties":{"id":1903,"title":"Peace Corps Tanzania -- Lushoto","status":"PUBLISHED","created":"2016","lastUpdated":"2017","lastActive":"no","area":69.21165370312055,"changesets":640,"mappers":88,"roads":126.39665147357,"buildings":9101,"edits":10836,"latest":"2017-07-28T23:41:56.000Z"},"geometry":{"type":"Point","coordinates":[38.3007954725319,-4.81163810650237]}},{"type":"Feature","properties":{"id":4179,"title":"Itona_Kilosa","status":"PUBLISHED","created":"2018","lastUpdated":"2018","lastActive":"no","area":741.6959938125862,"changesets":409,"mappers":55,"roads":1.35885332610885,"buildings":3691,"edits":3744,"latest":"2018-04-11T07:21:08.000Z"},"geometry":{"type":"Point","coordinates":[35.5313455011513,-8.5391899246068]}},{"type":"Feature","properties":{"id":4290,"title":"Mbozi, Mbeya, Tanzania Mini Grids Project 04","status":"PUBLISHED","created":"2018","lastUpdated":"2018","lastActive":"no","area":1211.7161084477548,"changesets":1961,"mappers":76,"roads":1447.81448250183,"buildings":48428,"edits":51301,"latest":"2018-07-03T09:24:27.000Z"},"geometry":{"type":"Point","coordinates":[32.6205051070244,-8.88427358395356]}},{"type":"Feature","properties":{"id":3388,"title":"Missing Maps: Dar es Salaam - Ramani Huria 2.0 - 21","status":"PUBLISHED","created":"2017","lastUpdated":"2017","lastActive":"no","area":69.65587897048133,"changesets":1939,"mappers":75,"roads":6.84000186734417,"buildings":36784,"edits":37868,"latest":"2017-08-11T12:28:34.000Z"},"geometry":{"type":"Point","coordinates":[39.1283057323213,-6.89210398958084]}},{"type":"Feature","properties":{"id":3430,"title":"Tanzania Development Trust: Kamachumu Community Mapping Project","status":"ARCHIVED","created":"2017","lastUpdated":"2018","lastActive":"no","area":46.24964449397239,"changesets":1628,"mappers":108,"roads":714.34611932829,"buildings":7600,"edits":26515,"latest":"2018-06-19T13:57:44.000Z"},"geometry":{"type":"Point","coordinates":[31.6206229724663,-1.60520444319064]}},{"type":"Feature","properties":{"id":3968,"title":"Tanzania Development Trust: Mbozi district community mapping project","status":"PUBLISHED","created":"2017","lastUpdated":"2018","lastActive":"no","area":270.15833206747897,"changesets":2274,"mappers":248,"roads":2524.73042835569,"buildings":13869,"edits":37413,"latest":"2018-11-17T11:38:08.000Z"},"geometry":{"type":"Point","coordinates":[32.7810690177479,-9.02055139563406]}},{"type":"Feature","properties":{"id":3903,"title":"PEPFAR TANZANIA: GEITA DC","status":"PUBLISHED","created":"2017","lastUpdated":"2018","lastActive":"no","area":4738.968040349855,"changesets":5705,"mappers":275,"roads":3185.90199833963,"buildings":61057,"edits":85259,"latest":"2018-11-18T06:22:39.000Z"},"geometry":{"type":"Point","coordinates":[32.1742010245843,-2.86754820690531]}},{"type":"Feature","properties":{"id":4956,"title":"Kinyerezi, Dar es Salaam - Ramani Huria 2.0","status":"PUBLISHED","created":"2018","lastUpdated":"2018","lastActive":"no","area":21.432560772199803,"changesets":5,"mappers":2,"roads":1.16885300309379,"buildings":28,"edits":44,"latest":"2018-09-04T03:50:33.000Z"},"geometry":{"type":"Point","coordinates":[39.1504736353186,-6.84213294797882]}},{"type":"Feature","properties":{"id":4957,"title":"Gongo la Mboto, Dar es Salaam - Ramani Huria 2.0","status":"PUBLISHED","created":"2018","lastUpdated":"2018","lastActive":"no","area":12.42114909208458,"changesets":24,"mappers":9,"roads":2.09455045359767,"buildings":129,"edits":164,"latest":"2018-08-09T13:01:49.000Z"},"geometry":{"type":"Point","coordinates":[39.1497392908264,-6.87859919492805]}},{"type":"Feature","properties":{"id":955,"title":"Missing Maps: Ushirombo, Tanzania","status":"ARCHIVED","created":"2015","lastUpdated":"2017","lastActive":"no","area":734.2330870305057,"changesets":5658,"mappers":205,"roads":2686.98537358062,"buildings":25007,"edits":61755,"latest":"2015-10-29T23:37:03.000Z"},"geometry":{"type":"Point","coordinates":[31.8893884959412,-3.44082642084493]}},{"type":"Feature","properties":{"id":1233,"title":"MSD & JSI/USAID Tanzania Road Import - Kigoma and Tabora regions","status":"PUBLISHED","created":"2015","lastUpdated":"2017","lastActive":"no","area":55716.44775664574,"changesets":89,"mappers":5,"roads":7164.0075520837,"buildings":137,"edits":14011,"latest":"2015-10-15T16:49:58.000Z"},"geometry":{"type":"Point","coordinates":[31.938951757194,-4.84880832874386]}},{"type":"Feature","properties":{"id":4695,"title":"Didia, Jomu, Singita in Shinyanga District, Tanzania Mini Grids Project","status":"PUBLISHED","created":"2018","lastUpdated":"2018","lastActive":"no","area":633.425618192545,"changesets":1071,"mappers":69,"roads":1.1515270702661,"buildings":35118,"edits":35234,"latest":"2018-06-14T10:23:19.000Z"},"geometry":{"type":"Point","coordinates":[33.18986858368,-3.852090824045]}},{"type":"Feature","properties":{"id":3456,"title":"Missing Maps: Dar es Salaam - Ramani Huria 2.0 - 34","status":"PUBLISHED","created":"2017","lastUpdated":"2018","lastActive":"no","area":196.89167630800463,"changesets":3676,"mappers":139,"roads":587.388974612295,"buildings":20987,"edits":38292,"latest":"2017-11-13T11:24:48.000Z"},"geometry":{"type":"Point","coordinates":[39.1288689759637,-6.84699584132868]}},{"type":"Feature","properties":{"id":3479,"title":"Missing Maps: Dar es Salaam - Ramani Huria 2.0 - 35","status":"PUBLISHED","created":"2017","lastUpdated":"2018","lastActive":"no","area":278.2939060927899,"changesets":2410,"mappers":124,"roads":330.96957804182,"buildings":13540,"edits":24252,"latest":"2017-09-14T20:28:36.000Z"},"geometry":{"type":"Point","coordinates":[39.1372214131026,-6.98538631246333]}},{"type":"Feature","properties":{"id":4716,"title":"Buigiri, Tanzania Mini Grids Project","status":"PUBLISHED","created":"2018","lastUpdated":"2018","lastActive":"no","area":70.76658506869626,"changesets":35,"mappers":19,"roads":0,"buildings":1370,"edits":1370,"latest":"2018-06-11T06:47:36.000Z"},"geometry":{"type":"Point","coordinates":[36.0912871642792,-6.16102193778322]}},{"type":"Feature","properties":{"id":4894,"title":"Tanzania Development Trust: Manyara FGM 2","status":"PUBLISHED","created":"2018","lastUpdated":"2018","lastActive":"no","area":2355.6428351187137,"changesets":3864,"mappers":326,"roads":1035.67397496494,"buildings":32606,"edits":35318,"latest":"2018-11-06T12:44:19.000Z"},"geometry":{"type":"Point","coordinates":[36.5477142150534,-5.33552036818312]}},{"type":"Feature","properties":{"id":4896,"title":"Tanzania Development Trust:  Manyara FGM 3","status":"PUBLISHED","created":"2018","lastUpdated":"2018","lastActive":"no","area":2283.4732623040454,"changesets":1771,"mappers":168,"roads":225.333231420998,"buildings":15423,"edits":15979,"latest":"2018-10-24T12:40:31.000Z"},"geometry":{"type":"Point","coordinates":[37.0771755450608,-5.56656722298389]}},{"type":"Feature","properties":{"id":4286,"title":"Mbozi, Mbeya, Tanzania Mini Grids Project 01","status":"PUBLISHED","created":"2018","lastUpdated":"2018","lastActive":"no","area":1427.754247465411,"changesets":3571,"mappers":68,"roads":3017.76610954661,"buildings":84064,"edits":91962,"latest":"2018-06-14T11:11:25.000Z"},"geometry":{"type":"Point","coordinates":[32.9022184031242,-9.22410127231269]}},{"type":"Feature","properties":{"id":4365,"title":"Urambo, Tabora, Tanzania Mini Grids Project 03","status":"PUBLISHED","created":"2018","lastUpdated":"2018","lastActive":"no","area":1398.7624508238905,"changesets":1473,"mappers":69,"roads":0.043434080974496,"buildings":34954,"edits":34964,"latest":"2018-07-04T09:28:23.000Z"},"geometry":{"type":"Point","coordinates":[31.8238581030413,-5.21876565720349]}},{"type":"Feature","properties":{"id":4350,"title":"Mbozi, Mbeya, Tanzania Mini Grids Project 07","status":"PUBLISHED","created":"2018","lastUpdated":"2018","lastActive":"no","area":908.5380955685306,"changesets":1211,"mappers":61,"roads":663.566242525814,"buildings":34908,"edits":35996,"latest":"2018-06-29T06:38:08.000Z"},"geometry":{"type":"Point","coordinates":[32.4493880644302,-8.42765633103931]}},{"type":"Feature","properties":{"id":4393,"title":"Rungwe, Mbeya, Tanzania Mini Grids Project 02","status":"PUBLISHED","created":"2018","lastUpdated":"2018","lastActive":"no","area":1149.0351365244592,"changesets":2056,"mappers":60,"roads":12.5724590121885,"buildings":72408,"edits":72612,"latest":"2018-04-27T14:03:47.000Z"},"geometry":{"type":"Point","coordinates":[33.8206120731278,-9.26492522635025]}},{"type":"Feature","properties":{"id":4419,"title":"Mpwapwa, Dodoma, Tanzania Mini Grids Project 06","status":"PUBLISHED","created":"2018","lastUpdated":"2018","lastActive":"no","area":1290.5067497887903,"changesets":2176,"mappers":91,"roads":10.7518575631284,"buildings":54733,"edits":54794,"latest":"2018-06-30T12:14:33.000Z"},"geometry":{"type":"Point","coordinates":[36.516398356325,-6.30752944180002]}},{"type":"Feature","properties":{"id":2261,"title":"Tanzania Development Trust: Serengeti district mapping project part 2","status":"PUBLISHED","created":"2016","lastUpdated":"2018","lastActive":"no","area":11207.631576365555,"changesets":34023,"mappers":1630,"roads":29645.1220241715,"buildings":604840,"edits":921128,"latest":"2018-10-31T21:58:06.000Z"},"geometry":{"type":"Point","coordinates":[33.6631417496372,-1.71314326443619]}},{"type":"Feature","properties":{"id":4376,"title":"Urambo, Tabora, Tanzania Mini Grids Project 01-02","status":"PUBLISHED","created":"2018","lastUpdated":"2018","lastActive":"no","area":2032.586550505636,"changesets":2264,"mappers":60,"roads":0.977625727876198,"buildings":26878,"edits":26920,"latest":"2018-06-19T08:37:22.000Z"},"geometry":{"type":"Point","coordinates":[31.7287992798091,-5.3745816051939]}},{"type":"Feature","properties":{"id":4435,"title":"Ivugula Village, Tanzania Mini Grids Project 01","status":"PUBLISHED","created":"2018","lastUpdated":"2018","lastActive":"no","area":12.603608518468686,"changesets":270,"mappers":44,"roads":23.4950636574225,"buildings":1686,"edits":2161,"latest":"2018-06-13T18:16:09.000Z"},"geometry":{"type":"Point","coordinates":[33.0729138374781,-8.9949988573835]}},{"type":"Feature","properties":{"id":4386,"title":"Igalula Ward, Kigoma, Tanzania Mini Grids Project 01","status":"PUBLISHED","created":"2018","lastUpdated":"2018","lastActive":"no","area":1169.7270185651328,"changesets":912,"mappers":37,"roads":0.00817977234302703,"buildings":9782,"edits":9783,"latest":"2018-04-17T14:00:26.000Z"},"geometry":{"type":"Point","coordinates":[30.1160375593605,-6.04163687332309]}},{"type":"Feature","properties":{"id":4499,"title":"Lindi, Lindi, Tanzania Mini Grids Project 05","status":"PUBLISHED","created":"2018","lastUpdated":"2018","lastActive":"no","area":1350.3603655694978,"changesets":1100,"mappers":66,"roads":1.12477553899274,"buildings":28479,"edits":28638,"latest":"2018-06-29T06:31:34.000Z"},"geometry":{"type":"Point","coordinates":[39.5947553137122,-9.74965390209154]}},{"type":"Feature","properties":{"id":4256,"title":"Manyara","status":"ARCHIVED","created":"2018","lastUpdated":"2018","lastActive":"no","area":63.093260840318564,"changesets":0,"mappers":0,"roads":0,"buildings":0,"edits":0,"latest":null},"geometry":{"type":"Point","coordinates":[35.3368133697752,-4.30430004427207]}},{"type":"Feature","properties":{"id":4925,"title":"Kibamba, Dar es Salaam - Ramani Huria 2.0","status":"PUBLISHED","created":"2018","lastUpdated":"2018","lastActive":"no","area":19.884124388620787,"changesets":347,"mappers":59,"roads":25.6782323040697,"buildings":2830,"edits":4202,"latest":"2018-09-05T08:16:04.000Z"},"geometry":{"type":"Point","coordinates":[39.0391190561899,-6.7724521522622]}},{"type":"Feature","properties":{"id":5374,"title":"Tanzania Road Tagging","status":"ARCHIVED","created":"2018","lastUpdated":"2018","lastActive":"no","area":1889.8991523484578,"changesets":121,"mappers":4,"roads":354.382916393981,"buildings":195,"edits":1625,"latest":"2018-10-28T21:36:35.000Z"},"geometry":{"type":"Point","coordinates":[34.9857072597691,-7.28466264372828]}},{"type":"Feature","properties":{"id":3937,"title":"Ardhi University: Housing Development - Arusha City","status":"PUBLISHED","created":"2017","lastUpdated":"2018","lastActive":"no","area":28.84666648523269,"changesets":1282,"mappers":38,"roads":22.6209379906767,"buildings":3678,"edits":3856,"latest":"2018-10-19T19:52:37.000Z"},"geometry":{"type":"Point","coordinates":[36.8469816006829,-3.39200788314546]}},{"type":"Feature","properties":{"id":3412,"title":"Missing Maps: Dar es Salaam - Ramani Huria 2.0 - 26","status":"PUBLISHED","created":"2017","lastUpdated":"2018","lastActive":"no","area":264.77964572508387,"changesets":362,"mappers":52,"roads":2.21303831070795,"buildings":4558,"edits":4620,"latest":"2017-08-16T10:11:16.000Z"},"geometry":{"type":"Point","coordinates":[39.4689729028526,-7.10694963412138]}},{"type":"Feature","properties":{"id":3876,"title":"TZ IFC Mini-grids house count test","status":"PUBLISHED","created":"2017","lastUpdated":"2018","lastActive":"no","area":481.70619678590833,"changesets":3458,"mappers":35,"roads":5.06366089326074,"buildings":275823,"edits":276862,"latest":"2018-02-20T15:26:25.000Z"},"geometry":{"type":"Point","coordinates":[33.9656515456289,-6.53613031653058]}}],"Haiti":[{"type":"Feature","properties":{"id":1242,"title":"Missing Maps: Onaville, Haiti","status":"ARCHIVED","created":"2015","lastUpdated":"2017","lastActive":"no","area":11.292343186598856,"changesets":1747,"mappers":132,"roads":95.6066952899999,"buildings":18385,"edits":23900,"latest":"2016-10-21T10:05:17.000Z"},"geometry":{"type":"Point","coordinates":[-72.2265908912131,18.6605751616749]}},{"type":"Feature","properties":{"id":2205,"title":"Hurricane Matthew: Nippes coast","status":"ARCHIVED","created":"2016","lastUpdated":"2017","lastActive":"no","area":186.25076226692414,"changesets":3201,"mappers":389,"roads":119.067381251107,"buildings":39513,"edits":42533,"latest":"2016-10-27T20:04:56.000Z"},"geometry":{"type":"Point","coordinates":[-73.0168605515557,18.445445160502]}},{"type":"Feature","properties":{"id":2211,"title":"Hurricane Matthew: Leogane","status":"ARCHIVED","created":"2016","lastUpdated":"2017","lastActive":"no","area":52.25210018110833,"changesets":1219,"mappers":133,"roads":14.7218037490781,"buildings":17513,"edits":18711,"latest":"2017-12-23T11:22:26.000Z"},"geometry":{"type":"Point","coordinates":[-72.6356352556371,18.4748148400757]}},{"type":"Feature","properties":{"id":2231,"title":"Hurricane Matthew: Anse-Rouge","status":"ARCHIVED","created":"2016","lastUpdated":"2017","lastActive":"no","area":76.41447687739348,"changesets":288,"mappers":48,"roads":153.715630252784,"buildings":8017,"edits":8842,"latest":"2016-10-15T19:35:42.000Z"},"geometry":{"type":"Point","coordinates":[-73.0499356600749,19.6560331809892]}},{"type":"Feature","properties":{"id":4445,"title":"Missing Maps: Canaan III, Haiti","status":"PUBLISHED","created":"2018","lastUpdated":"2018","lastActive":"no","area":4.546956198198137,"changesets":5,"mappers":3,"roads":0.322035792496887,"buildings":53,"edits":87,"latest":"2018-06-27T07:36:07.000Z"},"geometry":{"type":"Point","coordinates":[-72.2727801239332,18.6484260908099]}},{"type":"Feature","properties":{"id":4443,"title":"Missing Maps: Canaan I, Haiti","status":"PUBLISHED","created":"2018","lastUpdated":"2018","lastActive":"no","area":1.8557013284627175,"changesets":4,"mappers":3,"roads":0.0354219453506869,"buildings":62,"edits":68,"latest":"2018-10-06T06:19:52.000Z"},"geometry":{"type":"Point","coordinates":[-72.2821356524043,18.6679586099648]}},{"type":"Feature","properties":{"id":4025,"title":"Cartographie pour le patrimoine - Dessalines, Haiti","status":"ARCHIVED","created":"2018","lastUpdated":"2018","lastActive":"no","area":8.588403012081995,"changesets":658,"mappers":37,"roads":24.776839530837,"buildings":4533,"edits":5385,"latest":"2018-04-16T14:35:26.000Z"},"geometry":{"type":"Point","coordinates":[-72.52062206142,19.2644200179047]}},{"type":"Feature","properties":{"id":4042,"title":"INACT: Gressier/Leogane (Haiti)","status":"PUBLISHED","created":"2018","lastUpdated":"2018","lastActive":"no","area":472.76468088091855,"changesets":2036,"mappers":83,"roads":201.367121956984,"buildings":9330,"edits":10279,"latest":"2018-11-15T10:25:02.000Z"},"geometry":{"type":"Point","coordinates":[-72.5733402442701,18.4525648797599]}},{"type":"Feature","properties":{"id":3742,"title":"Missing Maps: Haiti, Cit Soleil: Extended Area","status":"PUBLISHED","created":"2017","lastUpdated":"2017","lastActive":"no","area":5.42144685042618,"changesets":283,"mappers":51,"roads":12.0008248729073,"buildings":3164,"edits":4226,"latest":"2017-12-21T05:35:59.000Z"},"geometry":{"type":"Point","coordinates":[-72.3271514881281,18.5983368751644]}},{"type":"Feature","properties":{"id":2287,"title":"Hurricane Matthew: Sud Est","status":"ARCHIVED","created":"2016","lastUpdated":"2017","lastActive":"no","area":7.463384019048663,"changesets":133,"mappers":14,"roads":186.594474158711,"buildings":657,"edits":2077,"latest":"2017-03-13T08:51:55.000Z"},"geometry":{"type":"Point","coordinates":[-72.5980314681104,18.2451561390513]}},{"type":"Feature","properties":{"id":4428,"title":"Missing Maps: Corail, Canaan, Haiti","status":"PUBLISHED","created":"2018","lastUpdated":"2018","lastActive":"no","area":2.4013850588610666,"changesets":360,"mappers":17,"roads":24.4383865572948,"buildings":6775,"edits":8292,"latest":"2018-07-26T16:53:18.000Z"},"geometry":{"type":"Point","coordinates":[-72.2471008503852,18.654580845554]}},{"type":"Feature","properties":{"id":1398,"title":"Missing Maps: Anse-d'Hainault, Haiti","status":"ARCHIVED","created":"2015","lastUpdated":"2017","lastActive":"no","area":97.91282101800105,"changesets":153,"mappers":12,"roads":72.5761426959883,"buildings":2551,"edits":3120,"latest":"2016-01-18T15:02:55.000Z"},"geometry":{"type":"Point","coordinates":[-74.3989827262933,18.4605534504422]}},{"type":"Feature","properties":{"id":4421,"title":"Missing Maps: ONA-Ville, Canaan, Haiti","status":"PUBLISHED","created":"2018","lastUpdated":"2018","lastActive":"no","area":8.015812216284537,"changesets":1604,"mappers":5,"roads":60.8627977080476,"buildings":14129,"edits":18016,"latest":"2018-08-19T17:38:13.000Z"},"geometry":{"type":"Point","coordinates":[-72.22988221501,18.6621637632821]}},{"type":"Feature","properties":{"id":879,"title":"Missing Maps: St. Christop, Haiti","status":"ARCHIVED","created":"2015","lastUpdated":"2017","lastActive":"no","area":9.29362943103361,"changesets":508,"mappers":34,"roads":26.6770999908886,"buildings":2232,"edits":3994,"latest":"2015-11-21T02:00:48.000Z"},"geometry":{"type":"Point","coordinates":[-72.3131352761924,18.6858165513167]}},{"type":"Feature","properties":{"id":334,"title":"Additional Ranquitte","status":"ARCHIVED","created":"2013","lastUpdated":"2015","lastActive":"no","area":8.53958357101521,"changesets":0,"mappers":0,"roads":0,"buildings":0,"edits":0,"latest":null},"geometry":{"type":"Point","coordinates":[-72.0418318543623,19.4116629918197]}},{"type":"Feature","properties":{"id":284,"title":"Ferrier & Ouanaminthe Tracing Task","status":"ARCHIVED","created":"2013","lastUpdated":"2014","lastActive":"no","area":136.0945967063704,"changesets":695,"mappers":24,"roads":452.003292170174,"buildings":439,"edits":7898,"latest":"2018-01-31T09:59:27.000Z"},"geometry":{"type":"Point","coordinates":[-71.7692756894397,19.6020478633348]}},{"type":"Feature","properties":{"id":589,"title":"Saint Marc - Image Drone OSM Haiti","status":"ARCHIVED","created":"2014","lastUpdated":"2014","lastActive":"no","area":18.10676957737397,"changesets":0,"mappers":0,"roads":0,"buildings":0,"edits":0,"latest":null},"geometry":{"type":"Point","coordinates":[-72.6971386390312,19.1058190151133]}},{"type":"Feature","properties":{"id":2218,"title":"Hurricane Matthew: Leogane - East","status":"ARCHIVED","created":"2016","lastUpdated":"2017","lastActive":"no","area":59.108856231405184,"changesets":1191,"mappers":143,"roads":41.4753112665412,"buildings":21299,"edits":22598,"latest":"2017-12-05T21:51:31.000Z"},"geometry":{"type":"Point","coordinates":[-72.5854259356648,18.5275706446554]}},{"type":"Feature","properties":{"id":2238,"title":"Hurricane Matthew: La Gonve - East (buildings only)","status":"ARCHIVED","created":"2016","lastUpdated":"2016","lastActive":"no","area":197.89267133061085,"changesets":0,"mappers":0,"roads":0,"buildings":0,"edits":0,"latest":null},"geometry":{"type":"Point","coordinates":[-72.8838541995278,18.7787036276249]}},{"type":"Feature","properties":{"id":247,"title":"CAP103 Corridor de developpement de Cap-Haitien , nouvelles zones","status":"ARCHIVED","created":"2013","lastUpdated":"2018","lastActive":"no","area":5.448810357917753,"changesets":439,"mappers":5,"roads":157.435576638987,"buildings":2633,"edits":4674,"latest":"2018-03-21T14:12:25.000Z"},"geometry":{"type":"Point","coordinates":[-72.0584394684114,19.6350542425365]}},{"type":"Feature","properties":{"id":245,"title":"Haiti, Projet Cap103, Corridor de dveloppement de Cap-Haitien, communes prioritaires  cartographier sur imagerie","status":"ARCHIVED","created":"2013","lastUpdated":"2016","lastActive":"no","area":849.3522870023475,"changesets":11,"mappers":1,"roads":7.12711872544457,"buildings":543,"edits":1021,"latest":"2017-12-04T22:46:55.000Z"},"geometry":{"type":"Point","coordinates":[-71.9725269262952,19.6182822635876]}},{"type":"Feature","properties":{"id":243,"title":"Haiti, Projet Cap103, Corridor de dveloppement de Cap-Haitien, zones urbaines prioritaires  cartographier sur le terrain","status":"ARCHIVED","created":"2013","lastUpdated":"2018","lastActive":"no","area":15.529602384071627,"changesets":0,"mappers":0,"roads":0,"buildings":0,"edits":0,"latest":null},"geometry":{"type":"Point","coordinates":[-72.0409312086335,19.6547519721993]}},{"type":"Feature","properties":{"id":280,"title":"Caracol Tracing Task","status":"ARCHIVED","created":"2013","lastUpdated":"2015","lastActive":"no","area":97.89669732925948,"changesets":1360,"mappers":24,"roads":2846.05203469676,"buildings":33441,"edits":125351,"latest":"2018-01-29T03:26:39.000Z"},"geometry":{"type":"Point","coordinates":[-72.000934200938,19.6907612489664]}},{"type":"Feature","properties":{"id":249,"title":"Haiti, Projet Cap103, Corridor de dveloppement de Cap-Haitien, zones urbaines  ** dition/Validation aprs terrain **","status":"ARCHIVED","created":"2013","lastUpdated":"2018","lastActive":"no","area":25.885326590085164,"changesets":38,"mappers":1,"roads":2.67335968066412,"buildings":794,"edits":876,"latest":"2018-04-16T14:22:41.000Z"},"geometry":{"type":"Point","coordinates":[-72.042288507595,19.6505869882467]}},{"type":"Feature","properties":{"id":1402,"title":"Missing Maps: St. Christophe jpmc","status":"ARCHIVED","created":"2015","lastUpdated":"2018","lastActive":"no","area":8.017369015286967,"changesets":3229,"mappers":17,"roads":57.0425384920896,"buildings":11861,"edits":16886,"latest":"2016-01-20T20:20:33.000Z"},"geometry":{"type":"Point","coordinates":[-72.3056985679597,18.6819983320491]}},{"type":"Feature","properties":{"id":2234,"title":"Hurricane Matthew: Nord Ouest (1)","status":"ARCHIVED","created":"2016","lastUpdated":"2017","lastActive":"no","area":320.15693463387953,"changesets":1061,"mappers":149,"roads":271.50984598518,"buildings":21384,"edits":24186,"latest":"2016-10-16T11:36:03.000Z"},"geometry":{"type":"Point","coordinates":[-73.0010653423327,19.8690005167271]}},{"type":"Feature","properties":{"id":2248,"title":"Hurricane Matthew: La Gonve - East - 1 of 2 (buildings only)","status":"ARCHIVED","created":"2016","lastUpdated":"2017","lastActive":"no","area":234.52236567976342,"changesets":702,"mappers":82,"roads":145.473227902028,"buildings":20513,"edits":23135,"latest":"2016-11-08T15:31:43.000Z"},"geometry":{"type":"Point","coordinates":[-72.928576956544,18.7985040619315]}},{"type":"Feature","properties":{"id":1080,"title":"Haiti, Caracol - Missing Maps, MapGive","status":"ARCHIVED","created":"2015","lastUpdated":"2017","lastActive":"no","area":141.1436524740866,"changesets":464,"mappers":84,"roads":70.9919529611392,"buildings":640,"edits":1637,"latest":"2016-10-05T21:27:15.000Z"},"geometry":{"type":"Point","coordinates":[-71.9900975784181,19.6793745607697]}},{"type":"Feature","properties":{"id":1237,"title":"Missing Maps: Campeche, Haiti","status":"ARCHIVED","created":"2015","lastUpdated":"2017","lastActive":"no","area":1.2003011221330415,"changesets":1791,"mappers":147,"roads":19.4990722475007,"buildings":14562,"edits":18242,"latest":"2016-07-06T17:32:37.000Z"},"geometry":{"type":"Point","coordinates":[-72.3359335308041,18.5229710654349]}},{"type":"Feature","properties":{"id":1400,"title":"Missing Maps: Chambellan, Haiti - Clinton Health Access Initiative #2","status":"ARCHIVED","created":"2015","lastUpdated":"2017","lastActive":"no","area":73.91855739445765,"changesets":483,"mappers":40,"roads":71.2018232934687,"buildings":4127,"edits":4841,"latest":"2016-04-05T14:22:08.000Z"},"geometry":{"type":"Point","coordinates":[-74.3311410621843,18.5172058976937]}},{"type":"Feature","properties":{"id":2224,"title":"Hurricane Matthew: Central Grand Anse","status":"ARCHIVED","created":"2016","lastUpdated":"2016","lastActive":"no","area":308.49862301934087,"changesets":1223,"mappers":185,"roads":76.1313710540835,"buildings":10380,"edits":11258,"latest":"2016-10-18T01:12:27.000Z"},"geometry":{"type":"Point","coordinates":[-74.1318946887692,18.4896415985316]}},{"type":"Feature","properties":{"id":585,"title":"Cite Soleil - Haiti","status":"ARCHIVED","created":"2014","lastUpdated":"2017","lastActive":"no","area":4.5115631688750435,"changesets":0,"mappers":0,"roads":0,"buildings":0,"edits":0,"latest":null},"geometry":{"type":"Point","coordinates":[-72.3373387466212,18.5805593957682]}},{"type":"Feature","properties":{"id":2251,"title":"Hurricane Matthew: La Gonve - East - 2 of 2 (buildings only)","status":"ARCHIVED","created":"2016","lastUpdated":"2018","lastActive":"no","area":81.97562159685141,"changesets":214,"mappers":34,"roads":25.2679300240509,"buildings":4722,"edits":5271,"latest":"2017-02-20T13:19:50.000Z"},"geometry":{"type":"Point","coordinates":[-72.8381806071653,18.7659109234226]}},{"type":"Feature","properties":{"id":2319,"title":"Mistaken Concern Project - recreated with better task square sizes","status":"ARCHIVED","created":"2016","lastUpdated":"2016","lastActive":"no","area":1.1367601622515986,"changesets":0,"mappers":0,"roads":0,"buildings":0,"edits":0,"latest":null},"geometry":{"type":"Point","coordinates":[-72.3272866307643,18.5787973358521]}},{"type":"Feature","properties":{"id":2252,"title":"Hurricane Matthew: Grand'Anse October 2016 Update","status":"ARCHIVED","created":"2016","lastUpdated":"2018","lastActive":"no","area":312.09247817236303,"changesets":9,"mappers":2,"roads":0.943585068484653,"buildings":813,"edits":861,"latest":"2016-10-25T09:58:31.000Z"},"geometry":{"type":"Point","coordinates":[-74.4021849575455,18.4659498810289]}},{"type":"Feature","properties":{"id":2221,"title":"Hurricane Matthew: Bortemps","status":"ARCHIVED","created":"2016","lastUpdated":"2017","lastActive":"no","area":134.8766478209107,"changesets":1126,"mappers":97,"roads":35.1062171039438,"buildings":7027,"edits":7642,"latest":"2017-02-22T22:37:35.000Z"},"geometry":{"type":"Point","coordinates":[-74.2965167135777,18.6209310520323]}},{"type":"Feature","properties":{"id":4442,"title":"Cartographie pour le patrimoine -  Commune de Dessalines, Haiti","status":"PUBLISHED","created":"2018","lastUpdated":"2018","lastActive":"no","area":113.7882758876048,"changesets":172,"mappers":16,"roads":25.6867883369121,"buildings":2533,"edits":2743,"latest":"2018-10-19T11:37:44.000Z"},"geometry":{"type":"Point","coordinates":[-72.5114507070364,19.2646172357309]}},{"type":"Feature","properties":{"id":2821,"title":"Haiti - Sud-Est mapping catchment areas","status":"PUBLISHED","created":"2017","lastUpdated":"2018","lastActive":"no","area":49.24895220171569,"changesets":245,"mappers":18,"roads":159.790192250908,"buildings":3036,"edits":5306,"latest":"2018-04-22T02:30:11.000Z"},"geometry":{"type":"Point","coordinates":[-72.9008069846992,18.2361504836479]}},{"type":"Feature","properties":{"id":287,"title":"Ranquitte & La Victoire Tracing Task","status":"ARCHIVED","created":"2013","lastUpdated":"2014","lastActive":"no","area":57.281555616751504,"changesets":731,"mappers":22,"roads":566.135353805954,"buildings":883,"edits":12353,"latest":"2018-02-05T06:26:51.000Z"},"geometry":{"type":"Point","coordinates":[-72.0224149947142,19.3623178080822]}},{"type":"Feature","properties":{"id":285,"title":"Borgne Tracing Task","status":"ARCHIVED","created":"2013","lastUpdated":"2014","lastActive":"no","area":33.169897734954745,"changesets":665,"mappers":23,"roads":443.985457256904,"buildings":378,"edits":8666,"latest":"2018-02-03T03:39:28.000Z"},"geometry":{"type":"Point","coordinates":[-72.5842792777867,19.8004706823385]}},{"type":"Feature","properties":{"id":248,"title":"Haiti, Projet Cap103, Corridor de dveloppement de Cap-Haitien, zones urbaines   ** Numrisation avant travail terrain **","status":"ARCHIVED","created":"2013","lastUpdated":"2018","lastActive":"no","area":25.884544558416135,"changesets":411,"mappers":7,"roads":105.454532851226,"buildings":1304,"edits":2970,"latest":"2017-12-27T04:25:27.000Z"},"geometry":{"type":"Point","coordinates":[-72.0428676488073,19.6509179130816]}},{"type":"Feature","properties":{"id":240,"title":"Saint-Raphael, Haiti - Pre-Mapping Party Tracing","status":"PUBLISHED","created":"2013","lastUpdated":"2016","lastActive":"no","area":2.6599766274161962,"changesets":1361,"mappers":47,"roads":1446.00106160672,"buildings":47581,"edits":55489,"latest":"2017-12-12T03:16:42.000Z"},"geometry":{"type":"Point","coordinates":[-72.1993588003244,19.4370863632806]}},{"type":"Feature","properties":{"id":286,"title":"Bahon Tracing Task","status":"ARCHIVED","created":"2013","lastUpdated":"2014","lastActive":"no","area":43.740534633244586,"changesets":692,"mappers":22,"roads":697.637731420561,"buildings":481,"edits":9445,"latest":"2018-02-02T08:23:17.000Z"},