{"totalEdits":44850083,"totalBuildings":37381516,"totalRoads":940643.699913442,"mappersOnline":120,"totalTasksMapped":1783529,"totalMappers":153423,"totalProjects":4312,"Botswana":[{"type":"Feature","properties":{"id":2377,"title":"Missing Maps: BOBIRWA District, Botswana -Part 2/2- Clinton Health Access Initiative - BUILDINGS ONLY","status":"ARCHIVED","created":"2016","lastUpdated":"2016","lastActive":"no","area":7459.172585725824,"changesets":2689,"mappers":73,"roads":225.269073069513,"buildings":48515,"edits":50458,"latest":"2017-02-14T14:26:54.000Z"},"geometry":{"type":"Point","coordinates":[28.0127304627059,-21.8765103614756]}},{"type":"Feature","properties":{"id":5184,"title":"Botswana, Bobirwa Sub-district - 01 - National Malaria Programme","status":"ARCHIVED","created":"2018","lastUpdated":"2018","lastActive":"no","area":5662.561868598544,"changesets":1,"mappers":1,"roads":0,"buildings":9,"edits":9,"latest":"2018-09-09T12:52:54.000Z"},"geometry":{"type":"Point","coordinates":[28.5750267323985,-21.934321446397]}},{"type":"Feature","properties":{"id":5181,"title":"Botswana, Okavango Sub-district - National Malaria Programme","status":"ARCHIVED","created":"2018","lastUpdated":"2018","lastActive":"no","area":32466.830756382315,"changesets":0,"mappers":0,"roads":0,"buildings":0,"edits":0,"latest":null},"geometry":{"type":"Point","coordinates":[22.008151679285,-18.9930660401322]}},{"type":"Feature","properties":{"id":1057,"title":"Peace Corps Botswana - Mosetse","status":"ARCHIVED","created":"2015","lastUpdated":"2015","lastActive":"no","area":5.333755011382229,"changesets":337,"mappers":19,"roads":57.3163294874516,"buildings":1966,"edits":3485,"latest":"2015-06-15T00:22:45.000Z"},"geometry":{"type":"Point","coordinates":[26.6415490804472,-20.6467028463908]}},{"type":"Feature","properties":{"id":2497,"title":"MARAPONG, Botswana - Clinton Health Access Initiative","status":"ARCHIVED","created":"2017","lastUpdated":"2017","lastActive":"no","area":404.47681596670554,"changesets":127,"mappers":2,"roads":0,"buildings":2889,"edits":2889,"latest":"2017-02-17T06:20:49.000Z"},"geometry":{"type":"Point","coordinates":[26.9638444741489,-20.8946752912905]}},{"type":"Feature","properties":{"id":2493,"title":"WILDLIFE MGMT AREA CT10- Botswana - Clinton Health Access Initiative","status":"ARCHIVED","created":"2017","lastUpdated":"2017","lastActive":"no","area":5129.758003508448,"changesets":83,"mappers":1,"roads":0,"buildings":1627,"edits":1627,"latest":"2017-02-10T14:29:19.000Z"},"geometry":{"type":"Point","coordinates":[25.1987290458312,-20.7395242624559]}},{"type":"Feature","properties":{"id":2512,"title":"WMA, Botswana, Clinton Health Access Initiative","status":"ARCHIVED","created":"2017","lastUpdated":"2017","lastActive":"no","area":10119.295625237915,"changesets":10,"mappers":1,"roads":0,"buildings":207,"edits":207,"latest":"2017-02-14T10:28:14.000Z"},"geometry":{"type":"Point","coordinates":[25.6000717391353,-19.4105744561759]}},{"type":"Feature","properties":{"id":2491,"title":"Changate, Botswana - Clinton Health Access Initiative","status":"ARCHIVED","created":"2017","lastUpdated":"2017","lastActive":"no","area":93.80606413322549,"changesets":87,"mappers":1,"roads":0,"buildings":1733,"edits":1733,"latest":"2017-02-10T14:31:35.000Z"},"geometry":{"type":"Point","coordinates":[27.237449845083,-20.29682033743]}},{"type":"Feature","properties":{"id":2499,"title":"NKANGE, Botswana - Clinton Health Access Initiative","status":"ARCHIVED","created":"2017","lastUpdated":"2017","lastActive":"no","area":157.52170444706366,"changesets":151,"mappers":4,"roads":0,"buildings":3193,"edits":3193,"latest":"2017-02-13T06:40:52.000Z"},"geometry":{"type":"Point","coordinates":[27.1518789450639,-20.2933744526696]}},{"type":"Feature","properties":{"id":2517,"title":"Missing Maps: Mosu, Botswana - Clinton Health Access Initiative","status":"ARCHIVED","created":"2017","lastUpdated":"2017","lastActive":"no","area":2220.4774511050036,"changesets":115,"mappers":10,"roads":15.9142033171499,"buildings":1089,"edits":1153,"latest":"2017-02-20T14:28:30.000Z"},"geometry":{"type":"Point","coordinates":[26.0504000315427,-21.1107601577386]}},{"type":"Feature","properties":{"id":2495,"title":"ZORGOA, Botswana - Clinton Health Access Initiative","status":"ARCHIVED","created":"2017","lastUpdated":"2017","lastActive":"no","area":2281.5260163522767,"changesets":92,"mappers":2,"roads":0.0000551241330686025,"buildings":364,"edits":366,"latest":"2017-03-02T09:26:45.000Z"},"geometry":{"type":"Point","coordinates":[25.7065765158285,-20.3189219602555]}},{"type":"Feature","properties":{"id":5162,"title":"Botswana, Boteti Sub-district - National Malaria Programme","status":"ARCHIVED","created":"2018","lastUpdated":"2018","lastActive":"no","area":16562.83359044561,"changesets":3,"mappers":2,"roads":0,"buildings":12,"edits":12,"latest":"2018-09-05T18:50:51.000Z"},"geometry":{"type":"Point","coordinates":[24.6092839036636,-21.0752686480163]}},{"type":"Feature","properties":{"id":2536,"title":"Missing Maps: BUILDINGS ONLY (3/5)  Botswana - Clinton Health Access Initiative","status":"ARCHIVED","created":"2017","lastUpdated":"2017","lastActive":"no","area":3435.872347546252,"changesets":0,"mappers":0,"roads":0,"buildings":0,"edits":0,"latest":null},"geometry":{"type":"Point","coordinates":[26.5734224751669,-20.9812942988307]}},{"type":"Feature","properties":{"id":2527,"title":"Untitled project","status":"ARCHIVED","created":"2017","lastUpdated":"2017","lastActive":"no","area":240.0800264822955,"changesets":0,"mappers":0,"roads":0,"buildings":0,"edits":0,"latest":null},"geometry":{"type":"Point","coordinates":[27.2381725518904,-20.4791243437741]}},{"type":"Feature","properties":{"id":952,"title":"Peace Corps Botswana - Thamaga IV","status":"PUBLISHED","created":"2015","lastUpdated":"2015","lastActive":"no","area":6.236986219341584,"changesets":21,"mappers":2,"roads":16.2447485867183,"buildings":554,"edits":788,"latest":"2015-07-18T11:59:51.000Z"},"geometry":{"type":"Point","coordinates":[25.524147538995,-24.6564067764375]}},{"type":"Feature","properties":{"id":2503,"title":"Orapa, Botswana","status":"ARCHIVED","created":"2017","lastUpdated":"2017","lastActive":"no","area":360.2381174668008,"changesets":111,"mappers":2,"roads":0.000655108738693123,"buildings":3858,"edits":3882,"latest":"2017-02-13T12:35:52.000Z"},"geometry":{"type":"Point","coordinates":[25.3645079634206,-21.2845231070072]}},{"type":"Feature","properties":{"id":1514,"title":"Peace Corps Botswana - Sefhare","status":"ARCHIVED","created":"2016","lastUpdated":"2016","lastActive":"no","area":8.531853188023618,"changesets":236,"mappers":25,"roads":143.944403799365,"buildings":3914,"edits":6431,"latest":"2016-06-05T11:01:48.000Z"},"geometry":{"type":"Point","coordinates":[27.5267822424538,-23.0277600459783]}},{"type":"Feature","properties":{"id":2376,"title":"Missing Maps: BOBIRWA District, Botswana -Part 1/2- Clinton Health Access Initiative - BUILDINGS ONLY  ","status":"ARCHIVED","created":"2016","lastUpdated":"2016","lastActive":"no","area":7146.471227371979,"changesets":2455,"mappers":47,"roads":23.8959178272802,"buildings":20700,"edits":20908,"latest":"2017-02-13T14:31:19.000Z"},"geometry":{"type":"Point","coordinates":[28.5849034996303,-22.1952816839487]}},{"type":"Feature","properties":{"id":2374,"title":"Missing Maps: Ngami District, Botswana -Part 4/5- Clinton Health Access Initiative - BUILDINGS ONLYoject","status":"ARCHIVED","created":"2016","lastUpdated":"2016","lastActive":"no","area":9146.493797836127,"changesets":0,"mappers":0,"roads":0,"buildings":0,"edits":0,"latest":null},"geometry":{"type":"Point","coordinates":[23.2213603571419,-19.783292692621]}},{"type":"Feature","properties":{"id":2558,"title":"Missing Maps: villages of Boteti district, Botswana - Clinton Health Access Initiative","status":"ARCHIVED","created":"2017","lastUpdated":"2017","lastActive":"no","area":13226.173371669527,"changesets":0,"mappers":0,"roads":0,"buildings":0,"edits":0,"latest":null},"geometry":{"type":"Point","coordinates":[25.1866185411067,-21.2589769472281]}},{"type":"Feature","properties":{"id":1037,"title":"Peace Corps Botswana - Molepolole V","status":"PUBLISHED","created":"2015","lastUpdated":"2017","lastActive":"no","area":16.31817162737985,"changesets":1051,"mappers":90,"roads":230.955311071122,"buildings":8536,"edits":11426,"latest":"2017-02-24T11:38:02.000Z"},"geometry":{"type":"Point","coordinates":[25.4719983568004,-24.4020611534747]}},{"type":"Feature","properties":{"id":2453,"title":"Missing Maps: Sowa Town, Tutume District, Botswana - Clinton Health Access Initiative","status":"ARCHIVED","created":"2017","lastUpdated":"2017","lastActive":"no","area":1151.1903349965148,"changesets":299,"mappers":4,"roads":2.76491989395842,"buildings":603,"edits":611,"latest":"2017-02-13T14:29:45.000Z"},"geometry":{"type":"Point","coordinates":[26.099684019627,-20.4458761575283]}},{"type":"Feature","properties":{"id":2516,"title":"MAROBELA, Botswana, Clinton Health Access Initiative","status":"ARCHIVED","created":"2017","lastUpdated":"2017","lastActive":"no","area":126.24980928852588,"changesets":291,"mappers":6,"roads":2.29827283959594e-9,"buildings":4778,"edits":4788,"latest":"2017-02-13T14:27:39.000Z"},"geometry":{"type":"Point","coordinates":[27.2226710978192,-20.9161937916415]}},{"type":"Feature","properties":{"id":2513,"title":"Missing Maps: Gweta, Botswana - Clinton Health Access Initiative","status":"ARCHIVED","created":"2017","lastUpdated":"2017","lastActive":"no","area":1940.7752036684858,"changesets":213,"mappers":6,"roads":17.3186077468129,"buildings":1825,"edits":1865,"latest":"2017-02-17T12:52:04.000Z"},"geometry":{"type":"Point","coordinates":[25.2779963364484,-20.087218476579]}},{"type":"Feature","properties":{"id":2538,"title":"Missing Maps: BUILDINGS ONLY (5/5)  Botswana - Clinton Health Access Initiative","status":"ARCHIVED","created":"2017","lastUpdated":"2017","lastActive":"no","area":9744.197883420798,"changesets":0,"mappers":0,"roads":0,"buildings":0,"edits":0,"latest":null},"geometry":{"type":"Point","coordinates":[25.3433811085302,-21.7158560536862]}},{"type":"Feature","properties":{"id":2530,"title":"Missing Maps: TOROMOJA, Botswana - Clinton Health Access Initiative","status":"ARCHIVED","created":"2017","lastUpdated":"2017","lastActive":"no","area":313.41902484934343,"changesets":0,"mappers":0,"roads":0,"buildings":0,"edits":0,"latest":null},"geometry":{"type":"Point","coordinates":[24.6083678501743,-21.0577627315384]}},{"type":"Feature","properties":{"id":1590,"title":"Peace Corps Botswana - Sepopa","status":"ARCHIVED","created":"2016","lastUpdated":"2016","lastActive":"no","area":4.126976225822726,"changesets":104,"mappers":27,"roads":45.5905205721354,"buildings":947,"edits":1844,"latest":"2016-04-11T16:42:55.000Z"},"geometry":{"type":"Point","coordinates":[22.1725391962034,-18.7398233857328]}},{"type":"Feature","properties":{"id":1515,"title":"Peace Corps Botswana - Mochudi","status":"PUBLISHED","created":"2016","lastUpdated":"2018","lastActive":"no","area":55.63006078479333,"changesets":1002,"mappers":74,"roads":254.358048449744,"buildings":23626,"edits":33566,"latest":"2018-02-06T20:54:55.000Z"},"geometry":{"type":"Point","coordinates":[26.1460235690627,-24.3903618778026]}},{"type":"Feature","properties":{"id":760,"title":"Peace Corps Stomp Out Malaria - Pandamatenga Area","status":"ARCHIVED","created":"2014","lastUpdated":"2014","lastActive":"no","area":16.266774590535444,"changesets":0,"mappers":0,"roads":0,"buildings":0,"edits":0,"latest":null},"geometry":{"type":"Point","coordinates":[25.6420927772446,-18.5410442291454]}},{"type":"Feature","properties":{"id":1538,"title":"Peace Corps Botswana - Serowe","status":"PUBLISHED","created":"2016","lastUpdated":"2018","lastActive":"no","area":103.03380657395984,"changesets":1123,"mappers":127,"roads":507.440389502026,"buildings":18456,"edits":23113,"latest":"2018-09-12T08:44:26.000Z"},"geometry":{"type":"Point","coordinates":[26.7196956660752,-22.4060053626072]}},{"type":"Feature","properties":{"id":1512,"title":"Peace Corps Botswana - Tutume","status":"ARCHIVED","created":"2016","lastUpdated":"2016","lastActive":"no","area":40.503255387374736,"changesets":1474,"mappers":73,"roads":179.304518754093,"buildings":17279,"edits":19864,"latest":"2016-10-14T10:43:00.000Z"},"geometry":{"type":"Point","coordinates":[27.0371385282309,-20.5004223442006]}},{"type":"Feature","properties":{"id":954,"title":"Peace Corps Botswana - Thamaga VI","status":"PUBLISHED","created":"2015","lastUpdated":"2017","lastActive":"no","area":5.315276500548214,"changesets":70,"mappers":6,"roads":42.1040000400871,"buildings":855,"edits":1511,"latest":"2017-02-24T07:46:57.000Z"},"geometry":{"type":"Point","coordinates":[25.5260766960465,-24.6828435379038]}},{"type":"Feature","properties":{"id":1035,"title":"Peace Corps Botswana - Molepolole III","status":"PUBLISHED","created":"2015","lastUpdated":"2017","lastActive":"no","area":14.04745954473544,"changesets":538,"mappers":49,"roads":28.6935776094552,"buildings":6177,"edits":6837,"latest":"2017-02-24T10:34:09.000Z"},"geometry":{"type":"Point","coordinates":[25.5010282541785,-24.3865919107098]}},{"type":"Feature","properties":{"id":1022,"title":"Peace Corps Botswana - Molepolole I","status":"PUBLISHED","created":"2015","lastUpdated":"2015","lastActive":"no","area":8.587554796204715,"changesets":748,"mappers":26,"roads":25.5928898708746,"buildings":2488,"edits":3244,"latest":"2015-09-12T21:01:44.000Z"},"geometry":{"type":"Point","coordinates":[25.5804258494739,-24.3977876138032]}},{"type":"Feature","properties":{"id":1803,"title":"Peace Corps Botswana -- Kang","status":"PUBLISHED","created":"2016","lastUpdated":"2018","lastActive":"no","area":28.34379858272266,"changesets":227,"mappers":17,"roads":197.59128660123,"buildings":4564,"edits":7204,"latest":"2018-03-13T19:53:20.000Z"},"geometry":{"type":"Point","coordinates":[22.7981988818947,-23.6740237881026]}},{"type":"Feature","properties":{"id":1993,"title":"Missing Maps: Tutume District, Botswana - Clinton Health Access Initiative ","status":"ARCHIVED","created":"2016","lastUpdated":"2017","lastActive":"no","area":40073.08018870562,"changesets":0,"mappers":0,"roads":0,"buildings":0,"edits":0,"latest":null},"geometry":{"type":"Point","coordinates":[26.0373918311498,-20.1707055622474]}},{"type":"Feature","properties":{"id":1991,"title":"Missing Maps: Ngami District, Botswana - Clinton Health Access Initiative ","status":"ARCHIVED","created":"2016","lastUpdated":"2017","lastActive":"no","area":65777.26250106131,"changesets":0,"mappers":0,"roads":0,"buildings":0,"edits":0,"latest":null},"geometry":{"type":"Point","coordinates":[23.2841323904972,-20.0026575598528]}},{"type":"Feature","properties":{"id":1772,"title":"Missing Maps: Chobe District, Botswana - Clinton Health Access Initiative ","status":"ARCHIVED","created":"2016","lastUpdated":"2017","lastActive":"no","area":21188.486703991395,"changesets":600,"mappers":121,"roads":1701.20767748245,"buildings":14170,"edits":20230,"latest":"2017-08-15T15:41:18.000Z"},"geometry":{"type":"Point","coordinates":[24.8039971245855,-18.5134283179712]}},{"type":"Feature","properties":{"id":4317,"title":"Botswana, Chobe District - National Malaria Programme","status":"PUBLISHED","created":"2018","lastUpdated":"2018","lastActive":"no","area":2422.6655366125387,"changesets":1401,"mappers":158,"roads":1981.40636245232,"buildings":5944,"edits":11864,"latest":"2018-04-22T20:13:03.000Z"},"geometry":{"type":"Point","coordinates":[24.9305227330624,-18.3594754240366]}},{"type":"Feature","properties":{"id":4337,"title":"Botswana, Nata Village - National Malaria Programme","status":"ARCHIVED","created":"2018","lastUpdated":"2018","lastActive":"no","area":434.7624185042024,"changesets":307,"mappers":52,"roads":193.648583756651,"buildings":1256,"edits":1783,"latest":"2018-03-29T17:19:17.000Z"},"geometry":{"type":"Point","coordinates":[26.168439315419,-20.3921706084066]}},{"type":"Feature","properties":{"id":4340,"title":"Botswana, Mathathane Village - National Malaria Programme","status":"PUBLISHED","created":"2018","lastUpdated":"2018","lastActive":"no","area":71.14226400245143,"changesets":260,"mappers":35,"roads":270.672171601546,"buildings":1057,"edits":2262,"latest":"2018-04-26T20:24:37.000Z"},"geometry":{"type":"Point","coordinates":[28.6789788154414,-22.2517860838973]}},{"type":"Feature","properties":{"id":4382,"title":"Botswana, Nata Village (re-do) - National Malaria Programme","status":"PUBLISHED","created":"2018","lastUpdated":"2018","lastActive":"no","area":434.7624185220041,"changesets":662,"mappers":110,"roads":697.130695316268,"buildings":3508,"edits":6902,"latest":"2018-04-14T08:01:09.000Z"},"geometry":{"type":"Point","coordinates":[26.1684393154216,-20.392170608413]}},{"type":"Feature","properties":{"id":1092,"title":"Peace Corps Botswana- Gobojango Area","status":"ARCHIVED","created":"2015","lastUpdated":"2015","lastActive":"no","area":9.305128358812432,"changesets":17,"mappers":4,"roads":110.713328230235,"buildings":1467,"edits":2045,"latest":"2015-07-13T16:23:23.000Z"},"geometry":{"type":"Point","coordinates":[28.7222325653611,-21.8357861895546]}},{"type":"Feature","properties":{"id":1034,"title":"Peace Corps Botswana - Molepolole II","status":"PUBLISHED","created":"2015","lastUpdated":"2017","lastActive":"no","area":18.17702226776811,"changesets":1115,"mappers":72,"roads":43.6190988347351,"buildings":9155,"edits":10457,"latest":"2017-02-24T08:28:42.000Z"},"geometry":{"type":"Point","coordinates":[25.5349743453636,-24.3816556712786]}},{"type":"Feature","properties":{"id":1036,"title":"Peace Corps Botswana - Molepolole IV","status":"PUBLISHED","created":"2015","lastUpdated":"2017","lastActive":"no","area":12.72823325148611,"changesets":255,"mappers":26,"roads":55.8420030486039,"buildings":3952,"edits":5662,"latest":"2017-02-24T08:28:49.000Z"},"geometry":{"type":"Point","coordinates":[25.5308079494739,-24.413710459368]}},{"type":"Feature","properties":{"id":953,"title":"Peace Corps Botswana - Thamaga V","status":"PUBLISHED","created":"2015","lastUpdated":"2015","lastActive":"no","area":3.0178235475173096,"changesets":5,"mappers":2,"roads":0,"buildings":33,"edits":33,"latest":"2015-04-22T18:48:51.000Z"},"geometry":{"type":"Point","coordinates":[25.5400137462575,-24.6867949235488]}}],"totalArea":2402476603.1772842,"Russia":[{"type":"Feature","properties":{"id":5077,"title":"Ivanovo, RU - Road Alignment","status":"PUBLISHED","created":"2018","lastUpdated":"2018","lastActive":"no","area":13.702294049661324,"changesets":36,"mappers":1,"roads":1.82352967283976,"buildings":5,"edits":214,"latest":"2018-11-20T10:31:06.000Z"},"geometry":{"type":"Point","coordinates":[41.5762520611261,56.9819705148539]}},{"type":"Feature","properties":{"id":5035,"title":"St. Petersburg, RU - Road Alignment","status":"ARCHIVED","created":"2018","lastUpdated":"2018","lastActive":"no","area":8.561300785249289,"changesets":332,"mappers":1,"roads":19.7571350087767,"buildings":150,"edits":4218,"latest":"2018-11-24T13:02:54.000Z"},"geometry":{"type":"Point","coordinates":[30.23445185656,59.9410578806373]}},{"type":"Feature","properties":{"id":5090,"title":"Karachay-Cherkessia, RU - Road Alignment","status":"PUBLISHED","created":"2018","lastUpdated":"2018","lastActive":"no","area":4.740680221856723,"changesets":11,"mappers":1,"roads":0.140718881160977,"buildings":0,"edits":63,"latest":"2018-10-31T12:53:50.000Z"},"geometry":{"type":"Point","coordinates":[42.2305210915177,44.0364671504869]}},{"type":"Feature","properties":{"id":5114,"title":"Tuva, RU - Road Alignment","status":"PUBLISHED","created":"2018","lastUpdated":"2018","lastActive":"no","area":2.5382251706946253,"changesets":11,"mappers":1,"roads":0.699784508480752,"buildings":20,"edits":104,"latest":"2018-10-19T10:22:55.000Z"},"geometry":{"type":"Point","coordinates":[94.0463114123556,51.781508254766]}},{"type":"Feature","properties":{"id":5098,"title":"Kirov, RU - Road Alignment","status":"PUBLISHED","created":"2018","lastUpdated":"2018","lastActive":"no","area":15.917259356789708,"changesets":17,"mappers":1,"roads":36.6975410331902,"buildings":163,"edits":874,"latest":"2018-10-25T09:45:05.000Z"},"geometry":{"type":"Point","coordinates":[49.5005171491877,58.0035735138105]}},{"type":"Feature","properties":{"id":5047,"title":"Vologda, RU - Road Alignment","status":"PUBLISHED","created":"2018","lastUpdated":"2018","lastActive":"no","area":35.28516778928109,"changesets":0,"mappers":0,"roads":0,"buildings":0,"edits":0,"latest":null},"geometry":{"type":"Point","coordinates":[40.0393416965148,59.7751178689939]}},{"type":"Feature","properties":{"id":5050,"title":"Moscow, RU - Road Alignment","status":"PUBLISHED","created":"2018","lastUpdated":"2019","lastActive":"yes","area":67.22729165523474,"changesets":1256,"mappers":30,"roads":403.831829428362,"buildings":2535,"edits":19174,"latest":"2019-01-18T10:05:27.000Z"},"geometry":{"type":"Point","coordinates":[37.5334085802161,55.6984793925584]}},{"type":"Feature","properties":{"id":5120,"title":"JAO, RU - Road Alignment","status":"PUBLISHED","created":"2018","lastUpdated":"2018","lastActive":"no","area":5.488146548063193,"changesets":4,"mappers":1,"roads":0.0327054624556719,"buildings":1,"edits":20,"latest":"2018-10-24T16:47:52.000Z"},"geometry":{"type":"Point","coordinates":[132.011691687188,48.253714915435]}},{"type":"Feature","properties":{"id":5100,"title":"Tatarstan, RU - Road Alignment","status":"PUBLISHED","created":"2018","lastUpdated":"2018","lastActive":"no","area":38.441103871968686,"changesets":78,"mappers":1,"roads":9.18679789220927,"buildings":48,"edits":656,"latest":"2018-11-14T22:07:11.000Z"},"geometry":{"type":"Point","coordinates":[51.8502575724872,55.4741248014356]}},{"type":"Feature","properties":{"id":5112,"title":"Kemerovo, RU - Road Alignment","status":"PUBLISHED","created":"2018","lastUpdated":"2018","lastActive":"no","area":21.798294661428333,"changesets":45,"mappers":1,"roads":2.23533517272834,"buildings":3,"edits":261,"latest":"2018-10-28T12:56:04.000Z"},"geometry":{"type":"Point","coordinates":[86.6571581706989,54.816528983781]}},{"type":"Feature","properties":{"id":5118,"title":"Amur, RU - Road Alignment","status":"PUBLISHED","created":"2018","lastUpdated":"2018","lastActive":"no","area":19.385680339287482,"changesets":7,"mappers":1,"roads":5.53178454751479,"buildings":28,"edits":99,"latest":"2018-10-17T10:54:27.000Z"},"geometry":{"type":"Point","coordinates":[127.669291747133,51.1636667407178]}},{"type":"Feature","properties":{"id":5116,"title":"Buryatia, RU - Road Alignment","status":"PUBLISHED","created":"2018","lastUpdated":"2018","lastActive":"no","area":11.921423464616145,"changesets":7,"mappers":2,"roads":3.08056904568076,"buildings":19,"edits":104,"latest":"2018-10-19T08:54:02.000Z"},"geometry":{"type":"Point","coordinates":[107.505299618937,51.7364622992778]}},{"type":"Feature","properties":{"id":5045,"title":"Nenetsia, RU - Road Alignment","status":"PUBLISHED","created":"2018","lastUpdated":"2018","lastActive":"no","area":1.271696291426983,"changesets":7,"mappers":2,"roads":8.39223990109274,"buildings":130,"edits":410,"latest":"2018-11-05T20:55:39.000Z"},"geometry":{"type":"Point","coordinates":[56.0799294668555,67.3851766016729]}},{"type":"Feature","properties":{"id":5084,"title":"Astrakhan, RU - Road Alignment","status":"PUBLISHED","created":"2018","lastUpdated":"2018","lastActive":"no","area":5.310775583716296,"changesets":6,"mappers":1,"roads":0.576440915991893,"buildings":4,"edits":39,"latest":"2018-10-09T13:35:52.000Z"},"geometry":{"type":"Point","coordinates":[47.1830142680223,46.8862236799227]}},{"type":"Feature","properties":{"id":5108,"title":"Novosibirsk, RU - Road Alignment","status":"PUBLISHED","created":"2018","lastUpdated":"2018","lastActive":"no","area":42.469762848735236,"changesets":173,"mappers":2,"roads":3.64613396752743,"buildings":69,"edits":670,"latest":"2018-12-11T02:56:30.000Z"},"geometry":{"type":"Point","coordinates":[80.3670447235961,54.8613031461299]}},{"type":"Feature","properties":{"id":5049,"title":"Kaluga, RU - Road Alignment","status":"PUBLISHED","created":"2018","lastUpdated":"2018","lastActive":"no","area":10.587303562416615,"changesets":1,"mappers":1,"roads":0.159744480365076,"buildings":0,"edits":43,"latest":"2018-10-29T12:17:28.000Z"},"geometry":{"type":"Point","coordinates":[35.7221561476756,54.5927443769091]}},{"type":"Feature","properties":{"id":5082,"title":"Mordovia, RU - Road Alignment","status":"PUBLISHED","created":"2018","lastUpdated":"2018","lastActive":"no","area":21.05104067660312,"changesets":26,"mappers":1,"roads":1.76891272292416,"buildings":13,"edits":455,"latest":"2018-11-18T18:15:46.000Z"},"geometry":{"type":"Point","coordinates":[44.471800865344,54.2889054581946]}},{"type":"Feature","properties":{"id":5096,"title":"Chuvashia, RU - Road Alignment","status":"PUBLISHED","created":"2018","lastUpdated":"2018","lastActive":"no","area":7.0000954431448505,"changesets":8,"mappers":1,"roads":0.192223935155805,"buildings":0,"edits":41,"latest":"2018-11-05T21:08:48.000Z"},"geometry":{"type":"Point","coordinates":[47.0169444267199,55.6395929732244]}},{"type":"Feature","properties":{"id":5110,"title":"Yamalia, RU - Road Alignment","status":"PUBLISHED","created":"2018","lastUpdated":"2018","lastActive":"no","area":8.273190558193892,"changesets":6,"mappers":3,"roads":8.28800679414206,"buildings":20,"edits":130,"latest":"2018-11-20T10:22:28.000Z"},"geometry":{"type":"Point","coordinates":[75.2427001306948,65.7007370208771]}},{"type":"Feature","properties":{"id":5071,"title":"Belgorad, RU - Road Alignment","status":"PUBLISHED","created":"2018","lastUpdated":"2018","lastActive":"no","area":38.115130732068074,"changesets":51,"mappers":1,"roads":20.7782732699154,"buildings":39,"edits":608,"latest":"2018-11-20T22:22:38.000Z"},"geometry":{"type":"Point","coordinates":[37.4150271811611,50.6657608441237]}},{"type":"Feature","properties":{"id":5080,"title":"Ryazan, RU - Road Alignment","status":"PUBLISHED","created":"2018","lastUpdated":"2018","lastActive":"no","area":28.47380571426955,"changesets":33,"mappers":1,"roads":1.42742427154212,"buildings":102,"edits":709,"latest":"2018-11-16T22:25:01.000Z"},"geometry":{"type":"Point","coordinates":[40.2725467479178,54.1247114552182]}},{"type":"Feature","properties":{"id":5086,"title":"Chechnya, RU - Road Alignment","status":"PUBLISHED","created":"2018","lastUpdated":"2018","lastActive":"no","area":28.795408595275685,"changesets":23,"mappers":1,"roads":1.74231355153121,"buildings":0,"edits":137,"latest":"2018-10-28T12:22:09.000Z"},"geometry":{"type":"Point","coordinates":[45.8158908939478,43.2733108142613]}},{"type":"Feature","properties":{"id":5074,"title":"Voronezh, RU - Road Alignment","status":"PUBLISHED","created":"2018","lastUpdated":"2018","lastActive":"no","area":51.88857016130644,"changesets":35,"mappers":2,"roads":1.27753682271313,"buildings":19,"edits":549,"latest":"2019-01-02T20:39:43.000Z"},"geometry":{"type":"Point","coordinates":[40.2695201655274,50.9627839626112]}},{"type":"Feature","properties":{"id":5122,"title":"Khabarovsk, RU - Road Alignment","status":"PUBLISHED","created":"2018","lastUpdated":"2018","lastActive":"no","area":11.161541130978934,"changesets":42,"mappers":1,"roads":24.3213672545452,"buildings":19,"edits":928,"latest":"2018-11-12T19:15:17.000Z"},"geometry":{"type":"Point","coordinates":[138.396774935942,51.8199623333501]}},{"type":"Feature","properties":{"id":5102,"title":"Udmurtia, RU - Road Alignment","status":"PUBLISHED","created":"2018","lastUpdated":"2018","lastActive":"no","area":15.013904617904839,"changesets":11,"mappers":1,"roads":0.256342391628613,"buildings":1,"edits":279,"latest":"2018-10-24T15:26:13.000Z"},"geometry":{"type":"Point","coordinates":[53.1292263202367,56.6504098059281]}},{"type":"Feature","properties":{"id":5104,"title":"Sverdlovsk, RU - Road Alignment","status":"PUBLISHED","created":"2018","lastUpdated":"2018","lastActive":"no","area":17.833303273592076,"changesets":82,"mappers":1,"roads":1.41269675484537,"buildings":18,"edits":539,"latest":"2018-10-04T16:03:26.000Z"},"geometry":{"type":"Point","coordinates":[60.7296830055128,57.3551621895813]}},{"type":"Feature","properties":{"id":5106,"title":"Tyumen, RU - Road Alignment","status":"PUBLISHED","created":"2018","lastUpdated":"2018","lastActive":"no","area":29.90850085590972,"changesets":47,"mappers":1,"roads":2.73852519030308,"buildings":8,"edits":368,"latest":"2018-10-24T15:51:05.000Z"},"geometry":{"type":"Point","coordinates":[68.2637832952442,56.3385442704502]}},{"type":"Feature","properties":{"id":5094,"title":"Rostov, RU - Road Alignment","status":"PUBLISHED","created":"2018","lastUpdated":"2018","lastActive":"no","area":62.059436486990585,"changesets":18,"mappers":1,"roads":0.459103509151284,"buildings":1,"edits":86,"latest":"2018-10-09T12:50:48.000Z"},"geometry":{"type":"Point","coordinates":[40.7358927267966,47.7150064178919]}},{"type":"Feature","properties":{"id":5081,"title":"Tambov, RU - Road Alignment","status":"PUBLISHED","created":"2018","lastUpdated":"2018","lastActive":"no","area":26.18715669406076,"changesets":2,"mappers":2,"roads":0.00403649833909725,"buildings":1,"edits":32,"latest":"2018-11-19T18:17:20.000Z"},"geometry":{"type":"Point","coordinates":[41.3729375849855,52.7601922019812]}},{"type":"Feature","properties":{"id":5085,"title":"Kalmykia, RU - Road Alignment","status":"PUBLISHED","created":"2018","lastUpdated":"2018","lastActive":"no","area":10.056908395488977,"changesets":10,"mappers":1,"roads":4.37148898049341,"buildings":12,"edits":202,"latest":"2018-10-31T16:42:50.000Z"},"geometry":{"type":"Point","coordinates":[44.9932637551155,46.0090609593374]}},{"type":"Feature","properties":{"id":5087,"title":"Ingushetia, RU - Road Alignment","status":"PUBLISHED","created":"2018","lastUpdated":"2018","lastActive":"no","area":5.5580742626089785,"changesets":2,"mappers":1,"roads":0.037670290924601,"buildings":0,"edits":14,"latest":"2018-10-30T15:42:37.000Z"},"geometry":{"type":"Point","coordinates":[44.9998103358445,43.2859058104622]}},{"type":"Feature","properties":{"id":5091,"title":"Adygeya, RU - Road Alignment","status":"PUBLISHED","created":"2018","lastUpdated":"2018","lastActive":"no","area":3.5556777849193764,"changesets":13,"mappers":1,"roads":0.34216005800038,"buildings":2,"edits":224,"latest":"2018-10-29T19:34:26.000Z"},"geometry":{"type":"Point","coordinates":[39.6558268279716,44.8484239957608]}},{"type":"Feature","properties":{"id":5097,"title":"Mari El, RU - Road Alignment","status":"PUBLISHED","created":"2018","lastUpdated":"2018","lastActive":"no","area":2.1194954020724452,"changesets":9,"mappers":1,"roads":0.126755578113588,"buildings":0,"edits":45,"latest":"2018-10-04T16:23:52.000Z"},"geometry":{"type":"Point","coordinates":[48.561181273909,56.5923240658307]}},{"type":"Feature","properties":{"id":5095,"title":"Ulianovsk, RU - Road Alignment","status":"PUBLISHED","created":"2018","lastUpdated":"2018","lastActive":"no","area":10.512720117766863,"changesets":13,"mappers":1,"roads":0.195155068289131,"buildings":0,"edits":78,"latest":"2018-11-01T07:42:38.000Z"},"geometry":{"type":"Point","coordinates":[48.0134617931904,53.772705368293]}},{"type":"Feature","properties":{"id":5105,"title":"Kurgan, RU - Road Alignment","status":"PUBLISHED","created":"2018","lastUpdated":"2018","lastActive":"no","area":10.828553519234841,"changesets":19,"mappers":1,"roads":2.15622438545207,"buildings":1,"edits":123,"latest":"2018-10-28T13:16:40.000Z"},"geometry":{"type":"Point","coordinates":[65.1515824192141,55.1397216389689]}},{"type":"Feature","properties":{"id":5089,"title":"Kabardino-Balkaria, RU - Road Alignment","status":"PUBLISHED","created":"2018","lastUpdated":"2018","lastActive":"no","area":23.622718462797803,"changesets":66,"mappers":1,"roads":24.6938510572666,"buildings":1330,"edits":2024,"latest":"2018-11-23T20:22:29.000Z"},"geometry":{"type":"Point","coordinates":[43.9811521507747,43.5359455756532]}},{"type":"Feature","properties":{"id":5079,"title":"Nizhny Novgorod, RU - Road Alignment","status":"PUBLISHED","created":"2018","lastUpdated":"2018","lastActive":"no","area":23.49516750453581,"changesets":37,"mappers":2,"roads":6.19314781133766,"buildings":0,"edits":61,"latest":"2018-12-06T06:48:53.000Z"},"geometry":{"type":"Point","coordinates":[44.5683003348931,55.6787726091367]}},{"type":"Feature","properties":{"id":5083,"title":"Saratov, RU - Road Alignment","status":"PUBLISHED","created":"2018","lastUpdated":"2018","lastActive":"no","area":32.40097117720466,"changesets":34,"mappers":1,"roads":0.77353210229752,"buildings":6,"edits":341,"latest":"2018-10-28T13:14:20.000Z"},"geometry":{"type":"Point","coordinates":[46.1811223773877,51.5916763633425]}},{"type":"Feature","properties":{"id":5107,"title":"Omsk, RU - Road Alignment","status":"PUBLISHED","created":"2018","lastUpdated":"2018","lastActive":"no","area":18.92588387234162,"changesets":5,"mappers":1,"roads":0.0915746009074978,"buildings":0,"edits":23,"latest":"2018-10-24T15:05:46.000Z"},"geometry":{"type":"Point","coordinates":[73.1251378094216,55.4331855578523]}},{"type":"Feature","properties":{"id":5103,"title":"Perm, RU - Road Alignment","status":"PUBLISHED","created":"2018","lastUpdated":"2018","lastActive":"no","area":19.050963663499118,"changesets":36,"mappers":2,"roads":1.89355946602952,"buildings":10,"edits":284,"latest":"2018-10-17T18:01:41.000Z"},"geometry":{"type":"Point","coordinates":[55.8676360593071,57.9984261773804]}},{"type":"Feature","properties":{"id":5113,"title":"Khakassia, RU - Road Alignment","status":"PUBLISHED","created":"2018","lastUpdated":"2018","lastActive":"no","area":2.2758892585070725,"changesets":15,"mappers":1,"roads":2.89320533561135,"buildings":1,"edits":62,"latest":"2018-10-28T13:13:05.000Z"},"geometry":{"type":"Point","coordinates":[91.0513384700272,53.6367519341592]}},{"type":"Feature","properties":{"id":5099,"title":"Samara, RU - Road Alignment","status":"PUBLISHED","created":"2018","lastUpdated":"2018","lastActive":"no","area":30.485075606543912,"changesets":154,"mappers":1,"roads":22.7766838309259,"buildings":611,"edits":2758,"latest":"2018-12-26T14:53:31.000Z"},"geometry":{"type":"Point","coordinates":[50.3445307565892,53.3708217054506]}},{"type":"Feature","properties":{"id":5111,"title":"Tomsk, RU - Road Alignment","status":"PUBLISHED","created":"2018","lastUpdated":"2018","lastActive":"no","area":8.291597604665306,"changesets":5,"mappers":1,"roads":0.629914577296326,"buildings":5,"edits":37,"latest":"2018-10-20T21:50:51.000Z"},"geometry":{"type":"Point","coordinates":[83.3986752670868,57.7318453073323]}},{"type":"Feature","properties":{"id":5117,"title":"Zabaykalsk, RU - Road Alignment","status":"PUBLISHED","created":"2018","lastUpdated":"2018","lastActive":"no","area":15.535301906848705,"changesets":0,"mappers":0,"roads":0,"buildings":0,"edits":0,"latest":null},"geometry":{"type":"Point","coordinates":[115.893622536766,50.898877166788]}},{"type":"Feature","properties":{"id":5101,"title":"Orenburg, RU - Road Alignment","status":"PUBLISHED","created":"2018","lastUpdated":"2018","lastActive":"no","area":62.971849944699215,"changesets":22,"mappers":1,"roads":3.45699288107569,"buildings":53,"edits":181,"latest":"2018-10-24T08:43:40.000Z"},"geometry":{"type":"Point","coordinates":[54.8065548783445,52.0610390047715]}},{"type":"Feature","properties":{"id":5109,"title":"Khantia-Mansia, RU - Road Alignment","status":"PUBLISHED","created":"2018","lastUpdated":"2018","lastActive":"no","area":30.253087893790546,"changesets":15,"mappers":1,"roads":4.51497994941806,"buildings":10,"edits":99,"latest":"2018-11-06T07:57:43.000Z"},"geometry":{"type":"Point","coordinates":[71.975901037221,61.2624729564418]}},{"type":"Feature","properties":{"id":5093,"title":"Stavropol, RU - Road Alignment","status":"PUBLISHED","created":"2018","lastUpdated":"2018","lastActive":"no","area":39.278249308473754,"changesets":9,"mappers":1,"roads":0.142855842145349,"buildings":0,"edits":56,"latest":"2018-11-01T06:46:47.000Z"},"geometry":{"type":"Point","coordinates":[42.9341936478082,44.7607848987624]}},{"type":"Feature","properties":{"id":5121,"title":"Sakhalin, RU - Road Alignment","status":"PUBLISHED","created":"2018","lastUpdated":"2018","lastActive":"no","area":5.566677215936195,"changesets":5,"mappers":1,"roads":1.36468434946041,"buildings":3,"edits":40,"latest":"2018-10-24T17:19:44.000Z"},"geometry":{"type":"Point","coordinates":[142.738432590344,48.9062608568148]}},{"type":"Feature","properties":{"id":5123,"title":"Magadan, RU - Road Alignment","status":"PUBLISHED","created":"2018","lastUpdated":"2018","lastActive":"no","area":5.034648396223297,"changesets":8,"mappers":2,"roads":0.100892516868918,"buildings":0,"edits":39,"latest":"2018-12-22T01:50:43.000Z"},"geometry":{"type":"Point","coordinates":[151.195448468034,60.5667867782767]}},{"type":"Feature","properties":{"id":5115,"title":"Krasnoyarsk, RU - Road Alignment","status":"PUBLISHED","created":"2018","lastUpdated":"2018","lastActive":"no","area":22.824888459707374,"changesets":78,"mappers":1,"roads":15.4802476295007,"buildings":108,"edits":630,"latest":"2018-10-20T05:40:12.000Z"},"geometry":{"type":"Point","coordinates":[93.4116099617817,57.0117959504218]}},{"type":"Feature","properties":{"id":5119,"title":"Sakha, RU - Road Alignment","status":"PUBLISHED","created":"2018","lastUpdated":"2018","lastActive":"no","area":33.426355275199285,"changesets":0,"mappers":0,"roads":0,"buildings":0,"edits":0,"latest":null},"geometry":{"type":"Point","coordinates":[124.725706215512,61.3401873829566]}}],"Philippines":[{"type":"Feature","properties":{"id":1636,"title":"DOST-Project NOAH (ISAIAH) Structures Map Up Cavite","status":"PUBLISHED","created":"2016","lastUpdated":"2017","lastActive":"no","area":1236.7930267854183,"changesets":11018,"mappers":38,"roads":25.913009487454,"buildings":811687,"edits":826206,"latest":"2018-07-25T08:21:28.000Z"},"geometry":{"type":"Point","coordinates":[120.869224835751,14.2555520122718]}},{"type":"Feature","properties":{"id":3235,"title":"Barangay Kiling, MacArthur, Leyte - Missing Maps","status":"ARCHIVED","created":"2017","lastUpdated":"2017","lastActive":"no","area":0.236696902615044,"changesets":22,"mappers":2,"roads":0.241415222378668,"buildings":239,"edits":250,"latest":"2017-07-09T18:53:25.000Z"},"geometry":{"type":"Point","coordinates":[124.913293154246,10.8278820844186]}},{"type":"Feature","properties":{"id":3457,"title":"UP-NOAH Mapping Campuses (UP Los BaÃ±os)","status":"PUBLISHED","created":"2017","lastUpdated":"2017","lastActive":"no","area":12.20182994686138,"changesets":200,"mappers":26,"roads":17.3248632606893,"buildings":4065,"edits":4497,"latest":"2017-11-25T08:06:04.000Z"},"geometry":{"type":"Point","coordinates":[121.235517765426,14.1644050639345]}},{"type":"Feature","properties":{"id":3438,"title":"UP-NOAH Mapping Campuses (UP Manila)","status":"ARCHIVED","created":"2017","lastUpdated":"2018","lastActive":"no","area":1.6100307695151406,"changesets":106,"mappers":4,"roads":0.142282989595509,"buildings":209,"edits":217,"latest":"2018-11-10T03:31:40.000Z"},"geometry":{"type":"Point","coordinates":[120.983575861444,14.5803191938393]}},{"type":"Feature","properties":{"id":5569,"title":"Post-Disaster Mapping in Brgy Uling and Brgy. Pangdan, Naga City, Cebu","status":"PUBLISHED","created":"2018","lastUpdated":"2018","lastActive":"no","area":15.048594361484898,"changesets":191,"mappers":17,"roads":1.59122621032686,"buildings":2435,"edits":2450,"latest":"2018-12-05T04:51:57.000Z"},"geometry":{"type":"Point","coordinates":[123.721821915621,10.267601668473]}},{"type":"Feature","properties":{"id":5462,"title":"Benguet, Philippines - Mapping for Food Security","status":"PUBLISHED","created":"2018","lastUpdated":"2018","lastActive":"no","area":2654.203403404713,"changesets":69,"mappers":18,"roads":5.92867643282129,"buildings":743,"edits":784,"latest":"2018-12-04T13:39:23.000Z"},"geometry":{"type":"Point","coordinates":[120.704193530323,16.5391664023582]}},{"type":"Feature","properties":{"id":5458,"title":"Mindanao Region, Misamis Oriental (southern), Philippines - Food Security","status":"PUBLISHED","created":"2018","lastUpdated":"2019","lastActive":"no","area":1277.0811871734315,"changesets":124,"mappers":12,"roads":16.6580644583872,"buildings":449,"edits":523,"latest":"2019-01-10T17:59:39.000Z"},"geometry":{"type":"Point","coordinates":[124.513786993793,8.45080046521423]}},{"type":"Feature","properties":{"id":5464,"title":"Ifugao, Philippines - Mapping for Food Security","status":"PUBLISHED","created":"2018","lastUpdated":"2018","lastActive":"no","area":2517.361965974961,"changesets":395,"mappers":59,"roads":65.3810335035801,"buildings":3061,"edits":3308,"latest":"2018-11-16T17:39:50.000Z"},"geometry":{"type":"Point","coordinates":[121.214348946442,16.8519828787362]}},{"type":"Feature","properties":{"id":5523,"title":"Post-Disaster Mapping in Brgy Cantao-An, Naga City, Cebu","status":"PUBLISHED","created":"2018","lastUpdated":"2018","lastActive":"no","area":8.578373136287787,"changesets":257,"mappers":8,"roads":0.0144907976786474,"buildings":1560,"edits":1566,"latest":"2018-11-26T21:11:14.000Z"},"geometry":{"type":"Point","coordinates":[123.751319151188,10.2496391615833]}},{"type":"Feature","properties":{"id":5435,"title":"Mindanao Region, Misamis Oriental (northern), Philippines - Mapping for Food Security","status":"PUBLISHED","created":"2018","lastUpdated":"2018","lastActive":"no","area":2072.929989519479,"changesets":339,"mappers":39,"roads":179.949825684978,"buildings":7380,"edits":7898,"latest":"2018-11-29T20:40:41.000Z"},"geometry":{"type":"Point","coordinates":[124.994799793291,8.76680642717642]}},{"type":"Feature","properties":{"id":5448,"title":"Palawan Region, El Nido, Philippines - Mapping for Food Security","status":"PUBLISHED","created":"2018","lastUpdated":"2019","lastActive":"no","area":531.8008952420495,"changesets":105,"mappers":30,"roads":16.0389686887453,"buildings":734,"edits":810,"latest":"2019-01-04T16:22:39.000Z"},"geometry":{"type":"Point","coordinates":[119.456004378106,11.2053832796224]}},{"type":"Feature","properties":{"id":5483,"title":"Samar Eastern, Philippines - Mapping for Food Security","status":"PUBLISHED","created":"2018","lastUpdated":"2019","lastActive":"no","area":4305.267408054197,"changesets":175,"mappers":55,"roads":31.1150990717491,"buildings":1338,"edits":1601,"latest":"2019-01-15T13:39:22.000Z"},"geometry":{"type":"Point","coordinates":[125.380313420073,11.6564103271826]}},{"type":"Feature","properties":{"id":115,"title":"Typhoon Bopha/Pablo Response Eastern Mindanao Philippines","status":"ARCHIVED","created":"2012","lastUpdated":"2014","lastActive":"no","area":16387.592340836713,"changesets":292,"mappers":13,"roads":276.234321336455,"buildings":39143,"edits":41774,"latest":"2018-11-28T01:53:49.000Z"},"geometry":{"type":"Point","coordinates":[126.210497930795,7.78677618840503]}},{"type":"Feature","properties":{"id":4475,"title":"CRS-UP NOAH Building Footprints Mapping - Malabon City","status":"PUBLISHED","created":"2018","lastUpdated":"2018","lastActive":"no","area":15.859280000650813,"changesets":415,"mappers":6,"roads":0.382192497128104,"buildings":12542,"edits":12650,"latest":"2018-07-23T18:12:59.000Z"},"geometry":{"type":"Point","coordinates":[120.958556364948,14.6741194997004]}},{"type":"Feature","properties":{"id":969,"title":"Maguindanao Internally Displaced People Mapping","status":"ARCHIVED","created":"2015","lastUpdated":"2015","lastActive":"no","area":874.6779099535637,"changesets":70,"mappers":15,"roads":48.0968166399096,"buildings":1242,"edits":1584,"latest":"2017-02-03T14:07:13.000Z"},"geometry":{"type":"Point","coordinates":[124.455666113863,6.93376559749209]}},{"type":"Feature","properties":{"id":3228,"title":"Barangay Villa Imelda, MacArthur, Leyte - Missing Maps","status":"ARCHIVED","created":"2017","lastUpdated":"2017","lastActive":"no","area":0.34056231149443766,"changesets":25,"mappers":2,"roads":1.2957954780593,"buildings":451,"edits":508,"latest":"2017-07-09T19:29:18.000Z"},"geometry":{"type":"Point","coordinates":[124.972643940364,10.7947134566455]}},{"type":"Feature","properties":{"id":1884,"title":"DOST-Project NOAH (ISAIAH) Structures Map Up Abra","status":"PUBLISHED","created":"2016","lastUpdated":"2017","lastActive":"no","area":3947.985752759589,"changesets":667,"mappers":23,"roads":15.8749668209089,"buildings":113153,"edits":113454,"latest":"2017-02-17T09:44:19.000Z"},"geometry":{"type":"Point","coordinates":[120.803133991024,17.5732312331836]}},{"type":"Feature","properties":{"id":3469,"title":"UP-NOAH Mapping Campuses (UP Cebu South Road Properties)","status":"PUBLISHED","created":"2017","lastUpdated":"2017","lastActive":"no","area":11.024467091991225,"changesets":0,"mappers":0,"roads":0,"buildings":0,"edits":0,"latest":null},"geometry":{"type":"Point","coordinates":[123.863489798937,10.2720224148916]}},{"type":"Feature","properties":{"id":3771,"title":"Missing Maps: Barangay Santiago, Alang Alang, Leyte, Philippines","status":"PUBLISHED","created":"2017","lastUpdated":"2018","lastActive":"no","area":0.8479729148703923,"changesets":14,"mappers":4,"roads":5.85505912721407,"buildings":335,"edits":456,"latest":"2017-11-04T23:35:40.000Z"},"geometry":{"type":"Point","coordinates":[124.810036729202,11.2001524051639]}},{"type":"Feature","properties":{"id":3461,"title":"UP-NOAH Mapping Campuses (UP Cebu City)","status":"PUBLISHED","created":"2017","lastUpdated":"2017","lastActive":"no","area":3.674962024941641,"changesets":129,"mappers":5,"roads":0.000832742688164885,"buildings":762,"edits":798,"latest":"2018-03-14T14:49:23.000Z"},"geometry":{"type":"Point","coordinates":[123.898654686438,10.3208242799959]}},{"type":"Feature","properties":{"id":3829,"title":"Barangay Talisay, Mayorga, Leyte - Missing Maps","status":"ARCHIVED","created":"2017","lastUpdated":"2018","lastActive":"no","area":2.270534722569991,"changesets":62,"mappers":14,"roads":4.94881595160742,"buildings":741,"edits":934,"latest":"2018-08-06T14:08:59.000Z"},"geometry":{"type":"Point","coordinates":[124.977423942551,10.9167877028129]}},{"type":"Feature","properties":{"id":3819,"title":"Barangay San Roque, Mayorga, Leyte  - Missing Maps","status":"ARCHIVED","created":"2017","lastUpdated":"2018","lastActive":"no","area":2.7046745085410087,"changesets":214,"mappers":36,"roads":17.6226150916672,"buildings":1551,"edits":2139,"latest":"2018-01-26T21:18:46.000Z"},"geometry":{"type":"Point","coordinates":[125.00829785497,10.890503893545]}},{"type":"Feature","properties":{"id":3300,"title":"Barangay Marasbaras, Tacloban, Leyte - Missing Maps","status":"PUBLISHED","created":"2017","lastUpdated":"2018","lastActive":"no","area":7.807989010258504,"changesets":126,"mappers":9,"roads":5.10115868250806,"buildings":3434,"edits":3775,"latest":"2018-06-28T16:24:02.000Z"},"geometry":{"type":"Point","coordinates":[125.011197546024,11.2052982929983]}},{"type":"Feature","properties":{"id":4202,"title":"Mayon Volcano USAID & USGS","status":"PUBLISHED","created":"2018","lastUpdated":"2018","lastActive":"no","area":23.191221545963582,"changesets":510,"mappers":109,"roads":38.6901666784996,"buildings":8870,"edits":9288,"latest":"2019-01-17T23:57:37.000Z"},"geometry":{"type":"Point","coordinates":[123.716571523024,13.3049864402658]}},{"type":"Feature","properties":{"id":5495,"title":"Cotabato, Philippines - Build-up Setlements Mapping","status":"PUBLISHED","created":"2018","lastUpdated":"2018","lastActive":"no","area":5897.959292455374,"changesets":0,"mappers":0,"roads":0,"buildings":0,"edits":0,"latest":null},"geometry":{"type":"Point","coordinates":[124.850522861635,7.20260557821726]}},{"type":"Feature","properties":{"id":5451,"title":"Post-Disaster Mapping in Naga City, Cebu","status":"PUBLISHED","created":"2018","lastUpdated":"2018","lastActive":"no","area":19.413583273770467,"changesets":495,"mappers":4,"roads":0.0923940195778522,"buildings":8062,"edits":8079,"latest":"2018-11-28T03:21:09.000Z"},"geometry":{"type":"Point","coordinates":[123.73523094522,10.2051171544122]}},{"type":"Feature","properties":{"id":4934,"title":"Settlement mapping exercise - Lake Sebu, SCO, PH","status":"ARCHIVED","created":"2018","lastUpdated":"2018","lastActive":"no","area":5.951740845677327,"changesets":135,"mappers":15,"roads":18.7669911239401,"buildings":1228,"edits":1375,"latest":"2018-08-19T16:20:47.000Z"},"geometry":{"type":"Point","coordinates":[124.728218697631,6.34768561053494]}},{"type":"Feature","properties":{"id":806,"title":"Untitled project","status":"ARCHIVED","created":"2014","lastUpdated":"2014","lastActive":"no","area":190.12562277909845,"changesets":0,"mappers":0,"roads":0,"buildings":0,"edits":0,"latest":null},"geometry":{"type":"Point","coordinates":[124.307229605675,12.5248439779651]}},{"type":"Feature","properties":{"id":3793,"title":"UP-NOAH Mapping Campuses (UP Alabang)","status":"PUBLISHED","created":"2017","lastUpdated":"2017","lastActive":"no","area":2.6954788018399616,"changesets":27,"mappers":2,"roads":0.572493785765776,"buildings":237,"edits":281,"latest":"2017-11-25T07:01:43.000Z"},"geometry":{"type":"Point","coordinates":[121.012306971615,14.3769715579675]}},{"type":"Feature","properties":{"id":3795,"title":"UP-NOAH Mapping Campuses (UP Baguio)","status":"PUBLISHED","created":"2017","lastUpdated":"2018","lastActive":"no","area":1.7552341733864982,"changesets":20,"mappers":3,"roads":6.9939403601893e-11,"buildings":71,"edits":80,"latest":"2017-11-25T04:44:52.000Z"},"geometry":{"type":"Point","coordinates":[120.597797552167,16.4058730523546]}},{"type":"Feature","properties":{"id":131,"title":"New Bataan - Typhoon Bopha/Pablo","status":"ARCHIVED","created":"2012","lastUpdated":"2018","lastActive":"no","area":106.888571010529,"changesets":719,"mappers":33,"roads":2498.97338320675,"buildings":83340,"edits":93909,"latest":"2018-08-18T10:08:02.000Z"},"geometry":{"type":"Point","coordinates":[126.108576736349,7.55772514395339]}},{"type":"Feature","properties":{"id":3907,"title":"CRS-UP NOAH Building Footprints Mapping - Malabon City","status":"PUBLISHED","created":"2017","lastUpdated":"2018","lastActive":"no","area":15.859280000650813,"changesets":18,"mappers":2,"roads":0.908475572641972,"buildings":67,"edits":74,"latest":"2018-06-06T08:03:26.000Z"},"geometry":{"type":"Point","coordinates":[120.958556364948,14.6741194997004]}},{"type":"Feature","properties":{"id":3794,"title":"UP-NOAH Mapping Campuses (UP Manila School of Health Sciences, Aurora)","status":"PUBLISHED","created":"2017","lastUpdated":"2018","lastActive":"no","area":4.535501398412163,"changesets":9,"mappers":4,"roads":1.96975188471171e-9,"buildings":33,"edits":46,"latest":"2018-11-10T01:41:23.000Z"},"geometry":{"type":"Point","coordinates":[121.540786596002,15.8055494402257]}},{"type":"Feature","properties":{"id":3790,"title":"UP-NOAH Mapping Campuses (UP Open University - Headquarters)","status":"PUBLISHED","created":"2017","lastUpdated":"2017","lastActive":"no","area":1.4776756115042378,"changesets":3,"mappers":1,"roads":0.0132762322661055,"buildings":0,"edits":8,"latest":"2017-11-25T03:52:08.000Z"},"geometry":{"type":"Point","coordinates":[121.263475179868,14.1748876634663]}},{"type":"Feature","properties":{"id":3792,"title":"UP-NOAH Mapping Campuses (UP Manila School of Health Sciences, South Cotabato)","status":"PUBLISHED","created":"2017","lastUpdated":"2018","lastActive":"no","area":4.3460409669323505,"changesets":10,"mappers":3,"roads":0.744313973193778,"buildings":45,"edits":67,"latest":"2018-11-10T00:01:08.000Z"},"geometry":{"type":"Point","coordinates":[124.882442269799,6.44755107380189]}},{"type":"Feature","properties":{"id":3470,"title":"UP-NOAH Mapping Campuses (UP Visayas Miag-ao) ","status":"PUBLISHED","created":"2017","lastUpdated":"2017","lastActive":"no","area":12.578176573343839,"changesets":10,"mappers":2,"roads":0,"buildings":32,"edits":38,"latest":"2018-01-03T04:42:33.000Z"},"geometry":{"type":"Point","coordinates":[122.219106834524,10.6526884345584]}},{"type":"Feature","properties":{"id":1888,"title":"DOST-Project NOAH (ISAIAH) Structures Map Up Bataan","status":"PUBLISHED","created":"2016","lastUpdated":"2017","lastActive":"no","area":2696.6107231235264,"changesets":1334,"mappers":27,"roads":8.19466885708856,"buildings":178984,"edits":180369,"latest":"2017-05-08T03:38:27.000Z"},"geometry":{"type":"Point","coordinates":[120.439364744064,14.5994934293397]}},{"type":"Feature","properties":{"id":5430,"title":"Mindanao, Philippines - Missing Roads Validation","status":"PUBLISHED","created":"2018","lastUpdated":"2018","lastActive":"no","area":58.54300317552073,"changesets":0,"mappers":0,"roads":0,"buildings":0,"edits":0,"latest":null},"geometry":{"type":"Point","coordinates":[124.670134182691,7.55328139685998]}},{"type":"Feature","properties":{"id":2979,"title":"Barangay Lanawan, MacArthur, Leyte - Missing Maps","status":"ARCHIVED","created":"2017","lastUpdated":"2017","lastActive":"no","area":0.0917228914938338,"changesets":21,"mappers":5,"roads":0.469853684785577,"buildings":200,"edits":230,"latest":"2017-07-06T18:56:17.000Z"},"geometry":{"type":"Point","coordinates":[124.859780631027,10.8566078034693]}},{"type":"Feature","properties":{"id":1055,"title":"Bohol Island, Philippines OpenRoad project, Part III -- MapGive","status":"PUBLISHED","created":"2015","lastUpdated":"2017","lastActive":"no","area":167.18586226424708,"changesets":0,"mappers":0,"roads":0,"buildings":0,"edits":0,"latest":null},"geometry":{"type":"Point","coordinates":[124.050913486072,9.6513521536648]}},{"type":"Feature","properties":{"id":1684,"title":"DOST-Project NOAH (ISAIAH) Structures Map Up Camiguin","status":"ARCHIVED","created":"2016","lastUpdated":"2016","lastActive":"no","area":351.61522584790544,"changesets":0,"mappers":0,"roads":0,"buildings":0,"edits":0,"latest":null},"geometry":{"type":"Point","coordinates":[124.724050743749,9.17473306441151]}},{"type":"Feature","properties":{"id":133,"title":"Baganga - Typhoon Bopha/Pablo","status":"ARCHIVED","created":"2012","lastUpdated":"2018","lastActive":"no","area":148.7861752355768,"changesets":69,"mappers":12,"roads":133.600912887323,"buildings":13328,"edits":13762,"latest":"2018-11-23T08:46:03.000Z"},"geometry":{"type":"Point","coordinates":[126.545160760843,7.60391729996262]}},{"type":"Feature","properties":{"id":1509,"title":"Northern Cebu Risk Mapping Project - Daanbantayan and Medellin","status":"PUBLISHED","created":"2016","lastUpdated":"2018","lastActive":"no","area":165.4687088247908,"changesets":738,"mappers":125,"roads":62.7229363982263,"buildings":15949,"edits":19110,"latest":"2018-08-25T04:09:52.000Z"},"geometry":{"type":"Point","coordinates":[124.000804368288,11.18293581575]}},{"type":"Feature","properties":{"id":2109,"title":"DOST-Project NOAH (ISAIAH) Structures Map Up Leyte Island","status":"PUBLISHED","created":"2016","lastUpdated":"2017","lastActive":"no","area":15287.575096873534,"changesets":1323,"mappers":77,"roads":6.95731933027256,"buildings":115847,"edits":116459,"latest":"2017-02-24T15:20:26.000Z"},"geometry":{"type":"Point","coordinates":[124.828453753641,10.6947256509807]}},{"type":"Feature","properties":{"id":2059,"title":"DOST-Project NOAH (ISAIAH) Structures Map Up Taguig City","status":"PUBLISHED","created":"2016","lastUpdated":"2017","lastActive":"no","area":36.87283084272823,"changesets":4328,"mappers":22,"roads":2.4293822761857,"buildings":85702,"edits":88012,"latest":"2017-01-13T04:08:01.000Z"},"geometry":{"type":"Point","coordinates":[121.060318398119,14.5189720719609]}},{"type":"Feature","properties":{"id":3436,"title":"UP-NOAH Mapping Campuses (UP Diliman)","status":"PUBLISHED","created":"2017","lastUpdated":"2017","lastActive":"no","area":4.428477183303132,"changesets":95,"mappers":5,"roads":1.5221188801769,"buildings":6810,"edits":7385,"latest":"2017-11-25T06:49:39.000Z"},"geometry":{"type":"Point","coordinates":[121.064794163922,14.653980273509]}},{"type":"Feature","properties":{"id":3434,"title":"UP-NOAH Mapping Campuses (UP Diliman Extension Programs in Pampanga)","status":"PUBLISHED","created":"2017","lastUpdated":"2018","lastActive":"no","area":43.54156672373075,"changesets":84,"mappers":6,"roads":19.7785801393429,"buildings":2930,"edits":3163,"latest":"2018-03-08T03:26:42.000Z"},"geometry":{"type":"Point","coordinates":[120.544840750701,15.1871533788111]}},{"type":"Feature","properties":{"id":4474,"title":"CRS-UP NOAH Building Footprints Mapping - Marilao, Bulacan","status":"PUBLISHED","created":"2018","lastUpdated":"2018","lastActive":"no","area":28.509141928904054,"changesets":636,"mappers":14,"roads":16.086328379399,"buildings":22093,"edits":22885,"latest":"2018-08-21T03:49:57.000Z"},"geometry":{"type":"Point","coordinates":[120.971283673059,14.7728591926076]}},{"type":"Feature","properties":{"id":5421,"title":"PRC-VCAD project sites","status":"PUBLISHED","created":"2018","lastUpdated":"2018","lastActive":"no","area":1978.0745869605585,"changesets":9,"mappers":2,"roads":23.8884778366055,"buildings":184,"edits":542,"latest":"2018-11-06T15:36:38.000Z"},"geometry":{"type":"Point","coordinates":[122.624235299629,12.3256284958559]}},{"type":"Feature","properties":{"id":363,"title":"Typhoon Haiyan - Eastern Side of Panay Island ","status":"ARCHIVED","created":"2013","lastUpdated":"2017","lastActive":"no","area":5119.451144114698,"changesets":0,"mappers":0,"roads":0,"buildings":0,"edits":0,"latest":null},"geometry":{"type":"Point","coordinates":[122.82016392368,11.2188614872727]}},{"type":"Feature","properties":{"id":5233,"title":"Typhoon Ompong Pre-Disaster Mapping","status":"ARCHIVED","created":"2018","lastUpdated":"2018","lastActive":"no","area":127819.30061766622,"changesets":41,"mappers":7,"roads":11.7899762817965,"buildings":1658,"edits":1702,"latest":"2018-09-14T07:52:55.000Z"},"geometry":{"type":"Point","coordinates":[121.330786294589,17.5606666310015]}},{"type":"Feature","properties":{"id":323,"title":"Candaba OSM Training","status":"ARCHIVED","created":"2013","lastUpdated":"2018","lastActive":"no","area":209.77469668523733,"changesets":52,"mappers":10,"roads":20.1433307318058,"buildings":1994,"edits":2151,"latest":"2018-08-30T10:09:20.000Z"},"geometry":{"type":"Point","coordinates":[120.873071297064,15.1025593388547]}},{"type":"Feature","properties":{"id":336,"title":"Mapping in Laurel municipality -  SA activities","status":"ARCHIVED","created":"2013","lastUpdated":"2014","lastActive":"no","area":31.488200520668734,"changesets":66,"mappers":3,"roads":23.8203842819254,"buildings":3002,"edits":3213,"latest":"2018-10-08T00:51:39.000Z"},"geometry":{"type":"Point","coordinates":[120.941619395341,14.0665291172123]}},{"type":"Feature","properties":{"id":377,"title":"Mapping in San Nicolas, Philippines - SA activities","status":"PUBLISHED","created":"2013","lastUpdated":"2017","lastActive":"no","area":23.251952235661427,"changesets":0,"mappers":0,"roads":0,"buildings":0,"edits":0,"latest":null},"geometry":{"type":"Point","coordinates":[120.935493640075,13.933195025614]}},{"type":"Feature","properties":{"id":505,"title":"Davao City, Philippines","status":"PUBLISHED","created":"2014","lastUpdated":"2017","lastActive":"no","area":62.25155048812598,"changesets":0,"mappers":0,"roads":0,"buildings":0,"edits":0,"latest":null},"geometry":{"type":"Point","coordinates":[125.611011823409,7.08791274995429]}},{"type":"Feature","properties":{"id":387,"title":"Mapping in Taal volcano, Philippines","status":"PUBLISHED","created":"2013","lastUpdated":"2016","lastActive":"no","area":71.85336636220062,"changesets":0,"mappers":0,"roads":0,"buildings":0,"edits":0,"latest":null},"geometry":{"type":"Point","coordinates":[120.99507413733,14.007640175295]}},{"type":"Feature","properties":{"id":5414,"title":"Luzon, Philippines - Missing Roads Validation","status":"PUBLISHED","created":"2018","lastUpdated":"2018","lastActive":"no","area":248.88650639067384,"changesets":0,"mappers":0,"roads":0,"buildings":0,"edits":0,"latest":null},"geometry":{"type":"Point","coordinates":[120.98845026101,14.837542318174]}},{"type":"Feature","properties":{"id":5499,"title":"Cotabato, Philippines - Build-up Setlements Mapping","status":"PUBLISHED","created":"2018","lastUpdated":"2018","lastActive":"no","area":86.66938866573263,"changesets":76,"mappers":11,"roads":0.403263784972876,"buildings":8130,"edits":8178,"latest":"2018-11-24T03:48:29.000Z"},"geometry":{"type":"Point","coordinates":[124.231446866038,7.20862277232688]}},{"type":"Feature","properties":{"id":504,"title":"General Santos City, Philippines","status":"PUBLISHED","created":"2014","lastUpdated":"2017","lastActive":"no","area":41.853759664341574,"changesets":0,"mappers":0,"roads":0,"buildings":0,"edits":0,"latest":null},"geometry":{"type":"Point","coordinates":[125.166194433626,6.1255914338959]}},{"type":"Feature","properties":{"id":1966,"title":"DOST-Project NOAH (ISAIAH) Structures Map Up Zambales","status":"PUBLISHED","created":"2016","lastUpdated":"2017","lastActive":"no","area":4983.089272993,"changesets":1435,"mappers":43,"roads":365.581973632519,"buildings":214854,"edits":219213,"latest":"2018-01-23T07:13:14.000Z"},"geometry":{"type":"Point","coordinates":[120.101114604021,15.3021294986862]}},{"type":"Feature","properties":{"id":4218,"title":"Ilocos, PH - Missing Roads","status":"ARCHIVED","created":"2018","lastUpdated":"2018","lastActive":"no","area":3.351577108453254,"changesets":0,"mappers":0,"roads":0,"buildings":0,"edits":0,"latest":null},"geometry":{"type":"Point","coordinates":[120.470400947485,17.4828315084603]}},{"type":"Feature","properties":{"id":4216,"title":"Northern Mindanao, PH - Missing Roads","status":"ARCHIVED","created":"2018","lastUpdated":"2018","lastActive":"no","area":3.6160059552083452,"changesets":0,"mappers":0,"roads":0,"buildings":0,"edits":0,"latest":null},"geometry":{"type":"Point","coordinates":[124.546122781293,8.38191901642987]}},{"type":"Feature","properties":{"id":4221,"title":"Central Luzon, PH - Missing Roads","status":"ARCHIVED","created":"2018","lastUpdated":"2018","lastActive":"no","area":7.136402147325932,"changesets":0,"mappers":0,"roads":0,"buildings":0,"edits":0,"latest":null},"geometry":{"type":"Point","coordinates":[120.561243973481,15.2014514270206]}},{"type":"Feature","properties":{"id":4227,"title":"Soccsksargen, PH - Missing Roads","status":"ARCHIVED","created":"2018","lastUpdated":"2018","lastActive":"no","area":3.1029043042642748,"changesets":0,"mappers":0,"roads":0,"buildings":0,"edits":0,"latest":null},"geometry":{"type":"Point","coordinates":[124.990132029402,6.2851636764707]}},{"type":"Feature","properties":{"id":4180,"title":"Metro Manila, PH - Road Alignment","status":"ARCHIVED","created":"2018","lastUpdated":"2018","lastActive":"no","area":183.45449881914288,"changesets":0,"mappers":0,"roads":0,"buildings":0,"edits":0,"latest":null},"geometry":{"type":"Point","coordinates":[121.036352449656,14.5961072763956]}},{"type":"Feature","properties":{"id":5234,"title":"Typhoon Ompong: Isabela Structures 1","status":"ARCHIVED","created":"2018","lastUpdated":"2018","lastActive":"no","area":3692.327955202936,"changesets":8316,"mappers":379,"roads":1438.00308523173,"buildings":75407,"edits":80840,"latest":"2018-12-28T15:57:58.000Z"},"geometry":{"type":"Point","coordinates":[122.204399806909,16.9572292235093]}},{"type":"Feature","properties":{"id":5242,"title":"Typhoon Ompong: Cordillera Region structures","status":"ARCHIVED","created":"2018","lastUpdated":"2018","lastActive":"no","area":3806.647315749907,"changesets":2928,"mappers":235,"roads":292.324477616132,"buildings":28501,"edits":29862,"latest":"2018-11-18T23:16:35.000Z"},"geometry":{"type":"Point","coordinates":[121.150332148109,18.0659829308276]}},{"type":"Feature","properties":{"id":5429,"title":"Visayas, Philippines - Missing Roads Validation","status":"PUBLISHED","created":"2018","lastUpdated":"2018","lastActive":"no","area":60.35611061633772,"changesets":0,"mappers":0,"roads":0,"buildings":0,"edits":0,"latest":null},"geometry":{"type":"Point","coordinates":[123.412019883381,10.4668715968824]}},{"type":"Feature","properties":{"id":3239,"title":"Barangay San Antonio, MacArthur, Leyte - Missing Maps","status":"ARCHIVED","created":"2017","lastUpdated":"2017","lastActive":"no","area":0.12122390001585517,"changesets":26,"mappers":5,"roads":0.750278355840365,"buildings":335,"edits":380,"latest":"2017-07-10T14:14:28.000Z"},"geometry":{"type":"Point","coordinates":[124.892070662961,10.8277155387306]}},{"type":"Feature","properties":{"id":3237,"title":"Barangay Burgos, Mayorga, Leyte - Missing Maps","status":"ARCHIVED","created":"2017","lastUpdated":"2017","lastActive":"no","area":1.0925764613549902,"changesets":33,"mappers":2,"roads":8.21818609437068,"buildings":357,"edits":504,"latest":"2017-07-28T15:10:24.000Z"},"geometry":{"type":"Point","coordinates":[124.985213924816,10.8826342628704]}},{"type":"Feature","properties":{"id":3225,"title":"Barangay Aslum, Alang Alang, Leyte, Philippines - Missing Maps","status":"ARCHIVED","created":"2017","lastUpdated":"2018","lastActive":"no","area":0.6055093365400158,"changesets":49,"mappers":4,"roads":7.73812367006566,"buildings":376,"edits":730,"latest":"2017-12-19T21:06:45.000Z"},"geometry":{"type":"Point","coordinates":[124.884755059024,11.1692880712302]}},{"type":"Feature","properties":{"id":3227,"title":"Barangay Burabod, MacArthur, Leyte, Philippines - Missing Maps","status":"ARCHIVED","created":"2017","lastUpdated":"2017","lastActive":"no","area":0.6983851403478792,"changesets":21,"mappers":3,"roads":2.37254205259137,"buildings":154,"edits":212,"latest":"2017-10-23T15:37:40.000Z"},"geometry":{"type":"Point","coordinates":[124.939180347741,10.8374430356225]}}],"Uganda":[{"type":"Feature","properties":{"id":5070,"title":"Uganda Crowdsourcing Non-Camp Refugee Data Pagrinya Reception Centre, Adjumani District","status":"PUBLISHED","created":"2018","lastUpdated":"2018","lastActive":"no","area":7.921099415198183,"changesets":113,"mappers":6,"roads":8.68723393427923,"buildings":6937,"edits":7004,"latest":"2018-08-27T08:25:37.000Z"},"geometry":{"type":"Point","coordinates":[32.0140235162989,3.3819926096233]}},{"type":"Feature","properties":{"id":5060,"title":"Uganda Crowdsourcing Non-Camp Refugee Data Ayivuni Subcounty, Arua District","status":"PUBLISHED","created":"2018","lastUpdated":"2018","lastActive":"no","area":47.139643321499555,"changesets":252,"mappers":12,"roads":0.0374757520399794,"buildings":8634,"edits":8641,"latest":"2018-08-30T07:17:11.000Z"},"geometry":{"type":"Point","coordinates":[30.8327459940097,3.08918993054192]}},{"type":"Feature","properties":{"id":5058,"title":"Uganda Crowdsourcing Non-Camp Refugee Data Pajulu Subcounty, Arua District","status":"PUBLISHED","created":"2018","lastUpdated":"2018","lastActive":"no","area":61.130021057887674,"changesets":288,"mappers":18,"roads":3.84666196905966,"buildings":15146,"edits":15221,"latest":"2018-09-05T06:18:48.000Z"},"geometry":{"type":"Point","coordinates":[30.8739515028358,3.00368415825916]}},{"type":"Feature","properties":{"id":5053,"title":"Uganda Crowdsourcing Non-Camp Refugee Data Ogoko Subcounty, Arua District","status":"PUBLISHED","created":"2018","lastUpdated":"2018","lastActive":"no","area":458.1729426679203,"changesets":456,"mappers":8,"roads":0.439918342427986,"buildings":19672,"edits":19689,"latest":"2018-08-30T05:37:40.000Z"},"geometry":{"type":"Point","coordinates":[31.2286041605004,2.89202179088705]}},{"type":"Feature","properties":{"id":5207,"title":"Ebola 2018, DRC/Ntoroko District Border Mapping","status":"PUBLISHED","created":"2018","lastUpdated":"2019","lastActive":"yes","area":1827.2729891423319,"changesets":1617,"mappers":279,"roads":467.223310481287,"buildings":8894,"edits":11363,"latest":"2019-01-17T16:34:00.000Z"},"geometry":{"type":"Point","coordinates":[30.2710121990189,1.08357516305285]}},{"type":"Feature","properties":{"id":3732,"title":"Saving Mothers Giving Life: Kyenjojo, Uganda","status":"ARCHIVED","created":"2017","lastUpdated":"2018","lastActive":"no","area":2366.1273157793985,"changesets":7902,"mappers":655,"roads":8561.83893691152,"buildings":127814,"edits":251183,"latest":"2018-04-10T01:54:13.000Z"},"geometry":{"type":"Point","coordinates":[30.6620978302436,0.659377083365902]}},{"type":"Feature","properties":{"id":5610,"title":"Mutumba Sub-County, Namayingo District, Uganda","status":"PUBLISHED","created":"2018","lastUpdated":"2019","lastActive":"no","area":104.29176135017,"changesets":688,"mappers":66,"roads":3.3161140319944,"buildings":13940,"edits":13952,"latest":"2019-01-11T09:35:56.000Z"},"geometry":{"type":"Point","coordinates":[33.7793084994007,0.237809542358964]}},{"type":"Feature","properties":{"id":2770,"title":"Palorinya Refugee Camp, Moyo District, Uganda ","status":"ARCHIVED","created":"2017","lastUpdated":"2017","lastActive":"no","area":53.107368138798506,"changesets":703,"mappers":90,"roads":299.253719200193,"buildings":26966,"edits":29048,"latest":"2017-04-12T20:52:03.000Z"},"geometry":{"type":"Point","coordinates":[31.5796627315964,3.42915486471554]}},{"type":"Feature","properties":{"id":5581,"title":"Nebbi  District, Uganda Refugee Mapping","status":"PUBLISHED","created":"2018","lastUpdated":"2018","lastActive":"no","area":779.5449311146575,"changesets":774,"mappers":27,"roads":90.5491126793865,"buildings":96876,"edits":97010,"latest":"2018-12-10T15:51:27.000Z"},"geometry":{"type":"Point","coordinates":[31.1944776120686,2.3560572644194]}},{"type":"Feature","properties":{"id":5564,"title":"Kampala District, Kawempe Division, Uganda - Refugee Mapping","status":"PUBLISHED","created":"2018","lastUpdated":"2018","lastActive":"no","area":31.05372452854765,"changesets":1202,"mappers":37,"roads":2.60927704607908,"buildings":81918,"edits":82288,"latest":"2019-01-18T07:20:42.000Z"},"geometry":{"type":"Point","coordinates":[32.5754890211266,0.36743038747919]}},{"type":"Feature","properties":{"id":5577,"title":"Kiryandongo District Roads Mapping","status":"PUBLISHED","created":"2018","lastUpdated":"2019","lastActive":"yes","area":3647.7812630637227,"changesets":650,"mappers":21,"roads":1725.88377961596,"buildings":11573,"edits":14376,"latest":"2019-01-18T08:47:42.000Z"},"geometry":{"type":"Point","coordinates":[32.041618424462,2.02288277482153]}},{"type":"Feature","properties":{"id":5445,"title":"Mparo Division and Buhanika Subcounty, Hoima District, Uganda","status":"PUBLISHED","created":"2018","lastUpdated":"2018","lastActive":"no","area":181.89432975513586,"changesets":574,"mappers":23,"roads":1.64164097195028,"buildings":12852,"edits":12930,"latest":"2018-11-16T13:58:40.000Z"},"geometry":{"type":"Point","coordinates":[31.426515825295,1.3700422947166]}},{"type":"Feature","properties":{"id":5552,"title":"Adjumani District, Uganda -Refugee Mapping","status":"PUBLISHED","created":"2018","lastUpdated":"2018","lastActive":"no","area":1451.1457567869315,"changesets":1125,"mappers":33,"roads":1.57842855439283,"buildings":48307,"edits":48423,"latest":"2018-11-25T15:57:46.000Z"},"geometry":{"type":"Point","coordinates":[31.906987872274,3.30700822508436]}},{"type":"Feature","properties":{"id":5454,"title":"Buseruka, Kizirafumbi Subcounty Hoima, Uganda","status":"PUBLISHED","created":"2018","lastUpdated":"2018","lastActive":"no","area":668.2757904201408,"changesets":586,"mappers":30,"roads":5.11922937035868,"buildings":27478,"edits":27531,"latest":"2018-11-20T10:03:35.000Z"},"geometry":{"type":"Point","coordinates":[31.1193703429499,1.44560886297994]}},{"type":"Feature","properties":{"id":5596,"title":"Lamwo District Roads Mapping","status":"PUBLISHED","created":"2018","lastUpdated":"2019","lastActive":"yes","area":4809.246792498921,"changesets":511,"mappers":14,"roads":1759.15915672427,"buildings":8538,"edits":10709,"latest":"2019-01-18T10:01:13.000Z"},"geometry":{"type":"Point","coordinates":[32.757186543365,3.5779333797391]}},{"type":"Feature","properties":{"id":5505,"title":"Kiryandongo District, Uganda","status":"PUBLISHED","created":"2018","lastUpdated":"2018","lastActive":"no","area":2478.332860346222,"changesets":2025,"mappers":68,"roads":23.0145547280738,"buildings":141904,"edits":142015,"latest":"2018-12-05T09:09:33.000Z"},"geometry":{"type":"Point","coordinates":[32.1099919646167,1.96952847861348]}},{"type":"Feature","properties":{"id":5299,"title":"Kirwoko, Siron  Parishes - Kapchorwa District mapping to help end FGM - Uganda","status":"PUBLISHED","created":"2018","lastUpdated":"2018","lastActive":"no","area":8.630813776064755,"changesets":258,"mappers":15,"roads":47.456731253572,"buildings":1955,"edits":2397,"latest":"2018-11-02T13:08:34.000Z"},"geometry":{"type":"Point","coordinates":[34.4699761423445,1.4195506684342]}},{"type":"Feature","properties":{"id":5469,"title":"Babakara, Hapuuyo, Kyegegwa Town Council, Kyegegwa District, Uganda","status":"PUBLISHED","created":"2018","lastUpdated":"2018","lastActive":"no","area":713.164590218725,"changesets":675,"mappers":33,"roads":8.83235552469332,"buildings":43839,"edits":44104,"latest":"2018-11-20T14:40:21.000Z"},"geometry":{"type":"Point","coordinates":[31.0059218176027,0.574104523109574]}},{"type":"Feature","properties":{"id":5456,"title":"Kyangwali Subcounty, Hoima District, Uganda","status":"PUBLISHED","created":"2018","lastUpdated":"2018","lastActive":"no","area":495.99932479912576,"changesets":435,"mappers":26,"roads":2.18249531944726,"buildings":16135,"edits":16188,"latest":"2018-11-28T12:12:07.000Z"},"geometry":{"type":"Point","coordinates":[30.8450375976689,1.23352105668042]}},{"type":"Feature","properties":{"id":5171,"title":"Ebola 2018, DRC/Kanungu District Border Roads Mapping","status":"PUBLISHED","created":"2018","lastUpdated":"2018","lastActive":"no","area":653.4038399066059,"changesets":404,"mappers":57,"roads":824.602674625517,"buildings":885,"edits":3698,"latest":"2018-12-09T16:59:08.000Z"},"geometry":{"type":"Point","coordinates":[29.638815766461,-0.765965544201528]}},{"type":"Feature","properties":{"id":5452,"title":"Busiisi, Bujumbura,Subcounty, Hoima District, Uganda","status":"PUBLISHED","created":"2018","lastUpdated":"2018","lastActive":"no","area":140.36645870963497,"changesets":439,"mappers":25,"roads":0.994103249974874,"buildings":12047,"edits":12129,"latest":"2018-11-26T00:23:30.000Z"},"geometry":{"type":"Point","coordinates":[31.3246638047757,1.43938302679903]}},{"type":"Feature","properties":{"id":5567,"title":"Makindye Division,Kampala District, Uganda - Refugee Mapping","status":"PUBLISHED","created":"2018","lastUpdated":"2018","lastActive":"no","area":48.79786058471487,"changesets":876,"mappers":38,"roads":2.46292777671149,"buildings":61779,"edits":62346,"latest":"2018-12-07T09:36:10.000Z"},"geometry":{"type":"Point","coordinates":[32.6134602826585,0.272561398196064]}},{"type":"Feature","properties":{"id":5443,"title":"Kitoba and Kyabigamire Subcounty, Hoima District, Uganda","status":"PUBLISHED","created":"2018","lastUpdated":"2018","lastActive":"no","area":515.0246137830939,"changesets":501,"mappers":13,"roads":2.4582039764687,"buildings":40325,"edits":40452,"latest":"2018-11-13T15:14:57.000Z"},"geometry":{"type":"Point","coordinates":[31.426850899203,1.49336723438459]}},{"type":"Feature","properties":{"id":5294,"title":"Tumboboi Parish, Kaptanya Sub-county, Kapchorwa District mapping to help end FGM - Uganda","status":"PUBLISHED","created":"2018","lastUpdated":"2018","lastActive":"no","area":11.924554159362645,"changesets":332,"mappers":21,"roads":93.0161344736902,"buildings":1257,"edits":1788,"latest":"2018-10-17T09:02:27.000Z"},"geometry":{"type":"Point","coordinates":[34.464190889598,1.45283355265955]}},{"type":"Feature","properties":{"id":4970,"title":"Clean Streets Kampala","status":"PUBLISHED","created":"2018","lastUpdated":"2018","lastActive":"no","area":1.1349195259435116,"changesets":281,"mappers":33,"roads":2.86296845781359,"buildings":3260,"edits":3404,"latest":"2018-12-04T14:20:19.000Z"},"geometry":{"type":"Point","coordinates":[32.5913183551921,0.351818893458289]}},{"type":"Feature","properties":{"id":4829,"title":"Uganda Crowdsourcing Non-Camp Refugee Data, Oruchinga, Isingiro District","status":"PUBLISHED","created":"2018","lastUpdated":"2018","lastActive":"no","area":362.6687747467698,"changesets":706,"mappers":71,"roads":7.82374290592274,"buildings":29048,"edits":29143,"latest":"2018-08-24T16:30:45.000Z"},"geometry":{"type":"Point","coordinates":[30.6482833665806,-0.957818207888592]}},{"type":"Feature","properties":{"id":4593,"title":"Uganda Crowd-sourcing Non-Camp Refugee Data (Urban Mapping), Hoima Municipality, Hoima District","status":"PUBLISHED","created":"2018","lastUpdated":"2018","lastActive":"no","area":40.21494542121517,"changesets":871,"mappers":157,"roads":17.7255524448422,"buildings":12454,"edits":12687,"latest":"2018-12-30T14:22:49.000Z"},"geometry":{"type":"Point","coordinates":[31.3454547455693,1.43808881418473]}},{"type":"Feature","properties":{"id":5004,"title":"Uganda Crowdsourcing Non-Camp Refugee Data Baroli Refugee Settlement, Adjumani District","status":"PUBLISHED","created":"2018","lastUpdated":"2018","lastActive":"no","area":1.0795136184381657,"changesets":82,"mappers":10,"roads":0.612074934819944,"buildings":2075,"edits":2087,"latest":"2018-08-22T12:10:15.000Z"},"geometry":{"type":"Point","coordinates":[31.8678608543468,3.29418717287429]}},{"type":"Feature","properties":{"id":5023,"title":"Uganda Crowdsourcing Non-Camp Refugee Data Ayilo Refugee Settlement Adjumani District","status":"PUBLISHED","created":"2018","lastUpdated":"2018","lastActive":"no","area":8.431347575060217,"changesets":138,"mappers":5,"roads":0.0124358352302912,"buildings":6392,"edits":6402,"latest":"2018-08-24T13:48:14.000Z"},"geometry":{"type":"Point","coordinates":[31.9466760047503,3.27608662441525]}},{"type":"Feature","properties":{"id":4463,"title":"Uganda Crowdsourcing Non-Camp Refugee Data Nakivale Refugee Settlement, Isingiro District","status":"ARCHIVED","created":"2018","lastUpdated":"2018","lastActive":"no","area":406.8249304717634,"changesets":1879,"mappers":185,"roads":293.906835086884,"buildings":22344,"edits":23205,"latest":"2018-05-10T21:29:04.000Z"},"geometry":{"type":"Point","coordinates":[30.9393417877103,-0.811684644096878]}},{"type":"Feature","properties":{"id":3734,"title":"Ocea Zone, Rhino Camp, Uganda","status":"ARCHIVED","created":"2017","lastUpdated":"2018","lastActive":"no","area":2.874349426478466,"changesets":205,"mappers":20,"roads":16.7826692701172,"buildings":2454,"edits":2878,"latest":"2017-12-25T16:07:50.000Z"},"geometry":{"type":"Point","coordinates":[31.2818479517423,3.08310950522608]}},{"type":"Feature","properties":{"id":4322,"title":"Uganda - Bridges to Prosperity - Bridge AOI Mapping","status":"ARCHIVED","created":"2018","lastUpdated":"2018","lastActive":"no","area":6.405450259715074,"changesets":140,"mappers":11,"roads":52.7012264258264,"buildings":1606,"edits":1975,"latest":"2018-04-09T05:13:11.000Z"},"geometry":{"type":"Point","coordinates":[34.2550829145807,1.11600197899798]}},{"type":"Feature","properties":{"id":4359,"title":"CFYDDI Training","status":"ARCHIVED","created":"2018","lastUpdated":"2018","lastActive":"no","area":27.820896722399368,"changesets":11,"mappers":3,"roads":0,"buildings":14,"edits":14,"latest":"2018-03-24T15:56:59.000Z"},"geometry":{"type":"Point","coordinates":[32.6375174892928,0.482318647545628]}},{"type":"Feature","properties":{"id":5019,"title":"Uganda Crowdsourcing Non-Camp Refugee Data Mungula 1 Refugee Settlement Adjumani District","status":"PUBLISHED","created":"2018","lastUpdated":"2018","lastActive":"no","area":1.9878667365284295,"changesets":73,"mappers":5,"roads":0,"buildings":1594,"edits":1594,"latest":"2018-08-23T06:38:50.000Z"},"geometry":{"type":"Point","coordinates":[31.7917565331246,3.19005820627249]}},{"type":"Feature","properties":{"id":5054,"title":"Uganda Crowdsourcing Non-Camp Refugee Data Uleppi Subcounty, Arua District","status":"ARCHIVED","created":"2018","lastUpdated":"2018","lastActive":"no","area":111.60526811307514,"changesets":157,"mappers":7,"roads":0.199441541099154,"buildings":5831,"edits":5862,"latest":"2018-09-07T01:58:18.000Z"},"geometry":{"type":"Point","coordinates":[31.0672369715303,2.78650774798417]}},{"type":"Feature","properties":{"id":3588,"title":"Ngoma Floods - Western Uganda","status":"ARCHIVED","created":"2017","lastUpdated":"2018","lastActive":"no","area":11.391254678845172,"changesets":168,"mappers":14,"roads":32.908183427561,"buildings":1389,"edits":1717,"latest":"2017-09-16T12:32:46.000Z"},"geometry":{"type":"Point","coordinates":[29.9561221706196,-0.950854072671534]}},{"type":"Feature","properties":{"id":842,"title":"Mapping Eastern Uganda","status":"ARCHIVED","created":"2015","lastUpdated":"2015","lastActive":"no","area":31803.02063355089,"changesets":651,"mappers":9,"roads":200.597492193757,"buildings":1449,"edits":1538,"latest":"2015-10-18T10:07:04.000Z"},"geometry":{"type":"Point","coordinates":[33.7215750923588,1.19248724980706]}},{"type":"Feature","properties":{"id":3850,"title":"Smart Cities Mapping- Kiteezi","status":"ARCHIVED","created":"2017","lastUpdated":"2018","lastActive":"no","area":5.78404342872706,"changesets":344,"mappers":23,"roads":10.8770828869207,"buildings":5001,"edits":5227,"latest":"2018-02-13T14:44:17.000Z"},"geometry":{"type":"Point","coordinates":[32.570530576259,0.416483116088845]}},{"type":"Feature","properties":{"id":4120,"title":"Uganda Crowd-sourcing Non-Camp Refugee Data, Madi-Okollo, Ajibu Parish","status":"ARCHIVED","created":"2018","lastUpdated":"2018","lastActive":"no","area":74.10769411316731,"changesets":731,"mappers":90,"roads":578.99848243673,"buildings":5183,"edits":8489,"latest":"2018-03-22T18:40:58.000Z"},"geometry":{"type":"Point","coordinates":[31.1217456222401,2.73635846884362]}},{"type":"Feature","properties":{"id":3254,"title":"Yumbe District ","status":"ARCHIVED","created":"2017","lastUpdated":"2018","lastActive":"no","area":2341.0954129420443,"changesets":2770,"mappers":43,"roads":2302.884639571,"buildings":174538,"edits":192671,"latest":"2017-07-17T14:22:43.000Z"},"geometry":{"type":"Point","coordinates":[31.2880837446486,3.52081849247251]}},{"type":"Feature","properties":{"id":3187,"title":"Maji Refugee Settlements, Adjumani Area","status":"PUBLISHED","created":"2017","lastUpdated":"2017","lastActive":"no","area":13.620559082078705,"changesets":492,"mappers":43,"roads":135.22450885648,"buildings":8791,"edits":12095,"latest":"2017-09-25T08:43:59.000Z"},"geometry":{"type":"Point","coordinates":[31.6535257441306,3.20704703625468]}},{"type":"Feature","properties":{"id":4140,"title":"Uganda Crowd sourcing Non-Camp Refugee Data , Arua, Ofua Zone Area, Rhino Refugee Settlement","status":"ARCHIVED","created":"2018","lastUpdated":"2018","lastActive":"no","area":123.68500987609691,"changesets":921,"mappers":124,"roads":30.8913147433652,"buildings":8008,"edits":8234,"latest":"2018-03-09T18:11:13.000Z"},"geometry":{"type":"Point","coordinates":[31.2021225377434,3.12878610113241]}},{"type":"Feature","properties":{"id":4123,"title":"Uganda Crowd-sourcing Non-Camp Refugee Data, Madi-Okollo,Onyomu Parish","status":"ARCHIVED","created":"2018","lastUpdated":"2018","lastActive":"no","area":121.54325315707095,"changesets":302,"mappers":39,"roads":68.1042178765754,"buildings":2208,"edits":2478,"latest":"2018-03-26T19:23:42.000Z"},"geometry":{"type":"Point","coordinates":[31.2132972595582,2.75840510430834]}},{"type":"Feature","properties":{"id":4134,"title":"Salesforce, Uganda Crowd-sourcing Non-Camp Refugee Data (Urban Mapping), Kibuye, Katwe, Makindye","status":"PUBLISHED","created":"2018","lastUpdated":"2019","lastActive":"no","area":5.069268955123824,"changesets":2898,"mappers":192,"roads":16.3851745679139,"buildings":25878,"edits":26503,"latest":"2019-01-15T17:45:49.000Z"},"geometry":{"type":"Point","coordinates":[32.5781360722246,0.290453912383011]}},{"type":"Feature","properties":{"id":1437,"title":"MapUganda - Phase 2: Tororo (Butaleja, Namutumba, Bugiri, Namiyango and Busia)","status":"PUBLISHED","created":"2016","lastUpdated":"2018","lastActive":"no","area":5529.26414171349,"changesets":468,"mappers":97,"roads":799.003526632193,"buildings":8014,"edits":12431,"latest":"2018-11-14T22:51:54.000Z"},"geometry":{"type":"Point","coordinates":[33.8839172184962,0.592549617620751]}},{"type":"Feature","properties":{"id":4967,"title":"Missing Maps: Bughendera County, Western Sub-Region, Uganda","status":"ARCHIVED","created":"2018","lastUpdated":"2018","lastActive":"no","area":575.7970774248723,"changesets":2200,"mappers":239,"roads":18.7121626103336,"buildings":25622,"edits":25804,"latest":"2018-09-07T19:42:48.000Z"},"geometry":{"type":"Point","coordinates":[30.0725371138497,0.67793010618373]}},{"type":"Feature","properties":{"id":5057,"title":"Uganda Crowdsourcing Non-Camp Refugee Data Arivu Subcounty, Arua District","status":"ARCHIVED","created":"2018","lastUpdated":"2018","lastActive":"no","area":144.28092010200572,"changesets":161,"mappers":8,"roads":0.01078135629435,"buildings":2821,"edits":2860,"latest":"2018-09-07T01:44:37.000Z"},"geometry":{"type":"Point","coordinates":[30.9664177907221,2.8359897833636]}},{"type":"Feature","properties":{"id":4982,"title":"Missing Maps: Kibaale County, Western Sub-Region, Uganda","status":"ARCHIVED","created":"2018","lastUpdated":"2018","lastActive":"no","area":1413.8565194324367,"changesets":4979,"mappers":379,"roads":39.0970236050579,"buildings":96382,"edits":97612,"latest":"2018-09-28T08:13:06.000Z"},"geometry":{"type":"Point","coordinates":[30.5859610686464,0.291065391357645]}},{"type":"Feature","properties":{"id":4974,"title":"Missing Maps: Ndorwa County (SW part), Southwest Sub-Region, Uganda","status":"ARCHIVED","created":"2018","lastUpdated":"2018","lastActive":"no","area":307.5352601555086,"changesets":7700,"mappers":535,"roads":100.391047999176,"buildings":128100,"edits":129162,"latest":"2018-11-26T15:25:57.000Z"},"geometry":{"type":"Point","coordinates":[29.9605875148621,-1.37177417004458]}},{"type":"Feature","properties":{"id":4277,"title":"Uganda Crowdsourcing Non-Camp Refugee Data Base Mapping, Kyangwali Area, Hoima, Kagadi District","status":"ARCHIVED","created":"2018","lastUpdated":"2018","lastActive":"no","area":223.49057286073074,"changesets":1366,"mappers":183,"roads":169.046331057569,"buildings":21328,"edits":22458,"latest":"2018-06-26T16:14:34.000Z"},"geometry":{"type":"Point","coordinates":[30.7734076863128,1.16885563007676]}},{"type":"Feature","properties":{"id":3736,"title":"Sipiri Zone-Rhino Refugee Camp, Uganda","status":"ARCHIVED","created":"2017","lastUpdated":"2018","lastActive":"no","area":23.735412488015033,"changesets":194,"mappers":23,"roads":135.179076728039,"buildings":3391,"edits":4895,"latest":"2017-10-26T18:58:44.000Z"},"geometry":{"type":"Point","coordinates":[31.2640019534823,3.14905146182203]}},{"type":"Feature","properties":{"id":3712,"title":"Saving Mothers Giving Life: Kibaale District, Western Region, Uganda","status":"ARCHIVED","created":"2017","lastUpdated":"2017","lastActive":"no","area":4959.407358712728,"changesets":2233,"mappers":140,"roads":8956.46305985688,"buildings":16747,"edits":65677,"latest":"2017-11-18T04:14:53.000Z"},"geometry":{"type":"Point","coordinates":[31.0786689651238,0.951446738673461]}},{"type":"Feature","properties":{"id":3731,"title":"Rhino Refugee Camp (part 2), Uganda","status":"ARCHIVED","created":"2017","lastUpdated":"2018","lastActive":"no","area":100.91685128040962,"changesets":712,"mappers":61,"roads":258.531411277776,"buildings":8107,"edits":10053,"latest":"2017-10-23T00:27:08.000Z"},"geometry":{"type":"Point","coordinates":[31.4144798338023,3.05601512923643]}},{"type":"Feature","properties":{"id":3815,"title":"Palorinya Refugee Camp, Moyo District, Uganda","status":"ARCHIVED","created":"2017","lastUpdated":"2018","lastActive":"no","area":48.290477115658256,"changesets":698,"mappers":77,"roads":129.325256236033,"buildings":12886,"edits":14860,"latest":"2017-12-06T18:21:40.000Z"},"geometry":{"type":"Point","coordinates":[31.6830063852259,3.51337385498218]}},{"type":"Feature","properties":{"id":1197,"title":"Peace Corps Uganda - Arua","status":"PUBLISHED","created":"2015","lastUpdated":"2018","lastActive":"no","area":7.649398362963315,"changesets":795,"mappers":45,"roads":86.0095814458602,"buildings":13691,"edits":15829,"latest":"2018-01-12T01:21:21.000Z"},"geometry":{"type":"Point","coordinates":[30.9119356211069,3.02216600149258]}},{"type":"Feature","properties":{"id":5528,"title":"Lamwo District, Uganda -Refugee Mapping","status":"PUBLISHED","created":"2018","lastUpdated":"2019","lastActive":"no","area":4809.246792498921,"changesets":880,"mappers":35,"roads":62.0740989581085,"buildings":56252,"edits":56648,"latest":"2019-01-14T13:27:35.000Z"},"geometry":{"type":"Point","coordinates":[32.757186543365,3.5779333797391]}},{"type":"Feature","properties":{"id":2421,"title":"Zone 5, Bidibidi Refugee Camp, Yumbe Area, Uganda, Camp - WatSan","status":"ARCHIVED","created":"2017","lastUpdated":"2017","lastActive":"no","area":215.10479716417387,"changesets":1415,"mappers":104,"roads":1176.4652173541,"buildings":8470,"edits":16564,"latest":"2017-09-30T12:32:53.000Z"},"geometry":{"type":"Point","coordinates":[31.3956416824407,3.28312365631806]}},{"type":"Feature","properties":{"id":2290,"title":"PEPFAR Uganda: Rakai Coast, Kasensero Landing Site","status":"PUBLISHED","created":"2016","lastUpdated":"2018","lastActive":"no","area":390.7426047377783,"changesets":487,"mappers":33,"roads":447.456340402132,"buildings":9032,"edits":12430,"latest":"2018-02-21T23:52:26.000Z"},"geometry":{"type":"Point","coordinates":[31.7723008652389,-0.712675200149192]}},{"type":"Feature","properties":{"id":2107,"title":"Mapping For Resilience, Karamoja Region (Uganda)","status":"ARCHIVED","created":"2016","lastUpdated":"2016","lastActive":"no","area":7288.12678775437,"changesets":0,"mappers":0,"roads":0,"buildings":0,"edits":0,"latest":null},"geometry":{"type":"Point","coordinates":[34.2993468227166,2.84479566132686]}},{"type":"Feature","properties":{"id":4497,"title":"Uganda CrowdSourcing Non-Refugee Data, Isingiro District","status":"PUBLISHED","created":"2018","lastUpdated":"2018","lastActive":"no","area":1029.2287197351604,"changesets":2552,"mappers":270,"roads":344.47992231982,"buildings":25805,"edits":26685,"latest":"2018-05-24T11:09:35.000Z"},"geometry":{"type":"Point","coordinates":[31.0362440296621,-0.8976788335591]}},{"type":"Feature","properties":{"id":5300,"title":"Eastern Division - Kapchorwa Town Council mapping to help end FGM - Uganda","status":"PUBLISHED","created":"2018","lastUpdated":"2018","lastActive":"no","area":2.680962226924354,"changesets":351,"mappers":11,"roads":11.5665538636238,"buildings":1881,"edits":1987,"latest":"2018-10-10T14:09:05.000Z"},"geometry":{"type":"Point","coordinates":[34.4651098338578,1.39633929784753]}},{"type":"Feature","properties":{"id":5357,"title":"Uganda Open Mapping - Ggaba Parish - OSM Data Clean Up","status":"PUBLISHED","created":"2018","lastUpdated":"2018","lastActive":"no","area":1.0308245186708191,"changesets":424,"mappers":21,"roads":17.4000056964273,"buildings":8648,"edits":10626,"latest":"2018-10-29T11:40:27.000Z"},"geometry":{"type":"Point","coordinates":[32.6334691706018,0.25598348410269]}},{"type":"Feature","properties":{"id":5052,"title":"Uganda Crowdsourcing Non-Camp Refugee Data Pawor Subcounty, Arua District","status":"PUBLISHED","created":"2018","lastUpdated":"2018","lastActive":"no","area":133.50000403229305,"changesets":265,"mappers":7,"roads":0.493529238101716,"buildings":6593,"edits":6601,"latest":"2018-08-24T20:57:53.000Z"},"geometry":{"type":"Point","coordinates":[31.3243482905018,2.82022728461498]}},{"type":"Feature","properties":{"id":5056,"title":"Uganda Crowdsourcing Non-Camp Refugee Data Arivu Subcounty, Arua District","status":"PUBLISHED","created":"2018","lastUpdated":"2018","lastActive":"no","area":144.28092010200572,"changesets":142,"mappers":9,"roads":0.129906072175552,"buildings":11055,"edits":11072,"latest":"2018-09-03T12:22:42.000Z"},"geometry":{"type":"Point","coordinates":[30.9664177907221,2.8359897833636]}},{"type":"Feature","properties":{"id":5061,"title":"Uganda Crowdsourcing Non-Camp Refugee Data Aroi Subcounty, Arua District","status":"ARCHIVED","created":"2018","lastUpdated":"2018","lastActive":"no","area":38.37059986525889,"changesets":219,"mappers":31,"roads":0.0293161685079718,"buildings":10888,"edits":10899,"latest":"2018-09-07T18:06:48.000Z"},"geometry":{"type":"Point","coordinates":[30.8842657022088,3.10692251895172]}},{"type":"Feature","properties":{"id":5572,"title":"Mityana","status":"PUBLISHED","created":"2018","lastUpdated":"2018","lastActive":"no","area":6.638775216328195,"changesets":78,"mappers":2,"roads":0.0758769232470046,"buildings":2684,"edits":2698,"latest":"2018-11-29T13:25:25.000Z"},"geometry":{"type":"Point","coordinates":[32.0655468364286,0.392510864259622]}},{"type":"Feature","properties":{"id":1196,"title":"Peace Corps Uganda - Masaka","status":"PUBLISHED","created":"2015","lastUpdated":"2018","lastActive":"no","area":43.130343075892235,"changesets":741,"mappers":102,"roads":231.711531316098,"buildings":15963,"edits":18969,"latest":"2018-04-17T22:43:56.000Z"},"geometry":{"type":"Point","coordinates":[31.7449660374259,-0.328482453726074]}},{"type":"Feature","properties":{"id":2379,"title":"Yumbe Camp, Uganda - MSF","status":"ARCHIVED","created":"2016","lastUpdated":"2017","lastActive":"no","area":36.305565581280995,"changesets":326,"mappers":25,"roads":271.133440821412,"buildings":14539,"edits":18549,"latest":"2016-12-29T20:59:59.000Z"},"geometry":{"type":"Point","coordinates":[31.3512544157566,3.52864741016445]}},{"type":"Feature","properties":{"id":2271,"title":"PEPFAR Uganda: Buvuma","status":"ARCHIVED","created":"2016","lastUpdated":"2016","lastActive":"no","area":2352.9896783170648,"changesets":1,"mappers":1,"roads":0.158660069128969,"buildings":14,"edits":18,"latest":"2016-11-16T07:18:12.000Z"},"geometry":{"type":"Point","coordinates":[33.237361234543,0.070341023126681]}},{"type":"Feature","properties":{"id":1434,"title":"Uganda Bureau Of Statistics Educational Facilities Import","status":"PUBLISHED","created":"2016","lastUpdated":"2017","lastActive":"no","area":176984.6233742301,"changesets":1338,"mappers":33,"roads":203.407137763958,"buildings":3793,"edits":52339,"latest":"2017-10-13T22:44:23.000Z"},"geometry":{"type":"Point","coordinates":[32.1499827349937,1.27510398381826]}},{"type":"Feature","properties":{"id":4122,"title":"Uganda Crowd-sourcing Non-Camp Refugee Data,Madi-Okollo, Okollo Parish","status":"ARCHIVED","created":"2018","lastUpdated":"2018","lastActive":"no","area":126.33228175864421,"changesets":266,"mappers":52,"roads":79.7197418260642,"buildings":2440,"edits":2802,"latest":"2018-03-26T14:58:05.000Z"},"geometry":{"type":"Point","coordinates":[31.1518579516205,2.64846633816211]}},{"type":"Feature","properties":{"id":4257,"title":"Uganda Crowdsourcing Non-Camp Refugee Data, Ajia,Ocoko, Alivu, Ewa Parihes, Arua Distrct, Salesforce","status":"ARCHIVED","created":"2018","lastUpdated":"2018","lastActive":"no","area":74.78692599447785,"changesets":559,"mappers":46,"roads":531.131003545803,"buildings":6026,"edits":8363,"latest":"2018-08-06T15:49:04.000Z"},"geometry":{"type":"Point","coordinates":[30.990656207233,2.95497193221865]}},{"type":"Feature","properties":{"id":4271,"title":"Uganda Crowd sourcing Non Camp Refugee Data, Kyaka II , Kyegegwa Base Mapping","status":"ARCHIVED","created":"2018","lastUpdated":"2018","lastActive":"no","area":95.42749822566522,"changesets":804,"mappers":61,"roads":62.7643504492575,"buildings":11037,"edits":11395,"latest":"2018-03-18T12:04:35.000Z"},"geometry":{"type":"Point","coordinates":[31.0858237406458,0.357362501492301]}},{"type":"Feature","properties":{"id":4288,"title":"Uganda Crowd-sourcing Non-Camp Refugee Data Nyakabande, Kagoma,Mutolere Villages, Kisoro District Base Mapping","status":"PUBLISHED","created":"2018","lastUpdated":"2018","lastActive":"no","area":49.58167859253421,"changesets":539,"mappers":42,"roads":7.95023042536063,"buildings":6741,"edits":6803,"latest":"2018-03-27T19:25:55.000Z"},"geometry":{"type":"Point","coordinates":[29.7433108443262,-1.29834504447071]}},{"type":"Feature","properties":{"id":4295,"title":"Uganda Crowd-sourcing Non-Camp Refugee Data, Rwebisengo, Kahondo, Makondo Villages, Ntoroko District Base Mapping","status":"PUBLISHED","created":"2018","lastUpdated":"2018","lastActive":"no","area":162.10041758428503,"changesets":1300,"mappers":55,"roads":11.5996184576009,"buildings":3571,"edits":3601,"latest":"2018-10-08T13:21:35.000Z"},"geometry":{"type":"Point","coordinates":[30.2903001792257,1.06175437465088]}},{"type":"Feature","properties":{"id":4297,"title":"Uganda Crowd-Sourcing Non-Camp Refugee Data,Rwanzu, Busanza,Nyamagana,Busengo Villages Kisoro District","status":"PUBLISHED","created":"2018","lastUpdated":"2018","lastActive":"no","area":54.61581088784912,"changesets":1019,"mappers":76,"roads":23.0541164186441,"buildings":7199,"edits":7274,"latest":"2018-09-07T13:46:53.000Z"},"geometry":{"type":"Point","coordinates":[29.6290698387812,-1.23825343915376]}},{"type":"Feature","properties":{"id":4328,"title":"Salesforce, Uganda Crowd-Sourcing Non-Camp Refugee Data (Urban Mapping), Rubaga Division Part 2, Kampala District","status":"PUBLISHED","created":"2018","lastUpdated":"2018","lastActive":"no","area":10.441771719335271,"changesets":2540,"mappers":106,"roads":12.5259851096213,"buildings":12470,"edits":12759,"latest":"2018-03-30T13:26:57.000Z"},"geometry":{"type":"Point","coordinates":[32.5369287975846,0.313588743534994]}},{"type":"Feature","properties":{"id":4371,"title":"Uganda Crowdsourcing Non-Camp Refugee Data (Urban Mapping) Kampala Nakawa Division Part 1","status":"PUBLISHED","created":"2018","lastUpdated":"2018","lastActive":"no","area":27.407181548683663,"changesets":3024,"mappers":425,"roads":79.239033676558,"buildings":72458,"edits":73981,"latest":"2018-11-25T14:56:20.000Z"},"geometry":{"type":"Point","coordinates":[32.6424007678348,0.320248201014718]}},{"type":"Feature","properties":{"id":5193,"title":"Uganda Crowdsourcing Non-Camp Refugee Data Urban Mapping Kisoro Town, Kisoro District","status":"PUBLISHED","created":"2018","lastUpdated":"2018","lastActive":"no","area":31.214552016699503,"changesets":141,"mappers":9,"roads":0.12289320711668,"buildings":12430,"edits":12471,"latest":"2018-11-01T10:15:35.000Z"},"geometry":{"type":"Point","coordinates":[29.6916206568608,-1.2854421210458]}},{"type":"Feature","properties":{"id":5212,"title":"Missing Maps: Kitagwenda County, Western Sub-Region, Uganda","status":"PUBLISHED","created":"2018","lastUpdated":"2018","lastActive":"no","area":720.4273400392675,"changesets":3005,"mappers":160,"roads":7.39176720720533,"buildings":17885,"edits":18104,"latest":"2018-10-22T09:44:10.000Z"},"geometry":{"type":"Point","coordinates":[30.3404283336177,0.014955365673615]}},{"type":"Feature","properties":{"id":5349,"title":"Mudslides - Bududa District","status":"PUBLISHED","created":"2018","lastUpdated":"2018","lastActive":"no","area":17.19062596276267,"changesets":405,"mappers":57,"roads":79.1466139398542,"buildings":4106,"edits":4794,"latest":"2018-10-19T17:07:00.000Z"},"geometry":{"type":"Point","coordinates":[34.4034860289397,1.00821182647094]}},{"type":"Feature","properties":{"id":5433,"title":"Kiryandongo Refugee Settlement, Kiryandongo District, Uganda","status":"ARCHIVED","created":"2018","lastUpdated":"2018","lastActive":"no","area":42.06565519389318,"changesets":132,"mappers":4,"roads":33.2558222097221,"buildings":4569,"edits":4722,"latest":"2018-11-09T12:42:27.000Z"},