{"totalEdits":38769120,"totalBuildings":31741478,"totalRoads":829814.378355938,"mappersOnline":7,"totalTasksMapped":1445585,"totalMappers":123675,"totalProjects":1453,"Tanzania":[{"type":"Feature","properties":{"title":"Tanzania Development Trust: Sawida District","id":4118,"area":924.6478975466252,"year":"2018","lastUpdated":"2018-06-01T01:04:05.902556","changesets":13023,"mappers":932,"roads":9439.87042063941,"buildings":149153,"edits":217610,"latest":"2018-06-17T10:29:27.000Z"},"geometry":{"type":"Point","coordinates":[33.663075852494615,-2.8525551326607483]}},{"type":"Feature","properties":{"title":"Tanzania Development Trust:  Mwanza East","id":3993,"area":6942.748601206665,"year":"2018","lastUpdated":"2018-06-02T01:27:41.509677","changesets":7627,"mappers":351,"roads":9094.04149334341,"buildings":150830,"edits":206894,"latest":"2018-06-16T13:18:59.000Z"},"geometry":{"type":"Point","coordinates":[33.151702880859375,-2.8604853284710874]}},{"type":"Feature","properties":{"title":"PEPFAR TANZANIA: GEITA DC","id":3903,"area":4738.968040349855,"year":"2018","lastUpdated":"2018-04-30T17:02:58.055569","changesets":5534,"mappers":266,"roads":3127.21453679912,"buildings":60035,"edits":83984,"latest":"2018-05-22T16:14:57.000Z"},"geometry":{"type":"Point","coordinates":[32.06279754752212,-2.682505789886702]}},{"type":"Feature","properties":{"title":"Tanzania Development Trust: Mbozi district community mapping project","id":3968,"area":270.15833206747897,"year":"2018","lastUpdated":"2018-05-06T16:39:06.194033","changesets":0,"mappers":0,"roads":0,"buildings":0,"edits":0,"latest":null},"geometry":{"type":"Point","coordinates":[32.76853833879746,-9.020802347567903]}},{"type":"Feature","properties":{"title":"Tanzania Development Trust: Ihanda Community Mapping Project","id":3826,"area":84.22986494226826,"year":"2017","lastUpdated":"2017-12-10T14:47:40.313120","changesets":0,"mappers":0,"roads":0,"buildings":0,"edits":0,"latest":null},"geometry":{"type":"Point","coordinates":[31.078376770019542,-1.55232657905958]}},{"type":"Feature","properties":{"title":"Tanzania Development Trust: Kahororo Community Mapping Project","id":3458,"area":15.218926174396286,"year":"2018","lastUpdated":"2018-05-26T14:53:06.076802","changesets":0,"mappers":0,"roads":0,"buildings":0,"edits":0,"latest":null},"geometry":{"type":"Point","coordinates":[31.83640480041505,-1.3036663200004244]}},{"type":"Feature","properties":{"title":"Tanzania Development Trust: Manyoni district mapping project part 2","id":3389,"area":7477.8484249126495,"year":"2018","lastUpdated":"2018-06-03T17:37:32.688721","changesets":0,"mappers":0,"roads":0,"buildings":0,"edits":0,"latest":null},"geometry":{"type":"Point","coordinates":[35.27572631835939,-4.379171736396492]}},{"type":"Feature","properties":{"title":"Tanzania Development Trust: Rusesa, Kwaga and Kigembe districts community mapping project ","id":3134,"area":554.3164257263877,"year":"2017","lastUpdated":"2017-12-12T20:58:40.374306","changesets":0,"mappers":0,"roads":0,"buildings":0,"edits":0,"latest":null},"geometry":{"type":"Point","coordinates":[30.003875680949932,-4.84165310145059]}},{"type":"Feature","properties":{"title":"Missing Maps: Dar es Salaam - Ramani Huria 2.0 - 21","id":3388,"area":69.65587897048133,"year":"2017","lastUpdated":"2017-08-29T20:18:54.288698","changesets":1939,"mappers":75,"roads":6.84000186734417,"buildings":36784,"edits":37868,"latest":"2017-08-11T12:28:34.000Z"},"geometry":{"type":"Point","coordinates":[39.1238626216775,-6.897961178878595]}},{"type":"Feature","properties":{"title":"Tanzania Development Trust: Manyoni district mapping project","id":3253,"area":1144.4488878187772,"year":"2018","lastUpdated":"2018-02-19T11:31:46.467382","changesets":0,"mappers":0,"roads":0,"buildings":0,"edits":0,"latest":null},"geometry":{"type":"Point","coordinates":[34.83352661132815,-5.7092421794668216]}},{"type":"Feature","properties":{"title":"Tanzania Development Trust: Singida district community mapping project ","id":3159,"area":746.5381861519145,"year":"2018","lastUpdated":"2018-04-14T11:47:27.250647","changesets":0,"mappers":0,"roads":0,"buildings":0,"edits":0,"latest":null},"geometry":{"type":"Point","coordinates":[35.00739145072836,-4.7137063082032755]}},{"type":"Feature","properties":{"title":"Tanzania Development Trust: Kulimi district community mapping project ","id":2989,"area":784.6955092821192,"year":"2018","lastUpdated":"2018-05-27T08:49:18.879977","changesets":0,"mappers":0,"roads":0,"buildings":0,"edits":0,"latest":null},"geometry":{"type":"Point","coordinates":[33.59668499857451,-3.223029192039045]}},{"type":"Feature","properties":{"title":"Tanzania Development Trust: Muzye, Muhunga and Bugaga wards community mapping project ","id":3313,"area":467.01646755665894,"year":"2017","lastUpdated":"2017-11-05T14:47:06.028668","changesets":0,"mappers":0,"roads":0,"buildings":0,"edits":0,"latest":null},"geometry":{"type":"Point","coordinates":[29.996941569562726,-4.632042691063947]}},{"type":"Feature","properties":{"title":"Tanzania Development Trust: Simiyu district mapping project part 1 - Updated Imagery","id":3177,"area":1361.7036746910928,"year":"2018","lastUpdated":"2018-05-21T06:35:10.714699","changesets":0,"mappers":0,"roads":0,"buildings":0,"edits":0,"latest":null},"geometry":{"type":"Point","coordinates":[34.246062786235,-2.4162541152175003]}},{"type":"Feature","properties":{"title":"Tanzania Development Trust: Masasi district, Mtwara Region","id":3251,"area":1622.139093292662,"year":"2018","lastUpdated":"2018-02-17T10:13:50.185746","changesets":0,"mappers":0,"roads":0,"buildings":0,"edits":0,"latest":null},"geometry":{"type":"Point","coordinates":[38.77120971679688,-10.7730228886694]}},{"type":"Feature","properties":{"title":"Missing Maps: Dar es Salaam - Ramani Huria 2.0 - 06","id":3351,"area":42.09056201926153,"year":"2017","lastUpdated":"2017-09-18T13:32:44.404729","changesets":1060,"mappers":98,"roads":583.340797762564,"buildings":2543,"edits":21480,"latest":"2017-09-18T13:34:28.000Z"},"geometry":{"type":"Point","coordinates":[39.08745002746582,-6.700853885903787]}},{"type":"Feature","properties":{"title":"PEPFAR Tanzania: Mbeya CC","id":2556,"area":256.08947868821076,"year":"2018","lastUpdated":"2018-05-07T03:44:11.992952","changesets":3674,"mappers":263,"roads":1309.65000981764,"buildings":21914,"edits":54339,"latest":"2018-05-15T06:12:15.000Z"},"geometry":{"type":"Point","coordinates":[33.487846817016006,-8.911443046528687]}},{"type":"Feature","properties":{"title":"Tanzania Development Trust: Maswa district mapping project part 1","id":2578,"area":159.57894576974346,"year":"2017","lastUpdated":"2017-10-19T10:37:48.653512","changesets":0,"mappers":0,"roads":0,"buildings":0,"edits":0,"latest":null},"geometry":{"type":"Point","coordinates":[33.817882557580745,-3.2813052403453997]}},{"type":"Feature","properties":{"title":"Shinyanga_Tabora_Geita","id":4076,"area":3994.8430365253507,"year":"2018","lastUpdated":"2018-03-16T14:29:11.097041","changesets":47,"mappers":13,"roads":0.000161002645333808,"buildings":2061,"edits":2064,"latest":"2018-03-16T14:28:46.000Z"},"geometry":{"type":"Point","coordinates":[32.00242391521419,-4.080067283243879]}},{"type":"Feature","properties":{"title":"Tanzania Development Trust: Kamachumu Community Mapping Project","id":3430,"area":46.24964449397239,"year":"2017","lastUpdated":"2017-11-09T21:17:57.812727","changesets":0,"mappers":0,"roads":0,"buildings":0,"edits":0,"latest":null},"geometry":{"type":"Point","coordinates":[31.625518798828143,-1.6019138987425647]}},{"type":"Feature","properties":{"title":"PEPFAR Tanzania: Kyela (Coast)","id":3204,"area":267.9000890686287,"year":"2018","lastUpdated":"2018-05-24T23:57:37.914781","changesets":2073,"mappers":217,"roads":825.750981126759,"buildings":19645,"edits":28506,"latest":"2018-06-05T12:01:03.000Z"},"geometry":{"type":"Point","coordinates":[33.86047686452975,-9.648327731192193]}},{"type":"Feature","properties":{"title":"Tanzania Development Trust: Serengeti district mapping project part 2","id":2261,"area":11207.631576365555,"year":"2018","lastUpdated":"2018-05-22T06:15:57.092496","changesets":33972,"mappers":1624,"roads":29371.8658993649,"buildings":602966,"edits":917459,"latest":"2018-05-22T10:49:25.000Z"},"geometry":{"type":"Point","coordinates":[33.563361167907715,-1.6146094797775092]}},{"type":"Feature","properties":{"title":"MSD & JSI/USAID Tanzania Road Import - Iringa region","id":2157,"area":30284.59973311939,"year":"2016","lastUpdated":"2016-10-20T13:22:29.952382","changesets":85,"mappers":13,"roads":2909.39047680426,"buildings":712,"edits":3579,"latest":"2016-10-19T21:15:43.000Z"},"geometry":{"type":"Point","coordinates":[35.12966588259462,-8.90039717715023]}},{"type":"Feature","properties":{"title":"MSD & JSI/USAID Tanzania Road Import - Mwanza region","id":2138,"area":18452.858077930265,"year":"2017","lastUpdated":"2017-09-04T11:31:29.126756","changesets":149,"mappers":15,"roads":3770.57157796073,"buildings":105,"edits":5447,"latest":"2016-11-14T12:29:58.000Z"},"geometry":{"type":"Point","coordinates":[32.94155795664897,-2.648829790193047]}},{"type":"Feature","properties":{"title":"Tanzania Development Trust: Serengeti district mapping project","id":1788,"area":13584.124479203561,"year":"2018","lastUpdated":"2018-05-21T07:59:16.624212","changesets":0,"mappers":0,"roads":0,"buildings":0,"edits":0,"latest":null},"geometry":{"type":"Point","coordinates":[34.658088684082024,-1.9070894696788552]}},{"type":"Feature","properties":{"title":"MSD & JSI/USAID Tanzania Road Import - Kagera region","id":2000,"area":20054.048144070715,"year":"2017","lastUpdated":"2017-08-17T15:35:09.385364","changesets":0,"mappers":0,"roads":0,"buildings":0,"edits":0,"latest":null},"geometry":{"type":"Point","coordinates":[31.041926812127926,-2.3254413013888326]}},{"type":"Feature","properties":{"title":"MSD & JSI/USAID Tanzania Road Import - Shinyaga region","id":2049,"area":35039.611042625445,"year":"2016","lastUpdated":"2016-08-22T11:27:17.050654","changesets":0,"mappers":0,"roads":0,"buildings":0,"edits":0,"latest":null},"geometry":{"type":"Point","coordinates":[34.09181497141662,-3.1247602533541907]}},{"type":"Feature","properties":{"title":"Missing Maps: Dar es Salaam - Ramani Huria 8","id":2242,"area":18.297857125006182,"year":"2017","lastUpdated":"2017-04-26T13:26:16.487958","changesets":402,"mappers":13,"roads":17.3508405937143,"buildings":9226,"edits":9722,"latest":"2016-12-08T19:06:28.000Z"},"geometry":{"type":"Point","coordinates":[39.19390890056493,-6.76004283446328]}},{"type":"Feature","properties":{"title":"MSD & JSI/USAID Tanzania Road Import - Singida region","id":1999,"area":26074.754451063287,"year":"2016","lastUpdated":"2016-09-25T10:42:24.947931","changesets":0,"mappers":0,"roads":0,"buildings":0,"edits":0,"latest":null},"geometry":{"type":"Point","coordinates":[34.50140704015796,-5.676229952710943]}},{"type":"Feature","properties":{"title":"MSD & JSI/USAID Tanzania Road Import - Pwani region","id":2110,"area":21135.143831005626,"year":"2016","lastUpdated":"2016-11-09T09:08:14.321577","changesets":0,"mappers":0,"roads":0,"buildings":0,"edits":0,"latest":null},"geometry":{"type":"Point","coordinates":[38.66302671069425,-7.24398878152632]}},{"type":"Feature","properties":{"title":"MSD & JSI/USAID Tanzania Road Import - Mtwara & Lindi Regions + Tunduru District","id":1194,"area":59075.33727007736,"year":"2016","lastUpdated":"2016-05-20T14:26:58.661670","changesets":0,"mappers":0,"roads":0,"buildings":0,"edits":0,"latest":null},"geometry":{"type":"Point","coordinates":[38.17747568450677,-10.184904231832341]}},{"type":"Feature","properties":{"title":"Missing Maps: Dar es Salaam - Ramani Huria 7","id":2125,"area":15.59172030179052,"year":"2017","lastUpdated":"2017-12-11T17:19:29.232404","changesets":681,"mappers":54,"roads":23.3546858581493,"buildings":15759,"edits":16703,"latest":"2017-12-11T17:19:19.000Z"},"geometry":{"type":"Point","coordinates":[39.22768489444798,-6.724982791087041]}},{"type":"Feature","properties":{"title":"MSD & JSI/USAID Tanzania Road Import - Morogoro region","id":2050,"area":28136.915277094853,"year":"2016","lastUpdated":"2016-08-23T17:28:25.347311","changesets":0,"mappers":0,"roads":0,"buildings":0,"edits":0,"latest":null},"geometry":{"type":"Point","coordinates":[36.961234396207985,-7.8614884864610755]}},{"type":"Feature","properties":{"title":"Serengeti National Park","id":834,"area":13370.038280033767,"year":"2017","lastUpdated":"2017-07-05T09:52:49.480984","changesets":0,"mappers":0,"roads":0,"buildings":0,"edits":0,"latest":null},"geometry":{"type":"Point","coordinates":[34.71995007142858,-1.969435597802197]}},{"type":"Feature","properties":{"title":"Peace Corps Tanzania -- Lushoto","id":1903,"area":69.21165370312055,"year":"2017","lastUpdated":"2017-09-19T04:44:26.195543","changesets":640,"mappers":88,"roads":126.39665147357,"buildings":9101,"edits":10836,"latest":"2017-07-28T23:41:56.000Z"},"geometry":{"type":"Point","coordinates":[38.303773299507476,-4.810238891566513]}},{"type":"Feature","properties":{"title":"MSD & JSI/USAID Tanzania Road Import - Zanzibar region","id":1299,"area":2309.3542336056603,"year":"2017","lastUpdated":"2017-03-25T22:18:08.637646","changesets":0,"mappers":0,"roads":0,"buildings":0,"edits":0,"latest":null},"geometry":{"type":"Point","coordinates":[39.31937084402078,-6.027515801549827]}},{"type":"Feature","properties":{"title":"Villages in Pangani District, Tanzania Mini Grids Project","id":4642,"area":3.2853624864693787,"year":"2018","lastUpdated":"2018-06-03T23:09:23.858187","changesets":85,"mappers":27,"roads":0.0728887891265449,"buildings":3068,"edits":3101,"latest":"2018-06-08T10:05:47.000Z"},"geometry":{"type":"Point","coordinates":[38.9586214536687,-5.426816270673696]}},{"type":"Feature","properties":{"title":"Central Singida, Singida, Tanzania Mini Grids Project 03","id":4519,"area":2105.041518258272,"year":"2018","lastUpdated":"2018-05-16T13:46:42.174753","changesets":1720,"mappers":63,"roads":0.0426727988520717,"buildings":55117,"edits":55135,"latest":"2018-05-16T14:10:04.000Z"},"geometry":{"type":"Point","coordinates":[34.9139572099927,-4.933032473319332]}},{"type":"Feature","properties":{"title":"MSD & JSI/USAID Tanzania Road Import - Mbeya region","id":2111,"area":19769.484038509396,"year":"2016","lastUpdated":"2016-09-26T19:17:08.424814","changesets":79,"mappers":5,"roads":2211.37645137462,"buildings":3314,"edits":7568,"latest":"2016-10-05T18:18:41.000Z"},"geometry":{"type":"Point","coordinates":[33.53129587985334,-8.652609274565219]}},{"type":"Feature","properties":{"title":"Tabora, Tabora, Tanzania Mini Grids Project 02","id":4584,"area":2042.6757607922066,"year":"2018","lastUpdated":"2018-05-30T08:50:24.646829","changesets":1616,"mappers":62,"roads":4.94742136269652,"buildings":36681,"edits":37463,"latest":"2018-06-14T10:00:02.000Z"},"geometry":{"type":"Point","coordinates":[33.55636968293966,-4.778208007358041]}},{"type":"Feature","properties":{"title":"Karema Ward, Katavi, Tanzania Mini Grids Project 01","id":4402,"area":49.87575499116186,"year":"2018","lastUpdated":"2018-04-12T09:55:34.291247","changesets":83,"mappers":11,"roads":0,"buildings":1985,"edits":1985,"latest":"2018-04-12T09:55:03.000Z"},"geometry":{"type":"Point","coordinates":[30.45028626808132,-6.824839702555798]}},{"type":"Feature","properties":{"title":"Bankolo Village, Tanzania Mini Grids Project","id":4649,"area":2.655569135969413,"year":"2018","lastUpdated":"2018-06-03T23:07:59.384606","changesets":23,"mappers":10,"roads":0,"buildings":35,"edits":35,"latest":"2018-06-02T09:43:11.000Z"},"geometry":{"type":"Point","coordinates":[35.452022531029996,-5.83740181330499]}},{"type":"Feature","properties":{"title":"S. Monduli, Simanjiro, Tanzania Mini Grids - MapSwipe Project 04 - 03","id":4478,"area":166.70877071205354,"year":"2018","lastUpdated":"2018-05-07T07:19:53.188978","changesets":123,"mappers":47,"roads":0,"buildings":1480,"edits":1480,"latest":"2018-05-04T09:16:49.000Z"},"geometry":{"type":"Point","coordinates":[37.56197930444573,-5.003146663344777]}},{"type":"Feature","properties":{"title":"Mbozi, Mbeya, Tanzania Mini Grids Project 01","id":4286,"area":1427.754247465411,"year":"2018","lastUpdated":"2018-06-03T11:32:18.263435","changesets":3571,"mappers":68,"roads":3017.76610954661,"buildings":84064,"edits":91962,"latest":"2018-06-14T11:11:25.000Z"},"geometry":{"type":"Point","coordinates":[32.815140600291976,-9.28818806240448]}},{"type":"Feature","properties":{"title":"Central Singida, Singida, Tanzania Mini Grids Project 00 North","id":4508,"area":2138.0235797080213,"year":"2018","lastUpdated":"2018-05-14T08:23:53.805605","changesets":2083,"mappers":64,"roads":1.80693813624998,"buildings":83421,"edits":83643,"latest":"2018-05-15T14:47:17.000Z"},"geometry":{"type":"Point","coordinates":[34.85630752643853,-4.7195257307215375]}},{"type":"Feature","properties":{"title":"Rungwe, Mbeya, Tanzania Mini Grids Project 01","id":4392,"area":1330.3320402972577,"year":"2018","lastUpdated":"2018-05-30T05:59:04.640865","changesets":2885,"mappers":74,"roads":21.3821929149524,"buildings":119621,"edits":120470,"latest":"2018-05-30T06:51:18.000Z"},"geometry":{"type":"Point","coordinates":[33.5756407980469,-9.244759979750832]}},{"type":"Feature","properties":{"title":"Central Singida, Singida, Tanzania Mini Grids Project 05 East","id":4529,"area":1299.832349107584,"year":"2018","lastUpdated":"2018-05-17T09:08:08.102064","changesets":829,"mappers":53,"roads":0.392972178332061,"buildings":16651,"edits":16659,"latest":"2018-05-17T11:23:30.000Z"},"geometry":{"type":"Point","coordinates":[35.19340611670751,-4.901696314033335]}},{"type":"Feature","properties":{"title":"Lindi, Lindi, Tanzania Mini Grids Project 02","id":4488,"area":1271.4706951916876,"year":"2018","lastUpdated":"2018-05-08T10:55:00.593774","changesets":573,"mappers":60,"roads":0.509649478878156,"buildings":9921,"edits":9949,"latest":"2018-05-10T13:59:37.000Z"},"geometry":{"type":"Point","coordinates":[39.32480989462478,-9.704243210868535]}},{"type":"Feature","properties":{"title":"Kigoma_3","id":4084,"area":5.097450161720606,"year":"2018","lastUpdated":"2018-02-01T07:42:27.258246","changesets":288,"mappers":6,"roads":2.31764270978854,"buildings":6302,"edits":6359,"latest":"2018-02-08T07:46:42.000Z"},"geometry":{"type":"Point","coordinates":[30.406732561710204,-6.745298521099169]}},{"type":"Feature","properties":{"title":"Lindi, Lindi, Tanzania Mini Grids Project 05","id":4499,"area":1350.3603655694978,"year":"2018","lastUpdated":"2018-05-15T12:31:49.461510","changesets":976,"mappers":65,"roads":1.10597043189381,"buildings":27788,"edits":27937,"latest":"2018-05-14T05:44:36.000Z"},"geometry":{"type":"Point","coordinates":[39.68909574499,-9.801786594046861]}},{"type":"Feature","properties":{"title":"Manyoni, Singida, Tanzania Mini Grids Project 01","id":4531,"area":1326.5528682624965,"year":"2018","lastUpdated":"2018-05-19T20:47:16.371655","changesets":589,"mappers":58,"roads":0.134107026616461,"buildings":7569,"edits":7586,"latest":"2018-05-18T10:04:10.000Z"},"geometry":{"type":"Point","coordinates":[34.5086017651493,-5.53508090379479]}},{"type":"Feature","properties":{"title":"Urambo, Tabora, Tanzania Mini Grids Project 06","id":4353,"area":1555.7313427834936,"year":"2018","lastUpdated":"2018-04-11T11:03:29.451984","changesets":1535,"mappers":66,"roads":0.0331344994875119,"buildings":54533,"edits":54541,"latest":"2018-04-11T10:57:57.000Z"},"geometry":{"type":"Point","coordinates":[31.85480028894,-4.912515247337495]}},{"type":"Feature","properties":{"title":"Heru Shingo Ward, Kigoma, Tanzania Mini Grids Project 01","id":4387,"area":789.0955168862893,"year":"2018","lastUpdated":"2018-04-10T14:00:31.983017","changesets":1455,"mappers":37,"roads":4.58334806253399,"buildings":33003,"edits":33301,"latest":"2018-06-01T13:26:31.000Z"},"geometry":{"type":"Point","coordinates":[30.310435947907735,-4.113678655615293]}},{"type":"Feature","properties":{"title":"Tunduru, Ruvuma, Tanzania Mini Grids Project 05","id":4411,"area":1479.9129003136538,"year":"2018","lastUpdated":"2018-05-17T04:42:53.781681","changesets":1947,"mappers":62,"roads":3.59696148842831,"buildings":30085,"edits":30123,"latest":"2018-05-17T04:42:41.000Z"},"geometry":{"type":"Point","coordinates":[37.235568507342286,-10.889137167904732]}},{"type":"Feature","properties":{"title":"Central Singida, Singida, Tanzania Mini Grids Project 04 South","id":4528,"area":2679.1732629690173,"year":"2018","lastUpdated":"2018-05-17T05:23:15.289640","changesets":1170,"mappers":63,"roads":0.0259764287875841,"buildings":20358,"edits":20362,"latest":"2018-05-17T13:46:29.000Z"},"geometry":{"type":"Point","coordinates":[34.69281190135674,-5.4332570462654575]}},{"type":"Feature","properties":{"title":"Kasulu, Kasulu, Tanzania Mini Grids Project 04","id":4571,"area":2136.1760422465886,"year":"2018","lastUpdated":"2018-05-25T09:33:04.665282","changesets":1525,"mappers":62,"roads":11.2025461927747,"buildings":47481,"edits":48101,"latest":"2018-06-14T13:59:15.000Z"},"geometry":{"type":"Point","coordinates":[29.98247064013143,-4.6984841931908]}},{"type":"Feature","properties":{"title":"Kasulu, Kasulu, Tanzania Mini Grids Project 05","id":4572,"area":2206.993164418614,"year":"2018","lastUpdated":"2018-05-29T05:55:09.495682","changesets":658,"mappers":53,"roads":0.332538602551102,"buildings":7551,"edits":7643,"latest":"2018-06-06T12:28:35.000Z"},"geometry":{"type":"Point","coordinates":[30.58835132393096,-4.543021986400334]}},{"type":"Feature","properties":{"title":"Ardhi University: Housing Development - Arusha City","id":3937,"area":28.84666648523269,"year":"2018","lastUpdated":"2018-03-15T09:06:53.133923","changesets":1278,"mappers":35,"roads":22.2386466845665,"buildings":3644,"edits":3818,"latest":"2018-05-11T01:10:09.000Z"},"geometry":{"type":"Point","coordinates":[36.790300973849895,-3.3836324243588614]}},{"type":"Feature","properties":{"title":"Chemba District Villages, Tanzania Mini Grids Project","id":4646,"area":4.696678039184461,"year":"2018","lastUpdated":"2018-06-03T23:08:33.498188","changesets":75,"mappers":22,"roads":0.00801516130593583,"buildings":2731,"edits":2732,"latest":"2018-06-03T12:03:34.000Z"},"geometry":{"type":"Point","coordinates":[35.84642170190889,-5.1555243929266625]}},{"type":"Feature","properties":{"title":"Tunduru, Ruvuma, Tanzania Mini Grids Project 02","id":4424,"area":1549.6766515243964,"year":"2018","lastUpdated":"2018-05-04T08:55:20.079197","changesets":855,"mappers":63,"roads":0.0711115935309787,"buildings":21117,"edits":21136,"latest":"2018-05-07T07:56:42.000Z"},"geometry":{"type":"Point","coordinates":[37.44642487877472,-11.304728564657015]}},{"type":"Feature","properties":{"title":"Mbozi, Mbeya, Tanzania Mini Grids Project 05","id":4291,"area":1217.253471872788,"year":"2018","lastUpdated":"2018-04-11T10:37:27.661331","changesets":1051,"mappers":65,"roads":1098.18198535427,"buildings":16367,"edits":18267,"latest":"2018-04-11T10:37:22.000Z"},"geometry":{"type":"Point","coordinates":[32.832228251564956,-8.77762069709877]}},{"type":"Feature","properties":{"title":"Mbozi, Mbeya, Tanzania Mini Grids Project 07","id":4350,"area":908.5380955685306,"year":"2018","lastUpdated":"2018-04-11T09:04:47.268536","changesets":907,"mappers":61,"roads":663.399475561412,"buildings":30497,"edits":31563,"latest":"2018-04-11T09:11:04.000Z"},"geometry":{"type":"Point","coordinates":[32.511668384650065,-8.419049370379382]}},{"type":"Feature","properties":{"title":"Mbozi, Mbeya, Tanzania Mini Grids Project 02","id":4287,"area":1464.4147850208826,"year":"2018","lastUpdated":"2018-03-28T14:39:26.288008","changesets":3239,"mappers":63,"roads":3419.72220762667,"buildings":69891,"edits":79035,"latest":"2018-03-28T14:41:07.000Z"},"geometry":{"type":"Point","coordinates":[32.46601435345758,-9.102106023061891]}},{"type":"Feature","properties":{"title":"Tunduru, Ruvuma, Tanzania Mini Grids Project 04","id":4412,"area":1554.890184050325,"year":"2018","lastUpdated":"2018-05-25T06:52:25.748652","changesets":1325,"mappers":68,"roads":0.398203610661417,"buildings":26966,"edits":27033,"latest":"2018-04-30T08:47:26.000Z"},"geometry":{"type":"Point","coordinates":[37.58529301248964,-11.01510385295025]}},{"type":"Feature","properties":{"title":"Missing Maps: Dar es Salaam - Ramani Huria 2.0 - 36","id":3488,"area":375.46340276958506,"year":"2018","lastUpdated":"2018-03-05T15:28:01.583533","changesets":3567,"mappers":92,"roads":484.778915813184,"buildings":27629,"edits":38950,"latest":"2017-09-08T11:51:25.000Z"},"geometry":{"type":"Point","coordinates":[39.342418323976254,-6.900416957671596]}},{"type":"Feature","properties":{"title":"Tabora, Tabora, Tanzania Mini Grids Project 05","id":4612,"area":1989.4559724518444,"year":"2018","lastUpdated":"2018-06-01T09:04:16.418927","changesets":1027,"mappers":62,"roads":1.12987965804484,"buildings":17432,"edits":17662,"latest":"2018-06-01T13:36:34.000Z"},"geometry":{"type":"Point","coordinates":[33.40266077376074,-5.09063064812292]}},{"type":"Feature","properties":{"title":"Kagera_Goziba","id":4079,"area":1.1395975392255964,"year":"2018","lastUpdated":"2018-01-29T07:04:24.380360","changesets":0,"mappers":0,"roads":0,"buildings":0,"edits":0,"latest":null},"geometry":{"type":"Point","coordinates":[32.61356799061652,-1.4704301698877245]}},{"type":"Feature","properties":{"title":"Mbeya minigrids","id":4208,"area":381.3150730146897,"year":"2018","lastUpdated":"2018-04-11T07:15:52.458810","changesets":8229,"mappers":81,"roads":545.472150450804,"buildings":454625,"edits":458780,"latest":"2018-03-29T12:55:24.000Z"},"geometry":{"type":"Point","coordinates":[33.273085375143864,-8.927145320940063]}},{"type":"Feature","properties":{"title":"Missing Maps: Iringa - OpenStreetMap Tanzania","id":3431,"area":13.946474979484007,"year":"2018","lastUpdated":"2018-05-26T09:27:35.753222","changesets":607,"mappers":56,"roads":14.6089667908956,"buildings":3492,"edits":4272,"latest":"2018-06-16T13:59:57.000Z"},"geometry":{"type":"Point","coordinates":[35.70870872020667,-7.758966359486665]}},{"type":"Feature","properties":{"title":"Rufiji, Pwani, Tanzania Mini Grids Project 01","id":4621,"area":1421.848754938379,"year":"2018","lastUpdated":"2018-06-04T04:09:39.510772","changesets":1064,"mappers":55,"roads":0.237551369076412,"buildings":31908,"edits":31964,"latest":"2018-06-12T11:47:04.000Z"},"geometry":{"type":"Point","coordinates":[38.756067518885445,-7.717796153884717]}},{"type":"Feature","properties":{"title":"Ramani Huria 2.0 Session 01","id":3329,"area":31.68859428995046,"year":"2017","lastUpdated":"2017-08-10T21:07:17.738097","changesets":257,"mappers":67,"roads":32.0605720986966,"buildings":1717,"edits":2201,"latest":"2017-08-10T21:06:16.000Z"},"geometry":{"type":"Point","coordinates":[36.046382904052734,-7.679825943888342]}},{"type":"Feature","properties":{"title":"Zanzibar Roads - Unguja Island - 01","id":3650,"area":234.75514110431052,"year":"2017","lastUpdated":"2017-10-07T12:29:26.306281","changesets":573,"mappers":18,"roads":1191.68951939582,"buildings":43,"edits":17373,"latest":"2017-10-07T12:28:50.000Z"},"geometry":{"type":"Point","coordinates":[39.248176202742364,-6.1821500381296275]}},{"type":"Feature","properties":{"title":"Tanzania Development Trust: Shinyanga East community mapping project","id":4166,"area":1007.0589397559861,"year":"2018","lastUpdated":"2018-06-02T01:04:32.480199","changesets":2304,"mappers":323,"roads":1359.78696359832,"buildings":23393,"edits":28852,"latest":"2018-06-16T04:35:02.000Z"},"geometry":{"type":"Point","coordinates":[33.66405700164086,-3.5303866913753184]}},{"type":"Feature","properties":{"title":"Kagera_Goziba","id":4068,"area":1.2825061201820658,"year":"2018","lastUpdated":"2018-01-27T17:08:13.788121","changesets":1,"mappers":1,"roads":0,"buildings":0,"edits":0,"latest":"2018-01-27T17:01:56.000Z"},"geometry":{"type":"Point","coordinates":[32.613511747768825,-1.4704431873747166]}},{"type":"Feature","properties":{"title":"Itona_Kilosa","id":4179,"area":741.6959938125862,"year":"2018","lastUpdated":"2018-04-11T06:43:22.814485","changesets":409,"mappers":55,"roads":1.35885332610885,"buildings":3691,"edits":3744,"latest":"2018-04-11T07:21:08.000Z"},"geometry":{"type":"Point","coordinates":[35.53547612786605,-8.535150251339573]}},{"type":"Feature","properties":{"title":"Missing Maps: Dar es Salaam - Ramani Huria 2.0 - 37","id":3489,"area":417.09462410666663,"year":"2017","lastUpdated":"2017-09-18T12:03:21.740199","changesets":822,"mappers":61,"roads":562.998240273241,"buildings":1882,"edits":10391,"latest":"2017-11-09T12:33:34.000Z"},"geometry":{"type":"Point","coordinates":[39.462098843694726,-7.104153352099897]}},{"type":"Feature","properties":{"title":"Tanzania Development Trust: 2nd Mtwara Community Mapping Project","id":3971,"area":98.24692106163043,"year":"2018","lastUpdated":"2018-03-04T22:49:20.178887","changesets":618,"mappers":22,"roads":457.925152091705,"buildings":10383,"edits":18270,"latest":"2018-06-12T18:24:06.000Z"},"geometry":{"type":"Point","coordinates":[39.42067534438141,-10.848543412423489]}},{"type":"Feature","properties":{"title":"Urambo, Tabora, Tanzania Mini Grids Project 04","id":4366,"area":1540.7875686482291,"year":"2018","lastUpdated":"2018-04-23T12:46:20.979070","changesets":1920,"mappers":73,"roads":6.2619827819317,"buildings":42229,"edits":42283,"latest":"2018-04-23T12:45:52.000Z"},"geometry":{"type":"Point","coordinates":[31.8072741219125,-5.113293963680001]}},{"type":"Feature","properties":{"title":"Ardhi University: Housing Development - Arusha, Mateves","id":3936,"area":105.10882142853721,"year":"2018","lastUpdated":"2018-01-16T23:34:03.009579","changesets":3556,"mappers":30,"roads":138.191525659107,"buildings":7500,"edits":8425,"latest":"2018-01-16T23:32:57.000Z"},"geometry":{"type":"Point","coordinates":[36.59653045580638,-3.4472906101117435]}},{"type":"Feature","properties":{"title":"Tanzania Development Trust: Rungwe Kasulu Community Mapping Project","id":4357,"area":1013.1767777919853,"year":"2018","lastUpdated":"2018-06-03T21:38:16.897800","changesets":5499,"mappers":409,"roads":4880.45692528458,"buildings":20747,"edits":48724,"latest":"2018-06-17T11:27:53.000Z"},"geometry":{"type":"Point","coordinates":[30.230117797851562,-4.804368255129022]}},{"type":"Feature","properties":{"title":"Missing Maps: Dar es Salaam - Ramani Huria 2.0 - 22","id":3394,"area":193.3069912960159,"year":"2018","lastUpdated":"2018-03-05T15:37:43.885692","changesets":1930,"mappers":58,"roads":1.39294643325465,"buildings":23844,"edits":24048,"latest":"2017-08-13T19:03:52.000Z"},"geometry":{"type":"Point","coordinates":[39.08408207500271,-7.020948492257043]}},{"type":"Feature","properties":{"title":"Tunduru, Ruvuma, Tanzania Mini Grids Project 03","id":4378,"area":1369.2568876847938,"year":"2018","lastUpdated":"2018-05-03T12:58:11.041494","changesets":1018,"mappers":60,"roads":0.263537837490913,"buildings":23394,"edits":23430,"latest":"2018-05-03T13:14:28.000Z"},"geometry":{"type":"Point","coordinates":[37.28765739124834,-11.152541317436667]}},{"type":"Feature","properties":{"title":"Tunduru, Ruvuma, Tanzania Mini Grids Project 01","id":4423,"area":1513.3163670277308,"year":"2018","lastUpdated":"2018-05-02T21:24:14.854590","changesets":563,"mappers":60,"roads":0.672380757483712,"buildings":13863,"edits":13882,"latest":"2018-05-04T12:24:21.000Z"},"geometry":{"type":"Point","coordinates":[37.15242795625945,-11.620027648839601]}},{"type":"Feature","properties":{"title":"Mbozi, Mbeya, Tanzania Mini Grids Project 03","id":4289,"area":1303.883290131881,"year":"2018","lastUpdated":"2018-04-05T07:39:56.192366","changesets":2369,"mappers":71,"roads":1709.1223406615,"buildings":56972,"edits":61831,"latest":"2018-04-04T13:53:11.000Z"},"geometry":{"type":"Point","coordinates":[32.660369621525334,-8.981003005244997]}},{"type":"Feature","properties":{"title":"Missing Maps: Dar es Salaam - Ramani Huria 2.0 - 40","id":3523,"area":44.58915788409798,"year":"2018","lastUpdated":"2018-03-04T23:01:06.175520","changesets":5364,"mappers":98,"roads":142.280090782385,"buildings":76616,"edits":90202,"latest":"2018-01-03T08:26:39.000Z"},"geometry":{"type":"Point","coordinates":[39.202911789704345,-6.764988440714859]}},{"type":"Feature","properties":{"title":"Dodoma","id":4075,"area":1376.1461971097149,"year":"2018","lastUpdated":"2018-01-27T16:19:15.755920","changesets":0,"mappers":0,"roads":0,"buildings":0,"edits":0,"latest":null},"geometry":{"type":"Point","coordinates":[35.01502914443591,-7.24110335290576]}},{"type":"Feature","properties":{"title":"Kigoma_13","id":4099,"area":2.897626588524291,"year":"2018","lastUpdated":"2018-02-12T06:41:14.209893","changesets":98,"mappers":5,"roads":0.000234970678110244,"buildings":1712,"edits":1719,"latest":"2018-02-12T06:40:16.000Z"},"geometry":{"type":"Point","coordinates":[29.658303477039862,-4.485456020104669]}},{"type":"Feature","properties":{"title":"Tanzania Development Trust: Msisi ward community mapping project ","id":3160,"area":81.67279767012198,"year":"2018","lastUpdated":"2018-04-26T00:17:28.085993","changesets":0,"mappers":0,"roads":0,"buildings":0,"edits":0,"latest":null},"geometry":{"type":"Point","coordinates":[34.66563340576518,-4.623019740570436]}},{"type":"Feature","properties":{"title":"Missing Maps: Temeke - Data Zetu","id":3699,"area":14.051390146474496,"year":"2018","lastUpdated":"2018-03-04T22:52:17.712834","changesets":931,"mappers":30,"roads":58.5254100191776,"buildings":29137,"edits":33372,"latest":"2018-03-09T20:29:21.000Z"},"geometry":{"type":"Point","coordinates":[39.26423919262868,-6.891846441400092]}},{"type":"Feature","properties":{"title":"Missing Maps: Mbeya - Data Zetu","id":3697,"area":39.48024643275634,"year":"2018","lastUpdated":"2018-03-05T06:16:20.685049","changesets":2340,"mappers":21,"roads":8.22290546014696,"buildings":79467,"edits":79938,"latest":"2018-03-05T10:02:12.000Z"},"geometry":{"type":"Point","coordinates":[33.45143106176986,-8.924156507539553]}},{"type":"Feature","properties":{"title":"Missing Maps: Dar es Salaam - Ramani Huria 2.0 - 26","id":3412,"area":264.77964572508387,"year":"2018","lastUpdated":"2018-03-05T15:34:27.981696","changesets":362,"mappers":52,"roads":2.21303831070795,"buildings":4558,"edits":4620,"latest":"2017-08-16T10:11:16.000Z"},"geometry":{"type":"Point","coordinates":[39.452851686025426,-7.123357238474153]}},{"type":"Feature","properties":{"title":"Tanzania Development Trust: Ishunju, Ishozi and Gera districts community mapping project ","id":3078,"area":117.52166194056245,"year":"2018","lastUpdated":"2018-03-24T09:13:51.794920","changesets":0,"mappers":0,"roads":0,"buildings":0,"edits":0,"latest":null},"geometry":{"type":"Point","coordinates":[31.756309546976297,-1.1950660061594969]}},{"type":"Feature","properties":{"title":"MSD & JSI/USAID Tanzania Road Import - Arusha region","id":1971,"area":31245.987566415035,"year":"2017","lastUpdated":"2017-07-24T23:13:32.143193","changesets":0,"mappers":0,"roads":0,"buildings":0,"edits":0,"latest":null},"geometry":{"type":"Point","coordinates":[35.98178328230096,-2.99082315747327]}},{"type":"Feature","properties":{"title":"Tanzania Development Trust: Simiyu district mapping project part 1","id":2501,"area":6430.819090940454,"year":"2018","lastUpdated":"2018-01-24T12:18:11.755027","changesets":0,"mappers":0,"roads":0,"buildings":0,"edits":0,"latest":null},"geometry":{"type":"Point","coordinates":[33.963684082031236,-2.4816321015734735]}},{"type":"Feature","properties":{"title":"MSD & JSI/USAID Tanzania Road Import - Dodoma region","id":2012,"area":30070.63156173727,"year":"2016","lastUpdated":"2016-09-16T13:16:37.526872","changesets":0,"mappers":0,"roads":0,"buildings":0,"edits":0,"latest":null},"geometry":{"type":"Point","coordinates":[35.84633163505444,-5.8241716175440175]}},{"type":"Feature","properties":{"title":"MSD & JSI/USAID Tanzania Road Import - Mara region","id":2095,"area":18583.120612545095,"year":"2016","lastUpdated":"2016-12-02T22:50:50.785436","changesets":0,"mappers":0,"roads":0,"buildings":0,"edits":0,"latest":null},"geometry":{"type":"Point","coordinates":[34.25431061911746,-1.7219985711602823]}},{"type":"Feature","properties":{"title":"MSD & JSI/USAID Tanzania Road Import - Manyara region","id":1973,"area":40580.74888215921,"year":"2016","lastUpdated":"2016-07-03T20:50:06.210422","changesets":0,"mappers":0,"roads":0,"buildings":0,"edits":0,"latest":null},"geometry":{"type":"Point","coordinates":[36.2647809052761,-4.352401182141463]}},{"type":"Feature","properties":{"title":"PEPFAR Tanzania: Shinyanga","id":2301,"area":565.5201463076456,"year":"2017","lastUpdated":"2017-11-16T23:33:37.890014","changesets":5198,"mappers":302,"roads":2277.42607148261,"buildings":46163,"edits":71621,"latest":"2017-11-16T23:33:01.000Z"},"geometry":{"type":"Point","coordinates":[33.44573190915658,-3.633071239733379]}},{"type":"Feature","properties":{"title":"Ngorongoro Conservation Area","id":1040,"area":8640.922363295951,"year":"2017","lastUpdated":"2017-04-25T12:38:43.230359","changesets":0,"mappers":0,"roads":0,"buildings":0,"edits":0,"latest":null},"geometry":{"type":"Point","coordinates":[35.421957288469606,-3.139810074677604]}},{"type":"Feature","properties":{"title":"MSD & JSI/USAID Tanzania Road Import - Rukwa and Katavi regions","id":1462,"area":23601.174016426638,"year":"2016","lastUpdated":"2016-11-09T18:57:37.926429","changesets":0,"mappers":0,"roads":0,"buildings":0,"edits":0,"latest":null},"geometry":{"type":"Point","coordinates":[31.18854567490904,-7.033630568874043]}},{"type":"Feature","properties":{"title":"MSD & JSI/USAID Tanzania Road Import - Kilimanjaro region","id":1972,"area":11317.826802773296,"year":"2016","lastUpdated":"2016-08-31T08:40:56.222091","changesets":0,"mappers":0,"roads":0,"buildings":0,"edits":0,"latest":null},"geometry":{"type":"Point","coordinates":[37.47095374471149,-3.5857099932097873]}},{"type":"Feature","properties":{"title":"MSD & JSI/USAID Tanzania Road Import - Tanga region","id":1921,"area":26453.26230241192,"year":"2016","lastUpdated":"2016-11-26T18:48:48.999774","changesets":0,"mappers":0,"roads":0,"buildings":0,"edits":0,"latest":null},"geometry":{"type":"Point","coordinates":[38.09654675335962,-5.362412457676792]}},{"type":"Feature","properties":{"title":"MSD & JSI/USAID Tanzania Road Import - Kigoma and Tabora regions","id":1233,"area":55716.44775664574,"year":"2017","lastUpdated":"2017-09-08T08:29:26.684641","changesets":89,"mappers":5,"roads":7164.0075520837,"buildings":137,"edits":14011,"latest":"2015-10-15T16:49:58.000Z"},"geometry":{"type":"Point","coordinates":[32.221144436424595,-4.716038295525221]}},{"type":"Feature","properties":{"title":"Manyoni, Singida, Tanzania Mini Grids Project 02","id":4532,"area":1743.3360624738941,"year":"2018","lastUpdated":"2018-05-21T06:12:05.383529","changesets":885,"mappers":62,"roads":0.198161772673363,"buildings":17096,"edits":17116,"latest":"2018-05-21T06:05:53.000Z"},"geometry":{"type":"Point","coordinates":[34.272985485616104,-5.75358385726637]}},{"type":"Feature","properties":{"title":"Kagera_2","id":4080,"area":4.132236731942467,"year":"2018","lastUpdated":"2018-01-29T09:03:59.256755","changesets":0,"mappers":0,"roads":0,"buildings":0,"edits":0,"latest":null},"geometry":{"type":"Point","coordinates":[32.119223662470695,-1.4703780484724356]}},{"type":"Feature","properties":{"title":"Mwanza","id":4074,"area":121.88924319716057,"year":"2018","lastUpdated":"2018-03-27T15:42:41.221237","changesets":6,"mappers":3,"roads":0.470326699343026,"buildings":24,"edits":42,"latest":"2018-03-27T15:44:50.000Z"},"geometry":{"type":"Point","coordinates":[33.126132567191135,-1.9238324242353735]}},{"type":"Feature","properties":{"title":"Muheza malaria","id":4039,"area":580.7567384439337,"year":"2018","lastUpdated":"2018-06-01T20:37:30.159547","changesets":423,"mappers":18,"roads":9.04284919882175,"buildings":24405,"edits":24586,"latest":"2018-06-03T11:25:54.000Z"},"geometry":{"type":"Point","coordinates":[38.769019369140786,-5.149994286049941]}},{"type":"Feature","properties":{"title":"TZ IFC Mini-grids house count test","id":3876,"area":481.70619678590833,"year":"2018","lastUpdated":"2018-01-17T09:18:38.631606","changesets":3458,"mappers":35,"roads":5.06366089326074,"buildings":275823,"edits":276862,"latest":"2018-02-20T15:26:25.000Z"},"geometry":{"type":"Point","coordinates":[34.581446410258884,-7.300716320272623]}},{"type":"Feature","properties":{"title":"Missing Maps: Dar es Salaam - Ramani Huria 2.0 - 28","id":3425,"area":238.90307672725964,"year":"2018","lastUpdated":"2018-03-05T15:33:37.319997","changesets":3337,"mappers":175,"roads":1979.67874635539,"buildings":2573,"edits":35065,"latest":"2017-11-03T04:15:17.000Z"},"geometry":{"type":"Point","coordinates":[39.23760432535289,-6.936433155607072]}},{"type":"Feature","properties":{"title":"RiftValley Energy houses count","id":4034,"area":3182.0339068213334,"year":"2018","lastUpdated":"2018-02-13T06:50:28.478981","changesets":1196,"mappers":18,"roads":2.25560241095202,"buildings":73824,"edits":74303,"latest":"2018-02-13T09:48:18.000Z"},"geometry":{"type":"Point","coordinates":[35.64345427782045,-8.381566823262816]}},{"type":"Feature","properties":{"title":"Missing Maps: Dar es Salaam - Ramani Huria 2.0 - 20","id":3387,"area":92.06647987703117,"year":"2018","lastUpdated":"2018-03-05T15:38:02.296786","changesets":1407,"mappers":57,"roads":12.7576761938866,"buildings":34483,"edits":36868,"latest":"2017-08-15T08:33:29.000Z"},"geometry":{"type":"Point","coordinates":[39.115395701674714,-6.820271980216828]}},{"type":"Feature","properties":{"title":"Missing Maps: Dar es Salaam - Ramani Huria 2.0 - 39","id":3505,"area":96.83711970341507,"year":"2018","lastUpdated":"2018-03-04T23:01:32.143525","changesets":3897,"mappers":79,"roads":269.298159883004,"buildings":48923,"edits":63495,"latest":"2017-09-18T11:50:06.000Z"},"geometry":{"type":"Point","coordinates":[39.305843254526984,-6.840568905719535]}},{"type":"Feature","properties":{"title":"Missing Maps: Dar es Salaam - Ramani Huria 2.0 - 27","id":3424,"area":230.31173426208932,"year":"2018","lastUpdated":"2018-03-05T15:33:58.772352","changesets":2533,"mappers":79,"roads":1585.23523604963,"buildings":328,"edits":20922,"latest":"2017-08-31T08:30:39.000Z"},"geometry":{"type":"Point","coordinates":[39.10027660536416,-7.025038398924583]}},{"type":"Feature","properties":{"title":"Missing Maps: Dar es Salaam - Ramani Huria 2.0 - 25","id":3411,"area":260.81879568766976,"year":"2018","lastUpdated":"2018-03-05T15:34:52.492149","changesets":1755,"mappers":99,"roads":3.25862217409201,"buildings":58641,"edits":59730,"latest":"2017-08-21T09:01:52.000Z"},"geometry":{"type":"Point","coordinates":[39.37092792533908,-6.938791309484072]}},{"type":"Feature","properties":{"title":"Zanzibar Roads - Unguja Island - 02","id":3666,"area":467.0999763333136,"year":"2017","lastUpdated":"2017-10-02T18:35:16.494476","changesets":182,"mappers":13,"roads":1127.1061948184,"buildings":5,"edits":6570,"latest":"2017-10-04T08:29:26.000Z"},"geometry":{"type":"Point","coordinates":[39.26414174907967,-5.856335474346869]}},{"type":"Feature","properties":{"title":"Tanzania Development Trust and Institute for Rural Development Planning: Mvomero district student mapping project ","id":3319,"area":1439.4586268120136,"year":"2018","lastUpdated":"2018-03-30T09:46:27.084556","changesets":0,"mappers":0,"roads":0,"buildings":0,"edits":0,"latest":null},"geometry":{"type":"Point","coordinates":[37.51997811453685,-6.44864147483987]}},{"type":"Feature","properties":{"title":"Ikuna Ward Mapping Project","id":3203,"area":224.51296025612464,"year":"2018","lastUpdated":"2018-03-05T15:47:24.873442","changesets":335,"mappers":7,"roads":742.813559438956,"buildings":4401,"edits":9943,"latest":"2017-10-31T12:28:59.000Z"},"geometry":{"type":"Point","coordinates":[34.9328327178955,-9.190730246414187]}},{"type":"Feature","properties":{"title":"Lindi, Lindi, Tanzania Mini Grids Project 04","id":4495,"area":2400.161505147141,"year":"2018","lastUpdated":"2018-05-10T09:20:09.890307","changesets":1491,"mappers":64,"roads":3.71317177369055,"buildings":44871,"edits":44997,"latest":"2018-05-10T12:37:32.000Z"},"geometry":{"type":"Point","coordinates":[39.76326133480001,-10.168453829364001]}},{"type":"Feature","properties":{"title":"Zanzibar Roads - Unguja Island - 03","id":3670,"area":891.0473088683418,"year":"2017","lastUpdated":"2017-10-05T10:03:33.314686","changesets":401,"mappers":16,"roads":2063.39671273138,"buildings":70,"edits":11338,"latest":"2018-04-05T16:35:12.000Z"},"geometry":{"type":"Point","coordinates":[39.43088050601065,-6.258244508731397]}},{"type":"Feature","properties":{"title":"Mpwapwa, Dodoma, Tanzania Mini Grids Project 08","id":4418,"area":69.68255741962724,"year":"2018","lastUpdated":"2018-05-19T20:42:24.261907","changesets":1926,"mappers":103,"roads":18.7990415103299,"buildings":25541,"edits":25683,"latest":"2018-05-19T20:41:29.000Z"},"geometry":{"type":"Point","coordinates":[36.46391177601475,-5.9448724542277525]}},{"type":"Feature","properties":{"title":"Lamaiti Village, Tanzania Mini Grids Project","id":4636,"area":287.18127360801236,"year":"2018","lastUpdated":"2018-06-03T23:10:02.617305","changesets":510,"mappers":69,"roads":0.067806508631528,"buildings":6540,"edits":6550,"latest":"2018-06-04T09:04:54.000Z"},"geometry":{"type":"Point","coordinates":[35.4794601137225,-5.801276271989993]}},{"type":"Feature","properties":{"title":"Missing Maps: Dar es Salaam - Ramani Huria 2.0 - 38","id":3496,"area":41.1920610625183,"year":"2018","lastUpdated":"2018-03-05T15:25:20.531310","changesets":5472,"mappers":73,"roads":78.4353169552313,"buildings":94858,"edits":120253,"latest":"2017-11-10T12:46:09.000Z"},"geometry":{"type":"Point","coordinates":[39.246766265484496,-6.7942247570358445]}},{"type":"Feature","properties":{"title":"Urambo, Tabora, Tanzania Mini Grids Project 07","id":4354,"area":1417.644733786158,"year":"2018","lastUpdated":"2018-04-11T08:08:57.353009","changesets":1280,"mappers":66,"roads":0.235986987394966,"buildings":39644,"edits":39659,"latest":"2018-04-11T09:46:25.000Z"},"geometry":{"type":"Point","coordinates":[31.960650180526155,-4.799811038966155]}},{"type":"Feature","properties":{"title":"Mara","id":4073,"area":3.087873440053216,"year":"2018","lastUpdated":"2018-01-29T14:51:44.742950","changesets":0,"mappers":0,"roads":0,"buildings":0,"edits":0,"latest":null},"geometry":{"type":"Point","coordinates":[33.70828711361714,-1.4058350861409175]}},{"type":"Feature","properties":{"title":"Kigoma_2","id":4083,"area":1.965158778543636,"year":"2018","lastUpdated":"2018-01-30T14:05:17.983249","changesets":127,"mappers":2,"roads":0,"buildings":458,"edits":458,"latest":"2018-01-30T14:04:27.000Z"},"geometry":{"type":"Point","coordinates":[30.490210022071953,-6.813742245754607]}},{"type":"Feature","properties":{"title":"Mbozi, Mbeya, Tanzania Mini Grids Project 04","id":4290,"area":1211.7161084477548,"year":"2018","lastUpdated":"2018-04-10T12:46:02.129539","changesets":1169,"mappers":69,"roads":1444.56368233182,"buildings":35862,"edits":38500,"latest":"2018-04-10T12:46:01.000Z"},"geometry":{"type":"Point","coordinates":[32.864289160170514,-8.870478995599651]}},{"type":"Feature","properties":{"title":"Kigoma_9","id":4090,"area":1.722690665551124,"year":"2018","lastUpdated":"2018-02-15T09:43:57.762973","changesets":290,"mappers":6,"roads":0.249339693562493,"buildings":1929,"edits":1941,"latest":"2018-02-15T09:43:50.000Z"},"geometry":{"type":"Point","coordinates":[29.825238216387262,-6.003663870933533]}},{"type":"Feature","properties":{"title":"kagera_3","id":4072,"area":5.425110699350517,"year":"2018","lastUpdated":"2018-01-29T13:51:44.560135","changesets":66,"mappers":4,"roads":0,"buildings":1436,"edits":1436,"latest":"2018-01-30T06:14:28.000Z"},"geometry":{"type":"Point","coordinates":[31.78296036744672,-1.9859577129840518]}},{"type":"Feature","properties":{"title":"Tanzania Development Trust: Simiyu South","id":4323,"area":3977.4740524717954,"year":"2018","lastUpdated":"2018-06-02T22:30:09.029587","changesets":2977,"mappers":314,"roads":1153.75916845133,"buildings":37589,"edits":41455,"latest":"2018-06-17T04:46:53.000Z"},"geometry":{"type":"Point","coordinates":[34.2659914121032,-3.1020947645146095]}}],"totalArea":5849531.680661804,"Democratic Republic of the Congo":[{"type":"Feature","properties":{"title":"Kingabwa, Kinshasa, DRC (suite 1)","id":4077,"area":0.4810177177951612,"year":"2018","lastUpdated":"2018-05-19T09:50:54.204691","changesets":0,"mappers":0,"roads":0,"buildings":0,"edits":0,"latest":null},"geometry":{"type":"Point","coordinates":[15.358737819487253,-4.349021180720147]}},{"type":"Feature","properties":{"title":"Missing Maps: Map South Kivu, Democratic Republic of Congo (Project 27: Buildings)","id":4004,"area":16.160413324668365,"year":"2018","lastUpdated":"2018-04-18T11:27:52.211044","changesets":0,"mappers":0,"roads":0,"buildings":0,"edits":0,"latest":null},"geometry":{"type":"Point","coordinates":[29.136414914339618,-4.314837454773905]}},{"type":"Feature","properties":{"title":"Missing Maps - Goma, DRC - Water and Sanitation - For intermediate mappers","id":2608,"area":53.739188152281926,"year":"2018","lastUpdated":"2018-03-09T18:55:20.236014","changesets":3307,"mappers":195,"roads":649.074396407178,"buildings":126765,"edits":148224,"latest":"2018-03-07T08:02:19.000Z"},"geometry":{"type":"Point","coordinates":[29.191817698016994,-1.6392672855790005]}},{"type":"Feature","properties":{"title":"Mama Nzenze and Kingabwa, Kinshasa, DRC","id":3360,"area":0.4940352502577961,"year":"2017","lastUpdated":"2017-12-06T02:52:27.455688","changesets":26,"mappers":2,"roads":0.0789731376233602,"buildings":253,"edits":263,"latest":"2018-03-30T19:15:56.000Z"},"geometry":{"type":"Point","coordinates":[15.3524990169725,-4.3434251692991666]}},{"type":"Feature","properties":{"title":"DRC Road network: Task 1/A (based on DIAF data in Kasai)","id":2881,"area":12996.209617402423,"year":"2018","lastUpdated":"2018-04-19T10:36:23.459056","changesets":0,"mappers":0,"roads":0,"buildings":0,"edits":0,"latest":null},"geometry":{"type":"Point","coordinates":[22.38012796538654,-4.787140318759613]}},{"type":"Feature","properties":{"title":"Coastal Jiba HZ, Ituri, DRC","id":3477,"area":100.88965683887055,"year":"2017","lastUpdated":"2017-11-07T19:11:50.381921","changesets":107,"mappers":13,"roads":1.46307617982564,"buildings":197,"edits":277,"latest":"2017-11-07T19:11:08.000Z"},"geometry":{"type":"Point","coordinates":[30.77659077690273,1.7791525856931818]}},{"type":"Feature","properties":{"title":"Missing Maps: Masisi territory, North Kivu, DRC (roads part 1)","id":1968,"area":578.7150994317658,"year":"2018","lastUpdated":"2018-03-16T16:29:31.342940","changesets":0,"mappers":0,"roads":0,"buildings":0,"edits":0,"latest":null},"geometry":{"type":"Point","coordinates":[28.772555949198146,-1.3487796222942736]}},{"type":"Feature","properties":{"title":"Kalima, DRC -- Updated Imagery, 07 September 2013","id":468,"area":331.2871082022658,"year":"2015","lastUpdated":"2015-05-22T08:40:54.587441","changesets":418,"mappers":40,"roads":68.6913211038345,"buildings":2104,"edits":3191,"latest":"2016-08-15T12:58:14.000Z"},"geometry":{"type":"Point","coordinates":[26.567840419635058,-2.571083836309008]}},{"type":"Feature","properties":{"title":"Goma, Nord Kivu, RD-Congo ","id":102,"area":48.1063662166364,"year":"2017","lastUpdated":"2017-05-08T00:30:26.030634","changesets":2,"mappers":1,"roads":0,"buildings":8,"edits":8,"latest":"2015-12-08T16:53:45.000Z"},"geometry":{"type":"Point","coordinates":[29.14786147665582,-1.6260671481812492]}},{"type":"Feature","properties":{"title":"Kasese, DRC -- Updated Imagery, 15 September 2013","id":467,"area":128.861484993308,"year":"2016","lastUpdated":"2016-11-02T15:53:40.135705","changesets":46,"mappers":8,"roads":95.7653155482985,"buildings":306,"edits":663,"latest":"2015-02-15T02:18:48.000Z"},"geometry":{"type":"Point","coordinates":[27.083478915584788,-1.6022408997770268]}},{"type":"Feature","properties":{"title":"Lac Kivu RD-Congo, Minova","id":108,"area":233.19540467249075,"year":"2017","lastUpdated":"2017-05-05T10:40:51.311126","changesets":178,"mappers":8,"roads":215.911141147431,"buildings":9324,"edits":10568,"latest":"2012-12-22T23:26:23.000Z"},"geometry":{"type":"Point","coordinates":[29.034486494110094,-1.6980448679058961]}},{"type":"Feature","properties":{"title":"Flooded Area Ruzizi (RDC)","id":4485,"area":251.22551930092104,"year":"2018","lastUpdated":"2018-06-03T22:04:54.199150","changesets":0,"mappers":0,"roads":0,"buildings":0,"edits":0,"latest":null},"geometry":{"type":"Point","coordinates":[29.0666987556225,-2.9482271006325]}},{"type":"Feature","properties":{"title":"Missing Maps: Masisi territory, North Kivu, DRC (roads part 7)","id":2328,"area":566.26644966429,"year":"2018","lastUpdated":"2018-01-10T14:46:24.680961","changesets":0,"mappers":0,"roads":0,"buildings":0,"edits":0,"latest":null},"geometry":{"type":"Point","coordinates":[28.946062956432744,-1.3087084437356329]}},{"type":"Feature","properties":{"title":"Goma","id":4403,"area":41.510440995220705,"year":"2018","lastUpdated":"2018-04-07T09:57:18.882380","changesets":0,"mappers":0,"roads":0,"buildings":0,"edits":0,"latest":null},"geometry":{"type":"Point","coordinates":[29.21588767030645,-1.6614821687850099]}},{"type":"Feature","properties":{"title":"DRC Road network: Kivu (main roads based on CI/OR data)","id":4471,"area":38701.61965431843,"year":"2018","lastUpdated":"2018-06-03T15:24:29.471683","changesets":0,"mappers":0,"roads":0,"buildings":0,"edits":0,"latest":null},"geometry":{"type":"Point","coordinates":[27.499520779122957,-2.6038102755076293]}},{"type":"Feature","properties":{"title":"Missing Maps: Sleeping Sickness in Maniema DR Congo - Tunda","id":4434,"area":9995.56095616409,"year":"2018","lastUpdated":"2018-05-30T17:28:59.603255","changesets":0,"mappers":0,"roads":0,"buildings":0,"edits":0,"latest":null},"geometry":{"type":"Point","coordinates":[25.33041103066087,-4.220335367104785]}},{"type":"Feature","properties":{"title":"Missing Maps: Manono, Katanga Province, Democratic Republic of Congo (DRC)","id":1490,"area":75.464135432213,"year":"2018","lastUpdated":"2018-01-10T14:49:49.972179","changesets":0,"mappers":0,"roads":0,"buildings":0,"edits":0,"latest":null},"geometry":{"type":"Point","coordinates":[27.421937998083802,-7.298938584017591]}},{"type":"Feature","properties":{"title":"Nyabibwe, South Kivu, DRC","id":1222,"area":24.91046008499545,"year":"2016","lastUpdated":"2016-08-13T10:02:07.375038","changesets":352,"mappers":35,"roads":25.7303640620083,"buildings":2623,"edits":2972,"latest":"2015-11-15T13:31:03.000Z"},"geometry":{"type":"Point","coordinates":[28.96299452125098,-1.933376500443122]}},{"type":"Feature","properties":{"title":"Missing Maps: Kambove, Katanga Province, Democratic Republic of Congo (DRC)","id":1655,"area":8.503859703790376,"year":"2018","lastUpdated":"2018-01-10T14:49:41.072180","changesets":0,"mappers":0,"roads":0,"buildings":0,"edits":0,"latest":null},"geometry":{"type":"Point","coordinates":[26.59701633453368,-10.87240201313124]}},{"type":"Feature","properties":{"title":"Missing Maps: South Kivu, Democratic Republic of Congo (Project 26: points of interest)","id":3420,"area":23.957300445645476,"year":"2018","lastUpdated":"2018-04-29T19:40:17.876832","changesets":312,"mappers":19,"roads":100.972522896295,"buildings":239,"edits":1438,"latest":"2018-06-10T20:04:58.000Z"},"geometry":{"type":"Point","coordinates":[29.05264918539302,-4.296481389851979]}},{"type":"Feature","properties":{"title":"Missing Maps: Fungurume, Katanga Province, Democratic Republic of Congo (DRC)","id":1695,"area":50.08769664293946,"year":"2018","lastUpdated":"2018-01-10T14:49:22.419895","changesets":0,"mappers":0,"roads":0,"buildings":0,"edits":0,"latest":null},"geometry":{"type":"Point","coordinates":[26.331739421994328,-10.617838753918424]}},{"type":"Feature","properties":{"title":"Missing Maps: Masisi territory, North Kivu, DRC (settlements part 5)","id":1982,"area":275.9836947745321,"year":"2018","lastUpdated":"2018-01-10T14:47:24.594967","changesets":0,"mappers":0,"roads":0,"buildings":0,"edits":0,"latest":null},"geometry":{"type":"Point","coordinates":[29.05763111852096,-1.4245477593207878]}},{"type":"Feature","properties":{"title":"Okapi Wildlife Reserve, DRC","id":2843,"area":14067.242482693433,"year":"2017","lastUpdated":"2017-12-24T06:40:06.731796","changesets":509,"mappers":42,"roads":8.77740062849276,"buildings":7950,"edits":8159,"latest":"2017-12-24T07:02:41.000Z"},"geometry":{"type":"Point","coordinates":[28.482416138613996,1.6751948344629415]}},{"type":"Feature","properties":{"title":"Kinshasa field data entry test VORONOI","id":2700,"area":133.89260629889745,"year":"2017","lastUpdated":"2017-05-24T08:58:02.021350","changesets":344,"mappers":2,"roads":1.40500077727434,"buildings":190,"edits":583,"latest":"2017-04-20T11:31:51.000Z"},"geometry":{"type":"Point","coordinates":[15.39942816735978,-4.416942874737792]}},{"type":"Feature","properties":{"title":"Missing Maps: Sleeping Sickness in Maniema DR Congo - Samba","id":4472,"area":7333.222635221938,"year":"2018","lastUpdated":"2018-05-30T17:28:45.492805","changesets":0,"mappers":0,"roads":0,"buildings":0,"edits":0,"latest":null},"geometry":{"type":"Point","coordinates":[26.50016403861325,-4.518216616772377]}},{"type":"Feature","properties":{"title":"Missing Maps: Sleeping Sickness in Maniema DR Congo - Kibombo","id":3288,"area":12606.952295364996,"year":"2018","lastUpdated":"2018-06-01T21:09:01.915591","changesets":524,"mappers":96,"roads":1390.07622955357,"buildings":1883,"edits":5082,"latest":"2018-06-10T07:15:38.000Z"},"geometry":{"type":"Point","coordinates":[25.431489186575085,-4.219075239036144]}},{"type":"Feature","properties":{"title":"DRC Road network: Equateur (main roads based on CI/OR data)","id":4530,"area":49783.31145279449,"year":"2018","lastUpdated":"2018-06-03T22:10:48.283533","changesets":0,"mappers":0,"roads":0,"buildings":0,"edits":0,"latest":null},"geometry":{"type":"Point","coordinates":[20.558732217941056,1.659996162720795]}}],"Indonesia":[{"type":"Feature","properties":{"title":"Missing Maps: Tembalang Sub Districts #PDC Semarang","id":4058,"area":40.54145098859969,"year":"2018","lastUpdated":"2018-06-04T04:07:31.075273","changesets":475,"mappers":55,"roads":241.368060404033,"buildings":42224,"edits":45038,"latest":"2018-06-08T09:42:42.000Z"},"geometry":{"type":"Point","coordinates":[110.46827357314604,-7.0502292738300385]}},{"type":"Feature","properties":{"title":"Missing Maps: Ngaliyan Sub Districts #PDC Semarang","id":4051,"area":44.8476968659584,"year":"2018","lastUpdated":"2018-06-04T04:07:10.684132","changesets":171,"mappers":7,"roads":43.0789389952434,"buildings":20270,"edits":20865,"latest":"2018-06-09T09:18:53.000Z"},"geometry":{"type":"Point","coordinates":[110.3218925230059,-6.999948654879286]}},{"type":"Feature","properties":{"title":"Missing Maps: Semarang Selatan Sub Districts #PDC Semarang","id":4054,"area":6.216206220761751,"year":"2018","lastUpdated":"2018-04-05T09:09:22.947061","changesets":306,"mappers":4,"roads":104.549294432283,"buildings":7264,"edits":9603,"latest":"2018-06-06T04:43:55.000Z"},"geometry":{"type":"Point","coordinates":[110.42482039142376,-6.997570745448896]}},{"type":"Feature","properties":{"title":"Missing Maps: Semarang Barat Sub Districts #PDC Semarang","id":4053,"area":22.83940614309307,"year":"2018","lastUpdated":"2018-05-24T09:36:11.771244","changesets":376,"mappers":3,"roads":63.3868963315532,"buildings":6112,"edits":7209,"latest":"2018-06-07T09:30:07.000Z"},"geometry":{"type":"Point","coordinates":[110.38159997378555,-6.981158175453452]}},{"type":"Feature","properties":{"title":"Missing Maps: Semarang Utara Sub Districts #PDC Semarang","id":4057,"area":11.395719492311404,"year":"2018","lastUpdated":"2018-03-21T06:46:24.027941","changesets":203,"mappers":6,"roads":47.7860980701216,"buildings":3916,"edits":4524,"latest":"2018-03-21T09:32:55.000Z"},"geometry":{"type":"Point","coordinates":[110.42189014231293,-6.952410328346385]}},{"type":"Feature","properties":{"title":"Missing Maps: Gajah Mungkur Sub Districts #PDC Semarang","id":4046,"area":9.7825467368316,"year":"2018","lastUpdated":"2018-03-01T03:20:46.849120","changesets":105,"mappers":3,"roads":24.6155056105561,"buildings":5972,"edits":7074,"latest":"2018-03-01T03:15:24.000Z"},"geometry":{"type":"Point","coordinates":[110.40541227519552,-7.010449927251178]}},{"type":"Feature","properties":{"title":"Missing Maps: Genuk Sub Districts #PDC Semarang","id":4048,"area":26.89138122809543,"year":"2018","lastUpdated":"2018-05-28T06:47:33.613886","changesets":311,"mappers":17,"roads":211.075228629506,"buildings":29970,"edits":32501,"latest":"2018-06-08T08:31:32.000Z"},"geometry":{"type":"Point","coordinates":[110.47950721245812,-6.962021972866799]}},{"type":"Feature","properties":{"title":"Missing Maps: Pedurungan Sub Districts #PDC Semarang","id":4052,"area":22.337854701407565,"year":"2018","lastUpdated":"2018-06-04T03:25:12.544460","changesets":394,"mappers":31,"roads":46.128957796024,"buildings":45992,"edits":47093,"latest":"2018-06-08T09:05:05.000Z"},"geometry":{"type":"Point","coordinates":[110.47735180032089,-7.013569200550371]}},{"type":"Feature","properties":{"title":"Missing Maps: Candisari Sub Districts #PDC Semarang","id":4045,"area":6.584154314154103,"year":"2018","lastUpdated":"2018-04-04T04:52:34.648137","changesets":215,"mappers":3,"roads":50.7807879336627,"buildings":5289,"edits":6479,"latest":"2018-04-06T08:22:51.000Z"},"geometry":{"type":"Point","coordinates":[110.42733293227269,-7.012433435353471]}},{"type":"Feature","properties":{"title":"Missing Maps: Semarang Timur Sub Districts #PDC Semarang","id":4055,"area":5.66841480349367,"year":"2018","lastUpdated":"2018-04-18T21:13:05.916604","changesets":192,"mappers":3,"roads":33.1444836083786,"buildings":6084,"edits":6657,"latest":"2018-03-21T04:02:43.000Z"},"geometry":{"type":"Point","coordinates":[110.43868322335223,-6.978062177513326]}},{"type":"Feature","properties":{"title":"Missing Maps: Gayamsari Sub Districts #PDC Semarang","id":4047,"area":6.330304124274967,"year":"2018","lastUpdated":"2018-05-29T08:37:03.473826","changesets":235,"mappers":4,"roads":19.1323572715271,"buildings":6573,"edits":7030,"latest":"2018-06-14T09:04:51.000Z"},"geometry":{"type":"Point","coordinates":[110.44484753630528,-6.981306206750869]}},{"type":"Feature","properties":{"title":"Missing Maps: Banyumanik Sub Districts #PDC Semarang","id":4043,"area":31.263404954853762,"year":"2018","lastUpdated":"2018-06-04T03:17:12.353907","changesets":437,"mappers":12,"roads":283.136683420603,"buildings":27655,"edits":32735,"latest":"2018-06-08T07:28:44.000Z"},"geometry":{"type":"Point","coordinates":[110.41843549074818,-7.071346815035978]}},{"type":"Feature","properties":{"title":"Missing Maps: Gunung Pati Sub Districts #PDC Semarang","id":4049,"area":60.18197606655719,"year":"2018","lastUpdated":"2018-05-28T07:37:08.697102","changesets":275,"mappers":18,"roads":173.113196746159,"buildings":28301,"edits":29715,"latest":"2018-06-08T09:21:21.000Z"},"geometry":{"type":"Point","coordinates":[110.37206963878795,-7.068530346689254]}},{"type":"Feature","properties":{"title":"Missing Maps: Tugu Sub Districts #PDC Semarang","id":4059,"area":30.007635401369544,"year":"2018","lastUpdated":"2018-06-01T03:08:58.439161","changesets":128,"mappers":22,"roads":33.6696480997194,"buildings":7129,"edits":7590,"latest":"2018-06-08T08:38:42.000Z"},"geometry":{"type":"Point","coordinates":[110.32800888807617,-6.962720276824648]}},{"type":"Feature","properties":{"title":"Missing Maps: Mijen Sub Districts #PDC Semarang","id":4050,"area":58.38424258359907,"year":"2018","lastUpdated":"2018-06-04T03:54:44.704676","changesets":427,"mappers":16,"roads":195.770078577457,"buildings":35905,"edits":39051,"latest":"2018-06-08T09:44:55.000Z"},"geometry":{"type":"Point","coordinates":[110.31919823752393,-7.056211126134134]}},{"type":"Feature","properties":{"title":"Missing Maps: Semarang Tengah Sub Districts #PDC Semarang","id":4056,"area":5.39883144937884,"year":"2018","lastUpdated":"2018-05-24T05:59:32.802989","changesets":42,"mappers":3,"roads":1.56794116826866,"buildings":537,"edits":757,"latest":"2018-05-24T05:57:56.000Z"},"geometry":{"type":"Point","coordinates":[110.41925996194038,-6.980409007902033]}},{"type":"Feature","properties":{"title":"Missing Maps: Kramat Jati Sub Districs #PDCJakarta","id":2686,"area":13.129244982799834,"year":"2017","lastUpdated":"2017-07-24T08:51:25.120255","changesets":567,"mappers":19,"roads":285.753576206208,"buildings":102534,"edits":113731,"latest":"2017-08-18T10:11:25.000Z"},"geometry":{"type":"Point","coordinates":[106.8640847348396,-6.279779783507652]}},{"type":"Feature","properties":{"title":"Missing Maps: Penjaringan Sub Districs #PDC Jakarta","id":2486,"area":35.136973393611804,"year":"2017","lastUpdated":"2017-12-04T16:29:51.924199","changesets":226,"mappers":48,"roads":5.15657196033728,"buildings":2162,"edits":2753,"latest":"2018-03-06T14:48:38.000Z"},"geometry":{"type":"Point","coordinates":[106.77073897084878,-6.114211098892986]}},{"type":"Feature","properties":{"title":"Mapping Activity in Nagekeo District, NTT","id":1032,"area":1450.2407534924623,"year":"2015","lastUpdated":"2015-06-25T06:09:07.912226","changesets":0,"mappers":0,"roads":0,"buildings":0,"edits":0,"latest":null},"geometry":{"type":"Point","coordinates":[121.25128317991862,-8.73416579624656]}},{"type":"Feature","properties":{"title":"Data Preparedness Activity in Kabupaten Situbondo, East Java, Indonesia","id":896,"area":1673.1534225044552,"year":"2017","lastUpdated":"2017-08-23T06:21:39.183328","changesets":40,"mappers":6,"roads":21.5789966285295,"buildings":3969,"edits":4099,"latest":"2017-08-23T06:11:46.000Z"},"geometry":{"type":"Point","coordinates":[113.97402735980778,-7.787348940232604]}},{"type":"Feature","properties":{"title":"Exposure Mapping in Lembata District, NTT","id":1149,"area":1267.3428895525565,"year":"2017","lastUpdated":"2017-11-30T20:46:13.768420","changesets":560,"mappers":14,"roads":478.898477952848,"buildings":35341,"edits":38868,"latest":"2018-03-03T19:23:11.000Z"},"geometry":{"type":"Point","coordinates":[123.5224915141611,-8.36570330756384]}},{"type":"Feature","properties":{"title":"Sentinel Asia Mini-Project: Tarogong, Garut, Indonesia","id":1378,"area":0.6008014497431968,"year":"2017","lastUpdated":"2017-11-29T19:42:32.121650","changesets":41,"mappers":9,"roads":26.8721401721233,"buildings":615,"edits":812,"latest":"2018-01-20T04:30:59.000Z"},"geometry":{"type":"Point","coordinates":[107.87681363157894,-7.194415578947369]}},{"type":"Feature","properties":{"title":"Slamet Volcano (Level 3 Alert) - Data Preparedness for Slamet Volcano","id":657,"area":207.68726125337642,"year":"2017","lastUpdated":"2017-09-27T08:46:50.350017","changesets":67,"mappers":9,"roads":21.3452473119089,"buildings":140,"edits":223,"latest":"2017-09-16T03:24:56.000Z"},"geometry":{"type":"Point","coordinates":[109.27358150023801,-7.2688629599229255]}},{"type":"Feature","properties":{"title":"SA Mini-Project","id":646,"area":7.43912469192682,"year":"2016","lastUpdated":"2016-10-06T05:48:08.036263","changesets":181,"mappers":14,"roads":140.074893209577,"buildings":7059,"edits":7513,"latest":"2018-04-29T08:34:04.000Z"},"geometry":{"type":"Point","coordinates":[124.85313279288144,1.4895341125474886]}},{"type":"Feature","properties":{"title":"Bukittinggi","id":561,"area":22.79253327213511,"year":"2018","lastUpdated":"2018-05-24T04:21:21.478995","changesets":144,"mappers":15,"roads":2.5745083230407,"buildings":2871,"edits":2902,"latest":"2018-05-24T05:43:54.000Z"},"geometry":{"type":"Point","coordinates":[100.36787174500279,-0.2991184507048943]}},{"type":"Feature","properties":{"title":"Latihan Kabupaten Buton Utara","id":258,"area":14.951899744441585,"year":"2016","lastUpdated":"2016-04-26T17:26:57.318330","changesets":26,"mappers":20,"roads":2.93991534674924,"buildings":0,"edits":46,"latest":"2017-09-07T14:41:09.000Z"},"geometry":{"type":"Point","coordinates":[122.98526415412888,-4.772875248184541]}},{"type":"Feature","properties":{"title":"Indonesian Red Cross Flood Risk Mapping (Bidara Cina)","id":577,"area":3.31536323642304,"year":"2014","lastUpdated":"2014-11-25T04:22:35.815646","changesets":143,"mappers":18,"roads":206.053469817669,"buildings":2548,"edits":3560,"latest":"2018-03-16T14:57:09.000Z"},"geometry":{"type":"Point","coordinates":[106.86719849573021,-6.234907142441561]}},{"type":"Feature","properties":{"title":"Let's fix Makassar!","id":160,"area":78.44017500255143,"year":"2014","lastUpdated":"2014-09-16T03:22:21.096065","changesets":264,"mappers":4,"roads":1.41987988599116,"buildings":188,"edits":443,"latest":"2016-03-25T08:46:55.000Z"},"geometry":{"type":"Point","coordinates":[119.42298887497651,-5.155344160142781]}},{"type":"Feature","properties":{"title":"Training Institut Teknologi Medan","id":563,"area":112.12145232801778,"year":"2017","lastUpdated":"2017-02-13T02:53:38.194472","changesets":1768,"mappers":20,"roads":1583.15524998772,"buildings":256653,"edits":266599,"latest":"2018-05-02T07:56:02.000Z"},"geometry":{"type":"Point","coordinates":[98.67610930021645,3.5706880135207824]}},{"type":"Feature","properties":{"title":"Scan for buildings not digitized - Aceh","id":301,"area":3375.758806919696,"year":"2016","lastUpdated":"2016-11-06T07:40:05.589909","changesets":36,"mappers":11,"roads":0,"buildings":61,"edits":62,"latest":"2016-11-10T08:59:19.000Z"},"geometry":{"type":"Point","coordinates":[96.70882087453181,4.722070342013595]}},{"type":"Feature","properties":{"title":"Latihan Digitasi Kabupaten Bantaeng","id":257,"area":344.63955532746286,"year":"2017","lastUpdated":"2017-07-28T15:48:12.414454","changesets":173,"mappers":22,"roads":79.5374852011001,"buildings":330,"edits":1285,"latest":"2017-07-28T15:45:56.000Z"},"geometry":{"type":"Point","coordinates":[119.89062603564251,-5.556373098324156]}},{"type":"Feature","properties":{"title":"Mapping Bengkulu","id":305,"area":10.304714027034251,"year":"2016","lastUpdated":"2016-06-15T11:24:58.157319","changesets":0,"mappers":0,"roads":0,"buildings":0,"edits":0,"latest":null},"geometry":{"type":"Point","coordinates":[102.26665590767763,-3.792052116710844]}},{"type":"Feature","properties":{"title":"Aceh Project Area 1","id":295,"area":9.138886115765386,"year":"2014","lastUpdated":"2014-02-10T00:13:55.590445","changesets":0,"mappers":0,"roads":0,"buildings":0,"edits":0,"latest":null},"geometry":{"type":"Point","coordinates":[96.75236462199615,4.720937317109335]}},{"type":"Feature","properties":{"title":"Latihan Digitasi Gowa","id":271,"area":281.11005048623855,"year":"2014","lastUpdated":"2014-06-19T04:50:20.344888","changesets":2,"mappers":1,"roads":1.43564638457318,"buildings":0,"edits":6,"latest":"2014-12-16T13:49:24.000Z"},"geometry":{"type":"Point","coordinates":[119.41915510421575,-5.301210720840578]}},{"type":"Feature","properties":{"title":"Aktivitas Pengumpulan Data di Kabupaten Timor Tengah Utara (TTU)","id":1031,"area":2631.88847539912,"year":"2015","lastUpdated":"2015-06-15T06:35:31.269787","changesets":9,"mappers":2,"roads":1.51273446172416,"buildings":70,"edits":150,"latest":"2015-05-11T10:23:20.000Z"},"geometry":{"type":"Point","coordinates":[124.5221661307698,-9.397753251018983]}},{"type":"Feature","properties":{"title":"Aktivitas Pengumpulan Data di DAS Jeneberang","id":1011,"area":2353.106322075065,"year":"2015","lastUpdated":"2015-08-12T05:03:07.408034","changesets":83,"mappers":3,"roads":18.9318585168149,"buildings":1318,"edits":2128,"latest":"2015-08-12T05:02:39.000Z"},"geometry":{"type":"Point","coordinates":[119.64719559385553,-5.252323773489938]}},{"type":"Feature","properties":{"title":"Indonesian Red Cross Flood Risk Mapping (Kedoya Utara & Kedoya Selatan)","id":576,"area":9.572161893358784,"year":"2017","lastUpdated":"2017-02-24T07:44:22.407544","changesets":59,"mappers":2,"roads":22.6293584517575,"buildings":1959,"edits":2049,"latest":"2017-02-24T07:43:42.000Z"},"geometry":{"type":"Point","coordinates":[106.75943509387957,-6.167587868325415]}},{"type":"Feature","properties":{"title":"Latihan Digitasi Kepulauan Selayar","id":269,"area":804.146953222781,"year":"2017","lastUpdated":"2017-12-04T13:36:57.815927","changesets":7,"mappers":3,"roads":1.8928296285719,"buildings":6,"edits":33,"latest":"2017-12-04T13:38:20.000Z"},"geometry":{"type":"Point","coordinates":[120.4834213089281,-6.14356511689974]}},{"type":"Feature","properties":{"title":"North Padang","id":96,"area":24.10763674645945,"year":"2016","lastUpdated":"2016-09-22T05:02:17.536703","changesets":637,"mappers":12,"roads":5.65796193987904,"buildings":234,"edits":896,"latest":"2016-04-24T09:08:39.000Z"},"geometry":{"type":"Point","coordinates":[100.3477992871682,-0.8759023199375913]}},{"type":"Feature","properties":{"title":"Aceh Project Area 3","id":298,"area":6.038222593149481,"year":"2014","lastUpdated":"2014-02-10T00:13:56.577213","changesets":220,"mappers":15,"roads":180.530277037065,"buildings":1451,"edits":3788,"latest":"2017-04-03T22:58:32.000Z"},"geometry":{"type":"Point","coordinates":[96.7408725058942,4.679586947311554]}},{"type":"Feature","properties":{"title":"Sidoarjo mud flow or Lapindo mud","id":105,"area":35.26109381384408,"year":"2017","lastUpdated":"2017-08-22T13:29:52.331979","changesets":15,"mappers":2,"roads":46.2228096467824,"buildings":105,"edits":330,"latest":"2018-06-07T16:27:51.000Z"},"geometry":{"type":"Point","coordinates":[112.70739373580666,-7.531908743544046]}},{"type":"Feature","properties":{"title":"Indonesian Fires 2015 | South Kalimantan - Bahaur","id":1339,"area":5440.689877501984,"year":"2017","lastUpdated":"2017-12-18T16:27:17.374621","changesets":476,"mappers":59,"roads":244.667077033554,"buildings":1578,"edits":2529,"latest":"2018-03-01T22:41:21.000Z"},"geometry":{"type":"Point","coordinates":[113.93609617099693,-3.045595136632177]}},{"type":"Feature","properties":{"title":"Data Preparedness Activity in Kabupaten Malang, East Java, Indonesia","id":877,"area":3608.974911525084,"year":"2017","lastUpdated":"2017-09-13T09:40:09.513007","changesets":323,"mappers":29,"roads":96.0386433508552,"buildings":4919,"edits":6130,"latest":"2017-03-08T12:35:23.000Z"},"geometry":{"type":"Point","coordinates":[112.62696664877575,-8.1452933519069]}},{"type":"Feature","properties":{"title":"Badan Geologi - Buildings and Roads Mapping Around Bromo","id":769,"area":620.501398306766,"year":"2017","lastUpdated":"2017-11-20T22:03:45.416177","changesets":88,"mappers":14,"roads":52.5930484749957,"buildings":1074,"edits":1455,"latest":"2017-11-24T03:16:54.000Z"},"geometry":{"type":"Point","coordinates":[112.99045894456948,-7.897870851576267]}},{"type":"Feature","properties":{"title":"Data Preparedness Activity in Kabupaten Sampang, East Java, Indonesia","id":864,"area":1233.9947430769478,"year":"2017","lastUpdated":"2017-08-07T01:01:31.179379","changesets":50,"mappers":17,"roads":21.219693482163,"buildings":1416,"edits":1569,"latest":"2018-01-04T16:33:37.000Z"},"geometry":{"type":"Point","coordinates":[113.23486225654037,-7.074234002607051]}},{"type":"Feature","properties":{"title":"Aktivitas Pengumpulan Data di sekitar Danau Tempe dan Ancaman Gempa Bumi ","id":1012,"area":8700.19532526336,"year":"2015","lastUpdated":"2015-07-15T09:00:26.145126","changesets":83,"mappers":5,"roads":149.429711120035,"buildings":6158,"edits":7632,"latest":"2015-07-15T09:20:41.000Z"},"geometry":{"type":"Point","coordinates":[119.976822781247,-4.19899635363682]}},{"type":"Feature","properties":{"title":"Pesisir Selatan - Landuse and infrastructure digitation ","id":707,"area":1043.4121305079773,"year":"2017","lastUpdated":"2017-09-14T06:46:26.295160","changesets":39,"mappers":10,"roads":17.7384625381326,"buildings":129,"edits":201,"latest":"2017-12-21T06:19:14.000Z"},"geometry":{"type":"Point","coordinates":[100.2155194963728,-0.5975655163029528]}},{"type":"Feature","properties":{"title":"Help digitize buildings & roads for better emergency response in Mt. Slamet ","id":454,"area":6.940715703178464,"year":"2017","lastUpdated":"2017-04-20T08:27:25.433288","changesets":0,"mappers":0,"roads":0,"buildings":0,"edits":0,"latest":null},"geometry":{"type":"Point","coordinates":[109.2160835114136,-7.243312629003557]}},{"type":"Feature","properties":{"title":"Kota Depok","id":628,"area":233.66077112635446,"year":"2017","lastUpdated":"2017-09-19T14:09:26.418678","changesets":119,"mappers":36,"roads":10.1458824440017,"buildings":9609,"edits":9802,"latest":"2018-04-25T10:00:53.000Z"},"geometry":{"type":"Point","coordinates":[106.83125982707669,-6.37275016037116]}},{"type":"Feature","properties":{"title":"Indonesia OSM Community Mapathon - Pontianak, West Kalimantan","id":849,"area":299.0802254542062,"year":"2018","lastUpdated":"2018-05-24T05:14:56.113017","changesets":16941512,"mappers":778190,"roads":11029202.6294279,"buildings":272493430,"edits":351602460,"latest":"2018-06-17T11:30:54.000Z"},"geometry":{"type":"Point","coordinates":[109.3354644693899,-0.06771033471326508]}},{"type":"Feature","properties":{"title":"Missing Maps: Bogor, Indonesia #1","id":2649,"area":10.061609702608509,"year":"2017","lastUpdated":"2017-10-19T12:25:02.122938","changesets":0,"mappers":0,"roads":0,"buildings":0,"edits":0,"latest":null},"geometry":{"type":"Point","coordinates":[106.78208924889816,-6.57596508634987]}}],"Uganda":[{"type":"Feature","properties":{"title":"Uganda Crowd-sourcing Non-Camp Refugee Data, Madi-Okollo,Baito Parish","id":4121,"area":115.57634607861536,"year":"2018","lastUpdated":"2018-03-23T21:22:09.463894","changesets":338,"mappers":40,"roads":129.59810557319,"buildings":2411,"edits":2968,"latest":"2018-03-23T21:21:59.000Z"},"geometry":{"type":"Point","coordinates":[31.250225613503517,2.6794262681347027]}},{"type":"Feature","properties":{"title":"Salesforce, Uganda Crowd-sourcing Non-Camp Refugee Data (Urban Mapping), Kansanga, Kibuli, Namuwongo","id":4133,"area":5.519847154808274,"year":"2018","lastUpdated":"2018-03-23T08:13:18.528307","changesets":1289,"mappers":114,"roads":1.69459137017284,"buildings":6253,"edits":6365,"latest":"2018-03-14T19:38:14.000Z"},"geometry":{"type":"Point","coordinates":[32.60050128803857,0.30110921276286007]}},{"type":"Feature","properties":{"title":"Uganda Crowd-sourcing Non-Camp Refugee Data, Madi-Okollo,Onyomu Parish","id":4123,"area":121.54325315707095,"year":"2018","lastUpdated":"2018-04-12T20:25:07.417654","changesets":302,"mappers":39,"roads":68.1042178765754,"buildings":2208,"edits":2478,"latest":"2018-03-26T19:23:42.000Z"},"geometry":{"type":"Point","coordinates":[31.195643504061078,2.760059244121826]}},{"type":"Feature","properties":{"title":"Uganda Crowd-sourcing Non-Camp Refugee Data, Madi-Okollo, Ajibu Parish","id":4120,"area":74.10769411316731,"year":"2018","lastUpdated":"2018-03-22T18:38:55.236817","changesets":731,"mappers":90,"roads":578.998482436729,"buildings":5183,"edits":8489,"latest":"2018-03-22T18:40:58.000Z"},"geometry":{"type":"Point","coordinates":[31.10667920606198,2.7269113577330213]}},{"type":"Feature","properties":{"title":"PEPFAR Uganda: Rakai","id":3205,"area":1538.4469936367382,"year":"2018","lastUpdated":"2018-05-30T21:39:41.663975","changesets":3164,"mappers":341,"roads":4863.28248420532,"buildings":38717,"edits":88082,"latest":"2018-06-16T07:25:06.000Z"},"geometry":{"type":"Point","coordinates":[31.448796675463146,-0.6710344974046747]}},{"type":"Feature","properties":{"title":"Maji Refugee Settlements, Adjumani Area","id":3187,"area":13.620559082078705,"year":"2017","lastUpdated":"2017-09-11T11:18:07.032226","changesets":492,"mappers":43,"roads":135.22450885648,"buildings":8791,"edits":12095,"latest":"2017-09-25T08:43:59.000Z"},"geometry":{"type":"Point","coordinates":[31.656158617762284,3.204269803158863]}},{"type":"Feature","properties":{"title":"Salesforce, Uganda Crowd-sourcing Non-Camp Refugee Data (Urban Mapping), Bakuli, Lubiri, Old Kampala, Kabuusu","id":4132,"area":10.230783549660723,"year":"2018","lastUpdated":"2018-03-23T08:13:09.103526","changesets":755,"mappers":99,"roads":27.1667762988123,"buildings":4245,"edits":4480,"latest":"2018-03-15T11:13:32.000Z"},"geometry":{"type":"Point","coordinates":[32.56214680347001,0.3072264294271423]}},{"type":"Feature","properties":{"title":"Adjumani Town","id":3193,"area":12.19607221223854,"year":"2018","lastUpdated":"2018-03-04T20:23:05.222565","changesets":660,"mappers":41,"roads":139.726730765495,"buildings":12885,"edits":15350,"latest":"2017-09-24T10:56:17.000Z"},"geometry":{"type":"Point","coordinates":[31.787351208518825,3.368821069260979]}},{"type":"Feature","properties":{"title":"PEPFAR Uganda: Kalangala","id":2269,"area":2542.196115017722,"year":"2018","lastUpdated":"2018-05-19T19:48:02.892438","changesets":797,"mappers":59,"roads":966.35338646559,"buildings":18488,"edits":24861,"latest":"2018-05-19T20:12:56.000Z"},"geometry":{"type":"Point","coordinates":[32.24791390555245,-0.356560572172055]}},{"type":"Feature","properties":{"title":"PEPFAR Uganda: Rakai Coast, Kasensero Landing Site","id":2290,"area":390.7426047377783,"year":"2018","lastUpdated":"2018-02-21T23:52:45.656780","changesets":487,"mappers":33,"roads":447.456340402132,"buildings":9032,"edits":12430,"latest":"2018-02-21T23:52:26.000Z"},"geometry":{"type":"Point","coordinates":[31.789911428571425,-0.7308521428571428]}},{"type":"Feature","properties":{"title":"Peace Corps Uganda - Masaka","id":1196,"area":43.130343075892235,"year":"2018","lastUpdated":"2018-04-17T21:06:34.717732","changesets":741,"mappers":102,"roads":231.711531316098,"buildings":15963,"edits":18969,"latest":"2018-04-17T22:43:56.000Z"},"geometry":{"type":"Point","coordinates":[31.744541440691275,-0.3259157183268582]}},{"type":"Feature","properties":{"title":"Peace Corps Uganda - Arua","id":1197,"area":7.649398362963315,"year":"2018","lastUpdated":"2018-01-12T01:22:10.507348","changesets":795,"mappers":45,"roads":86.0095814458602,"buildings":13691,"edits":15829,"latest":"2018-01-12T01:21:21.000Z"},"geometry":{"type":"Point","coordinates":[30.911480096670296,3.0199597258060704]}},{"type":"Feature","properties":{"title":"Salesforce, Uganda Crowd-Sourcing Non-Camp Refugee Data (Urban Mapping) Rubaga Division Part 3 Kampala District","id":4330,"area":13.01779996853652,"year":"2018","lastUpdated":"2018-04-11T11:58:50.107806","changesets":1272,"mappers":120,"roads":16.3060620637681,"buildings":13776,"edits":14085,"latest":"2018-05-18T12:59:22.000Z"},"geometry":{"type":"Point","coordinates":[32.52909745736579,0.2890472003472374]}},{"type":"Feature","properties":{"title":"Uganda Crowd-sourcing Non-Camp Refugee Data, Rwebisengo, Kahondo, Makondo Villages, Ntoroko District Base Mapping","id":4295,"area":162.10041758428503,"year":"2018","lastUpdated":"2018-05-25T05:31:04.061957","changesets":1286,"mappers":54,"roads":10.4920207350625,"buildings":3532,"edits":3557,"latest":"2018-04-04T00:30:34.000Z"},"geometry":{"type":"Point","coordinates":[30.27564502638289,1.0482015863826952]}},{"type":"Feature","properties":{"title":"Uganda CrowdSourcing Non-Refugee Data, Isingiro District","id":4497,"area":1029.2287197351604,"year":"2018","lastUpdated":"2018-05-23T20:34:53.947108","changesets":2552,"mappers":270,"roads":344.47992231982,"buildings":25805,"edits":26685,"latest":"2018-05-24T11:09:35.000Z"},"geometry":{"type":"Point","coordinates":[31.00773680704972,-0.8648341878436095]}},{"type":"Feature","properties":{"title":"Bwaise Tracing","id":99,"area":0.8424582471365009,"year":"2016","lastUpdated":"2016-03-02T12:08:00.918169","changesets":3,"mappers":1,"roads":0.0924258716863386,"buildings":0,"edits":3,"latest":"2014-12-16T08:53:26.000Z"},"geometry":{"type":"Point","coordinates":[32.55938243412958,0.3497321340591482]}},{"type":"Feature","properties":{"title":"Salesforce, Uganda Crowd-Sourcing Non-Camp Refugee Data (Urban Mapping) Rubaga Division Part 1, Kampala District","id":4327,"area":8.40126840870032,"year":"2018","lastUpdated":"2018-05-29T05:30:52.714011","changesets":3087,"mappers":184,"roads":3.01395009336934,"buildings":18490,"edits":18585,"latest":"2018-05-29T05:30:41.000Z"},"geometry":{"type":"Point","coordinates":[32.54524653779347,0.3421427883853258]}},{"type":"Feature","properties":{"title":"Uganda Crowd-Sourcing Non-Camp Refugee Data,Rwanzu, Busanza,Nyamagana,Busengo Villages Kisoro District","id":4297,"area":54.61581088784912,"year":"2018","lastUpdated":"2018-05-23T05:39:56.832232","changesets":1018,"mappers":75,"roads":23.0541164186441,"buildings":7173,"edits":7248,"latest":"2018-05-23T05:38:36.000Z"},"geometry":{"type":"Point","coordinates":[29.617397280324827,-1.2450696703101722]}},{"type":"Feature","properties":{"title":"Salesforce, Uganda Crowd-sourcing Non-Camp Refugee Data (Urban Mapping), Kibuye, Katwe, Makindye","id":4134,"area":5.069268955123824,"year":"2018","lastUpdated":"2018-03-23T08:12:58.345281","changesets":1988,"mappers":175,"roads":10.3876149291967,"buildings":11851,"edits":12260,"latest":"2018-04-23T16:04:58.000Z"},"geometry":{"type":"Point","coordinates":[32.578041636227496,0.29224840556124765]}},{"type":"Feature","properties":{"title":"Salesforce, Uganda Crowd-sourcing Non-Camp Refugee Data (Urban Mapping), Ndeeba, Wankulukuku","id":4135,"area":4.371431618487186,"year":"2018","lastUpdated":"2018-03-27T16:15:22.176595","changesets":1031,"mappers":144,"roads":9.29574392161781,"buildings":10517,"edits":10741,"latest":"2018-04-03T08:49:40.000Z"},"geometry":{"type":"Point","coordinates":[32.55563010348889,0.2863901650888876]}},{"type":"Feature","properties":{"title":"Uganda Crowdsourcing Non-Camp Refugee Data, Ajia,Ocoko, Alivu, Ewa Parihes, Arua Distrct, Salesforce","id":4257,"area":74.78692599447785,"year":"2018","lastUpdated":"2018-05-21T05:08:11.167802","changesets":558,"mappers":46,"roads":526.258847335924,"buildings":6026,"edits":8341,"latest":"2018-05-21T04:58:16.000Z"},"geometry":{"type":"Point","coordinates":[30.991336124509797,2.9676076369790403]}},{"type":"Feature","properties":{"title":"Uganda Open Mapping - Ggaaba Parish, Kampala City","id":4360,"area":6.9888601486311845,"year":"2018","lastUpdated":"2018-04-06T15:02:52.228020","changesets":637,"mappers":69,"roads":14.4832036693082,"buildings":5657,"edits":5981,"latest":"2018-04-11T10:44:28.000Z"},"geometry":{"type":"Point","coordinates":[32.63390846096743,0.26019887977613626]}},{"type":"Feature","properties":{"title":"Uganda Crowd sourcing Non-Camp Refugee Data, Arua, Omugo Imvepi Area","id":4141,"area":163.51668169498143,"year":"2018","lastUpdated":"2018-03-27T16:25:15.601869","changesets":2759,"mappers":187,"roads":137.275119852827,"buildings":14837,"edits":15599,"latest":"2018-05-09T15:55:29.000Z"},"geometry":{"type":"Point","coordinates":[31.2005265528819,3.2133801438054768]}},{"type":"Feature","properties":{"title":"Uganda Crowdsourcing Non-Camp Refugee Data, Paludar, Padwar Villages, Lamwo District","id":4267,"area":64.49965935741052,"year":"2018","lastUpdated":"2018-03-18T22:47:09.770063","changesets":387,"mappers":46,"roads":200.562108394955,"buildings":15053,"edits":15640,"latest":"2018-04-10T03:36:42.000Z"},"geometry":{"type":"Point","coordinates":[32.47096378217274,3.3937796017558117]}},{"type":"Feature","properties":{"title":"Uganda Bureau of Statistics Educational Facilities Buildings and Road Network Mapping","id":3374,"area":243082.79180043133,"year":"2018","lastUpdated":"2018-03-22T12:06:16.506117","changesets":99,"mappers":10,"roads":841.843949803121,"buildings":1392,"edits":2687,"latest":"2018-03-10T16:06:22.000Z"},"geometry":{"type":"Point","coordinates":[31.17184824163389,0.5547776361651102]}},{"type":"Feature","properties":{"title":"MapUganda - Phase 1: Mbale (Pallisa, Kaliro, Kibuku and Budaka)","id":1436,"area":2884.303189069722,"year":"2018","lastUpdated":"2018-01-12T12:29:46.173413","changesets":1016,"mappers":108,"roads":738.351789746933,"buildings":9969,"edits":14499,"latest":"2018-06-12T12:16:12.000Z"},"geometry":{"type":"Point","coordinates":[33.791325042282985,1.121642906759647]}},{"type":"Feature","properties":{"title":"MapUganda - Phase 2: Tororo (Butaleja, Namutumba, Bugiri, Namiyango and Busia)","id":1437,"area":5529.26414171349,"year":"2018","lastUpdated":"2018-05-21T15:50:07.552229","changesets":458,"mappers":95,"roads":798.507032670049,"buildings":7900,"edits":12313,"latest":"2018-05-21T15:30:01.000Z"},"geometry":{"type":"Point","coordinates":[33.95315401570563,0.6248404540072142]}},{"type":"Feature","properties":{"title":"Boroli, Olua, Ayilo Refugee Camps Adjumani Area","id":3169,"area":58.972945959980706,"year":"2018","lastUpdated":"2018-01-09T06:12:06.405415","changesets":579,"mappers":52,"roads":532.999212699442,"buildings":5886,"edits":12023,"latest":"2018-01-09T06:11:28.000Z"},"geometry":{"type":"Point","coordinates":[31.91597197614515,3.297109569335478]}},{"type":"Feature","properties":{"title":"Uganda Bureau Of Statistics Educational Facilities Import","id":1434,"area":176984.6233742301,"year":"2017","lastUpdated":"2017-10-14T04:58:15.546262","changesets":0,"mappers":0,"roads":0,"buildings":0,"edits":0,"latest":null},"geometry":{"type":"Point","coordinates":[32.54942959729942,1.3571209017835755]}},{"type":"Feature","properties":{"title":"Uganda Crowd-sourcing Non-Camp Refugee Data, Offaka, Anyiribu Subcounty, Arua District Base Mapping","id":4314,"area":292.26457151971164,"year":"2018","lastUpdated":"2018-04-03T16:10:44.554351","changesets":1614,"mappers":182,"roads":169.132518589228,"buildings":11036,"edits":12198,"latest":"2018-03-29T15:15:29.000Z"},"geometry":{"type":"Point","coordinates":[31.089419945984925,2.6427265966896725]}}],"Mongolia":[{"type":"Feature","properties":{"title":"Erdenebulgan sum","id":3783,"area":61.75209371627156,"year":"2018","lastUpdated":"2018-05-12T10:03:16.046873","changesets":298,"mappers":31,"roads":71.2443210851076,"buildings":820,"edits":1282,"latest":"2018-05-12T11:52:38.000Z"},"geometry":{"type":"Point","coordinates":[101.47483737653846,47.51158596915389]}},{"type":"Feature","properties":{"title":"Tsetserleg sum","id":3611,"area":2481.406043518446,"year":"2017","lastUpdated":"2017-11-03T10:56:45.281961","changesets":2,"mappers":1,"roads":0,"buildings":14,"edits":14,"latest":"2017-11-06T09:16:39.000Z"},"geometry":{"type":"Point","coordinates":[100.80596861826358,49.0399797360591]}},{"type":"Feature","properties":{"title":"Bulgan sum","id":3622,"area":3259.9412271023048,"year":"2017","lastUpdated":"2017-11-08T03:54:53.820994","changesets":755,"mappers":16,"roads":652.269737190044,"buildings":1730,"edits":2943,"latest":"2017-11-04T08:06:59.000Z"},"geometry":{"type":"Point","coordinates":[101.03539235665707,47.012723943812425]}},{"type":"Feature","properties":{"title":"Ulziit sum","id":3608,"area":1691.2232764727976,"year":"2017","lastUpdated":"2017-12-16T14:55:25.499980","changesets":8,"mappers":2,"roads":28.9655597348063,"buildings":375,"edits":397,"latest":"2017-12-16T16:56:24.000Z"},"geometry":{"type":"Point","coordinates":[102.50110500797966,48.06102034864942]}},{"type":"Feature","properties":{"title":"Tsenkher sum","id":3612,"area":3166.989134861274,"year":"2018","lastUpdated":"2018-05-18T12:21:40.300025","changesets":86,"mappers":10,"roads":212.712567003073,"buildings":421,"edits":632,"latest":"2018-06-08T00:15:17.000Z"},"geometry":{"type":"Point","coordinates":[101.68685399247293,47.168898601818455]}},{"type":"Feature","properties":{"title":"Hashaat sum","id":3617,"area":2589.6325478030785,"year":"2018","lastUpdated":"2018-03-28T21:48:27.461960","changesets":82,"mappers":14,"roads":458.829261849085,"buildings":264,"edits":1123,"latest":"2018-03-28T21:48:02.000Z"},"geometry":{"type":"Point","coordinates":[103.20555800281657,47.43599268738683]}},{"type":"Feature","properties":{"title":"Mapping Ulaanbaatar, Mongolia - Bayanzu'rx and Nalaix Districts","id":2254,"area":1698.1376834942735,"year":"2018","lastUpdated":"2018-04-27T14:18:02.391298","changesets":0,"mappers":0,"roads":0,"buildings":0,"edits":0,"latest":null},"geometry":{"type":"Point","coordinates":[107.4150030446948,47.9413245060865]}},{"type":"Feature","properties":{"title":"Erdenebulgan Soum Center","id":3847,"area":65.67714091334696,"year":"2018","lastUpdated":"2018-05-13T08:46:53.565217","changesets":523,"mappers":50,"roads":108.39722771687,"buildings":1712,"edits":2619,"latest":"2018-05-13T08:45:31.000Z"},"geometry":{"type":"Point","coordinates":[101.4685454682905,47.465522048388706]}},{"type":"Feature","properties":{"title":"Mapping Ulaanbaatar, Mongolia - Su'xbaatar and Chingeltei Districts","id":2022,"area":296.9698603173244,"year":"2018","lastUpdated":"2018-03-17T22:02:23.400060","changesets":0,"mappers":0,"roads":0,"buildings":0,"edits":0,"latest":null},"geometry":{"type":"Point","coordinates":[106.92217922330099,48.03787994660196]}}],"Colombia":[{"type":"Feature","properties":{"title":"Missing Maps - Zipaquira, Colombia","id":3786,"area":10.789092098304573,"year":"2018","lastUpdated":"2018-04-15T00:21:21.901415","changesets":406,"mappers":97,"roads":36.9449687172814,"buildings":6195,"edits":7473,"latest":"2018-05-31T23:34:47.000Z"},"geometry":{"type":"Point","coordinates":[-73.99537652091746,5.022699167137118]}},{"type":"Feature","properties":{"title":"Missing Maps: Tunja, Colombia","id":3976,"area":31.307113482258835,"year":"2018","lastUpdated":"2018-06-01T16:38:16.924310","changesets":2336,"mappers":347,"roads":120.113117369879,"buildings":20657,"edits":23505,"latest":"2018-06-15T20:18:45.000Z"},"geometry":{"type":"Point","coordinates":[-73.35189247154187,5.539283324982605]}},{"type":"Feature","properties":{"title":"Missing Maps: Ibague, Colombia","id":3965,"area":117.23362586407669,"year":"2018","lastUpdated":"2018-05-25T19:06:53.076921","changesets":734,"mappers":154,"roads":30.8027175237124,"buildings":13093,"edits":14625,"latest":"2018-06-15T16:14:16.000Z"},"geometry":{"type":"Point","coordinates":[-75.19818443213875,4.41564719298531]}},{"type":"Feature","properties":{"title":"Missing Maps: Manizales, Colombia","id":3966,"area":72.20940775033188,"year":"2018","lastUpdated":"2018-05-30T13:16:26.890284","changesets":3290,"mappers":266,"roads":253.86752244728,"buildings":42835,"edits":51165,"latest":"2018-06-15T09:34:55.000Z"},"geometry":{"type":"Point","coordinates":[-75.49124155213437,5.056056689553945]}},{"type":"Feature","properties":{"title":"Missing Maps: San Juan de Pasto, Colombia","id":3967,"area":134.61429989136033,"year":"2018","lastUpdated":"2018-05-11T01:55:39.801162","changesets":3251,"mappers":292,"roads":252.506059048519,"buildings":35028,"edits":39239,"latest":"2018-05-07T21:23:10.000Z"},"geometry":{"type":"Point","coordinates":[-77.29604405173711,1.2270909116548077]}},{"type":"Feature","properties":{"title":"Missing Maps: Bucaramanga, Colombia","id":3975,"area":119.77785243564033,"year":"2018","lastUpdated":"2018-05-31T22:15:10.256365","changesets":3108,"mappers":502,"roads":364.971144599295,"buildings":55386,"edits":70258,"latest":"2018-06-14T19:56:38.000Z"},"geometry":{"type":"Point","coordinates":[-73.15325064346113,7.122835518515928]}},{"type":"Feature","properties":{"title":"Mapazonia - Colombia - Western Caquet","id":989,"area":16662.369726235665,"year":"2017","lastUpdated":"2017-10-11T19:21:08.623721","changesets":764,"mappers":55,"roads":492.215020523994,"buildings":1314,"edits":2950,"latest":"2018-03-05T01:14:42.000Z"},"geometry":{"type":"Point","coordinates":[-74.76411753687366,0.3081770364190323]}},{"type":"Feature","properties":{"title":"CARTOCOSTA-URAB // COASTMAP-URAB, Turbo, Colombia (Turbo urban area)","id":3304,"area":25.20888360057874,"year":"2018","lastUpdated":"2018-03-02T13:27:22.208444","changesets":459,"mappers":53,"roads":16.8092113803972,"buildings":10439,"edits":10802,"latest":"2018-03-02T13:27:04.000Z"},"geometry":{"type":"Point","coordinates":[-76.7297885215835,8.09866496358627]}},{"type":"Feature","properties":{"title":"Missing Maps Cha, Colombia","id":3843,"area":80.24575328583315,"year":"2018","lastUpdated":"2018-05-21T14:24:39.547176","changesets":669,"mappers":109,"roads":97.3735764179493,"buildings":33190,"edits":35125,"latest":"2018-05-21T14:21:31.000Z"},"geometry":{"type":"Point","coordinates":[-74.06502720128937,4.872928354104189]}},{"type":"Feature","properties":{"title":"Miramar y Gambia, Buenaventura, Colombia","id":3662,"area":24.425411588105725,"year":"2017","lastUpdated":"2017-10-11T01:59:17.616071","changesets":36,"mappers":5,"roads":2.68141059086121,"buildings":253,"edits":286,"latest":"2017-10-11T02:16:55.000Z"},"geometry":{"type":"Point","coordinates":[-77.03279165683355,3.904580042454559]}},{"type":"Feature","properties":{"title":"San Bernardo del Viento (Playas Del Vie), Cordoba, Colombia","id":3669,"area":17.787992576833208,"year":"2017","lastUpdated":"2017-10-07T20:47:49.206215","changesets":234,"mappers":1,"roads":27.7845701551794,"buildings":2475,"edits":2991,"latest":"2017-10-07T20:47:27.000Z"},"geometry":{"type":"Point","coordinates":[-76.06482267379761,9.328583987041181]}},{"type":"Feature","properties":{"title":"Missing Maps Facatativa, Colombia","id":3785,"area":6.581623006993907,"year":"2018","lastUpdated":"2018-03-14T20:40:58.322426","changesets":607,"mappers":78,"roads":27.7615775922192,"buildings":10215,"edits":12432,"latest":"2018-05-11T20:54:59.000Z"},"geometry":{"type":"Point","coordinates":[-74.35483928029993,4.8191626811892165]}},{"type":"Feature","properties":{"title":"Missing Maps Usme, Bogot Colombia","id":3842,"area":16.67392211316868,"year":"2018","lastUpdated":"2018-03-22T15:44:41.568826","changesets":387,"mappers":95,"roads":15.3616689768301,"buildings":3971,"edits":5624,"latest":"2018-04-12T18:05:31.000Z"},"geometry":{"type":"Point","coordinates":[-74.108817599051,4.523024592885244]}},{"type":"Feature","properties":{"title":"Camarones, La Guajira, Colombia","id":3663,"area":116.46137846578915,"year":"2018","lastUpdated":"2018-03-05T22:20:06.489833","changesets":115,"mappers":4,"roads":13.9399434217693,"buildings":1657,"edits":1818,"latest":"2018-03-05T23:24:20.000Z"},"geometry":{"type":"Point","coordinates":[-73.13468169956465,11.390174652872478]}},{"type":"Feature","properties":{"title":"Mt. Galeras, Colombia - Northern Cities at Risk","id":2783,"area":7.072281312205303,"year":"2018","lastUpdated":"2018-02-18T19:31:14.669705","changesets":244,"mappers":40,"roads":87.4910902112722,"buildings":2413,"edits":3234,"latest":"2018-03-05T23:31:29.000Z"},"geometry":{"type":"Point","coordinates":[-77.4152804023831,1.2881687207079593]}},{"type":"Feature","properties":{"title":"MAPCOAST-URABA, Turbo, Colombia (Eastern Side)","id":3302,"area":205.92340955355735,"year":"2017","lastUpdated":"2017-10-06T16:38:20.114660","changesets":469,"mappers":27,"roads":197.732662156157,"buildings":9154,"edits":10966,"latest":"2017-08-01T02:28:36.000Z"},"geometry":{"type":"Point","coordinates":[-76.73628486701675,8.078666963856094]}},{"type":"Feature","properties":{"title":"Missing Maps: Ibague, Colombia Field Mapping","id":4514,"area":0.6151298721887227,"year":"2018","lastUpdated":"2018-05-11T15:21:41.168633","changesets":72,"mappers":14,"roads":1.51231289651382,"buildings":559,"edits":638,"latest":"2018-05-11T19:26:07.000Z"},"geometry":{"type":"Point","coordinates":[-75.24442863464355,4.44838671944408]}}],"Palestine":[{"type":"Feature","properties":{"title":"Palestine: Mak-hul Village","id":3768,"area":0.7027290171926311,"year":"2018","lastUpdated":"2018-05-19T17:47:35.736033","changesets":8,"mappers":3,"roads":0.00966750515748413,"buildings":9,"edits":11,"latest":"2017-11-14T14:54:49.000Z"},"geometry":{"type":"Point","coordinates":[35.5022,32.26776]}},