{"totalEdits":44699791,"totalBuildings":37241575,"totalRoads":937550.408826812,"mappersOnline":31,"totalTasksMapped":1774374,"totalMappers":152521,"totalProjects":4297,"Philippines":[{"type":"Feature","properties":{"id":5465,"title":"Samar North, Philippines - Mapping for Food Security","status":"PUBLISHED","created":"2018","lastUpdated":"2018","lastActive":"no","area":3415.086756157814,"changesets":226,"mappers":60,"roads":51.2423275774895,"buildings":5597,"edits":6025,"latest":"2018-12-24T16:02:27.000Z"},"geometry":{"type":"Point","coordinates":[124.789879432047,12.4134374698783]}},{"type":"Feature","properties":{"id":5435,"title":"Mindanao Region, Misamis Oriental (northern), Philippines - Mapping for Food Security","status":"PUBLISHED","created":"2018","lastUpdated":"2018","lastActive":"no","area":2072.929989519479,"changesets":339,"mappers":39,"roads":179.949825684978,"buildings":7380,"edits":7898,"latest":"2018-11-29T20:40:41.000Z"},"geometry":{"type":"Point","coordinates":[124.994799793291,8.76680642717642]}},{"type":"Feature","properties":{"id":5482,"title":"Samar Western, Philippines - Mapping for Food Security","status":"PUBLISHED","created":"2018","lastUpdated":"2018","lastActive":"no","area":5475.406235248917,"changesets":253,"mappers":54,"roads":39.9657951245532,"buildings":2105,"edits":2340,"latest":"2018-12-16T20:16:36.000Z"},"geometry":{"type":"Point","coordinates":[124.94054745821,11.8428113562351]}},{"type":"Feature","properties":{"id":4475,"title":"CRS-UP NOAH Building Footprints Mapping - Malabon City","status":"PUBLISHED","created":"2018","lastUpdated":"2018","lastActive":"no","area":15.859280000650813,"changesets":415,"mappers":6,"roads":0.382192497128104,"buildings":12542,"edits":12650,"latest":"2018-07-23T18:12:59.000Z"},"geometry":{"type":"Point","coordinates":[120.958556364948,14.6741194997004]}},{"type":"Feature","properties":{"id":5569,"title":"Post-Disaster Mapping in Brgy Uling and Brgy. Pangdan, Naga City, Cebu","status":"PUBLISHED","created":"2018","lastUpdated":"2018","lastActive":"no","area":15.048594361484898,"changesets":191,"mappers":17,"roads":1.59122621032686,"buildings":2435,"edits":2450,"latest":"2018-12-05T04:51:57.000Z"},"geometry":{"type":"Point","coordinates":[123.721821915621,10.267601668473]}},{"type":"Feature","properties":{"id":5462,"title":"Benguet, Philippines - Mapping for Food Security","status":"PUBLISHED","created":"2018","lastUpdated":"2018","lastActive":"no","area":2654.203403404713,"changesets":69,"mappers":18,"roads":5.92867643282129,"buildings":743,"edits":784,"latest":"2018-12-04T13:39:23.000Z"},"geometry":{"type":"Point","coordinates":[120.704193530323,16.5391664023582]}},{"type":"Feature","properties":{"id":5523,"title":"Post-Disaster Mapping in Brgy Cantao-An, Naga City, Cebu","status":"PUBLISHED","created":"2018","lastUpdated":"2018","lastActive":"no","area":8.578373136287787,"changesets":257,"mappers":8,"roads":0.0144907976786474,"buildings":1560,"edits":1566,"latest":"2018-11-26T21:11:14.000Z"},"geometry":{"type":"Point","coordinates":[123.751319151188,10.2496391615833]}},{"type":"Feature","properties":{"id":5458,"title":"Mindanao Region, Misamis Oriental (southern), Philippines - Food Security","status":"PUBLISHED","created":"2018","lastUpdated":"2019","lastActive":"no","area":1277.0811871734315,"changesets":124,"mappers":12,"roads":16.6580644583872,"buildings":449,"edits":523,"latest":"2019-01-10T17:59:39.000Z"},"geometry":{"type":"Point","coordinates":[124.513786993793,8.45080046521423]}},{"type":"Feature","properties":{"id":5448,"title":"Palawan Region, El Nido, Philippines - Mapping for Food Security","status":"PUBLISHED","created":"2018","lastUpdated":"2019","lastActive":"no","area":531.8008952420495,"changesets":105,"mappers":30,"roads":16.0389686887453,"buildings":734,"edits":810,"latest":"2019-01-04T16:22:39.000Z"},"geometry":{"type":"Point","coordinates":[119.456004378106,11.2053832796224]}},{"type":"Feature","properties":{"id":5464,"title":"Ifugao, Philippines - Mapping for Food Security","status":"PUBLISHED","created":"2018","lastUpdated":"2018","lastActive":"no","area":2517.361965974961,"changesets":395,"mappers":59,"roads":65.3810335035801,"buildings":3061,"edits":3308,"latest":"2018-11-16T17:39:50.000Z"},"geometry":{"type":"Point","coordinates":[121.214348946442,16.8519828787362]}},{"type":"Feature","properties":{"id":5434,"title":"Panabo, Davao del Norte, Philippines - MapPH","status":"PUBLISHED","created":"2018","lastUpdated":"2018","lastActive":"no","area":111.37433144550731,"changesets":2896,"mappers":116,"roads":149.153513368543,"buildings":31674,"edits":33392,"latest":"2018-11-21T19:59:39.000Z"},"geometry":{"type":"Point","coordinates":[125.654373572769,7.31201677488237]}},{"type":"Feature","properties":{"id":5436,"title":"Palawan Region, Philippines - Mapping for Food Security","status":"ARCHIVED","created":"2018","lastUpdated":"2018","lastActive":"no","area":6259.0846636785745,"changesets":7,"mappers":5,"roads":10.3378114534038,"buildings":332,"edits":373,"latest":"2018-11-08T15:53:48.000Z"},"geometry":{"type":"Point","coordinates":[118.604119573544,9.73950098809045]}},{"type":"Feature","properties":{"id":5352,"title":"[demo] local villages, San Juan, NCR","status":"ARCHIVED","created":"2018","lastUpdated":"2018","lastActive":"no","area":5.8122326022660795,"changesets":0,"mappers":0,"roads":0,"buildings":0,"edits":0,"latest":null},"geometry":{"type":"Point","coordinates":[121.036699803478,14.6024727102402]}},{"type":"Feature","properties":{"id":5509,"title":"Davao Del Norte, Philippines - Mapping for Food Security","status":"PUBLISHED","created":"2018","lastUpdated":"2019","lastActive":"no","area":3417.6948638592276,"changesets":354,"mappers":47,"roads":278.445792360728,"buildings":4921,"edits":5874,"latest":"2019-01-05T21:24:15.000Z"},"geometry":{"type":"Point","coordinates":[125.637002427792,7.58944067290552]}},{"type":"Feature","properties":{"id":5483,"title":"Samar Eastern, Philippines - Mapping for Food Security","status":"PUBLISHED","created":"2018","lastUpdated":"2018","lastActive":"no","area":4305.267408054197,"changesets":173,"mappers":55,"roads":28.1269868083261,"buildings":1318,"edits":1570,"latest":"2018-12-11T21:42:16.000Z"},"geometry":{"type":"Point","coordinates":[125.380313420073,11.6564103271826]}},{"type":"Feature","properties":{"id":1129,"title":"Missing Maps: Leyte, Philippines","status":"ARCHIVED","created":"2015","lastUpdated":"2018","lastActive":"no","area":2074.0908593867607,"changesets":1476,"mappers":138,"roads":311.791256576186,"buildings":44244,"edits":48213,"latest":"2016-11-14T07:34:35.000Z"},"geometry":{"type":"Point","coordinates":[124.910418932556,10.55833419935]}},{"type":"Feature","properties":{"id":356,"title":"Typhoon Haiyan - Roxas City Post-Disaster Imagery Mapping Pleiades","status":"ARCHIVED","created":"2013","lastUpdated":"2014","lastActive":"no","area":147.2771412763834,"changesets":0,"mappers":0,"roads":0,"buildings":0,"edits":0,"latest":null},"geometry":{"type":"Point","coordinates":[122.752771469321,11.568011532376]}},{"type":"Feature","properties":{"id":1056,"title":"Danao, Bohol Island, Philippines OpenRoad project, Part IIII -- MapGive","status":"PUBLISHED","created":"2015","lastUpdated":"2017","lastActive":"no","area":187.61116003075477,"changesets":0,"mappers":0,"roads":0,"buildings":0,"edits":0,"latest":null},"geometry":{"type":"Point","coordinates":[124.201623397485,9.94370387736644]}},{"type":"Feature","properties":{"id":1054,"title":"Bohol Island, Philippines OpenRoad project, Part II -- MapGive","status":"PUBLISHED","created":"2015","lastUpdated":"2018","lastActive":"no","area":126.22765106989851,"changesets":0,"mappers":0,"roads":0,"buildings":0,"edits":0,"latest":null},"geometry":{"type":"Point","coordinates":[123.838331545641,9.77690083857825]}},{"type":"Feature","properties":{"id":4013,"title":"Quezon, PH - Missing Roads","status":"ARCHIVED","created":"2018","lastUpdated":"2018","lastActive":"no","area":1.3650857673810763,"changesets":24,"mappers":3,"roads":27.0015314027589,"buildings":24,"edits":436,"latest":"2018-09-05T13:24:03.000Z"},"geometry":{"type":"Point","coordinates":[121.763577972109,14.0786702514115]}},{"type":"Feature","properties":{"id":3243,"title":"Barangay San Paglaum 103A, Tacloban, Leyte - Missing Maps","status":"ARCHIVED","created":"2017","lastUpdated":"2017","lastActive":"no","area":0.4057453323088775,"changesets":33,"mappers":5,"roads":4.41897577051849,"buildings":1178,"edits":1357,"latest":"2017-07-09T00:52:58.000Z"},"geometry":{"type":"Point","coordinates":[124.921469189789,11.257719569367]}},{"type":"Feature","properties":{"id":1887,"title":"DOST-Project NOAH (ISAIAH) Structures Map Up Biliran","status":"ARCHIVED","created":"2016","lastUpdated":"2016","lastActive":"no","area":1928.294953086056,"changesets":517,"mappers":14,"roads":1.01840649614272,"buildings":48559,"edits":48868,"latest":"2016-11-27T13:52:51.000Z"},"geometry":{"type":"Point","coordinates":[124.424880553559,11.6437158228028]}},{"type":"Feature","properties":{"id":2979,"title":"Barangay Lanawan, MacArthur, Leyte - Missing Maps","status":"ARCHIVED","created":"2017","lastUpdated":"2017","lastActive":"no","area":0.0917228914938338,"changesets":21,"mappers":5,"roads":0.469853684785577,"buildings":200,"edits":230,"latest":"2017-07-06T18:56:17.000Z"},"geometry":{"type":"Point","coordinates":[124.859780631027,10.8566078034693]}},{"type":"Feature","properties":{"id":1885,"title":"DOST-Project NOAH (ISAIAH) Structures Map Up La Union","status":"PUBLISHED","created":"2016","lastUpdated":"2018","lastActive":"no","area":2912.909394539788,"changesets":301,"mappers":21,"roads":2.28880777917863,"buildings":40198,"edits":41302,"latest":"2018-06-24T04:08:57.000Z"},"geometry":{"type":"Point","coordinates":[120.344232157866,16.5775015179722]}},{"type":"Feature","properties":{"id":4222,"title":"Bicol, PH - Missing Roads","status":"ARCHIVED","created":"2018","lastUpdated":"2018","lastActive":"no","area":1.7672697508978923,"changesets":0,"mappers":0,"roads":0,"buildings":0,"edits":0,"latest":null},"geometry":{"type":"Point","coordinates":[123.41768602864,13.4057892961022]}},{"type":"Feature","properties":{"id":2038,"title":"DOST-Project NOAH (ISAIAH) Structures Map Up Pateros","status":"ARCHIVED","created":"2016","lastUpdated":"2016","lastActive":"no","area":1.9135061836005889,"changesets":489,"mappers":12,"roads":0.324292387266216,"buildings":37833,"edits":38251,"latest":"2016-09-22T09:51:49.000Z"},"geometry":{"type":"Point","coordinates":[121.070126804695,14.5457406965928]}},{"type":"Feature","properties":{"id":2033,"title":"DOST-Project NOAH (ISAIAH) Structures Map Up Samar Island","status":"PUBLISHED","created":"2016","lastUpdated":"2017","lastActive":"no","area":28583.05346594204,"changesets":917,"mappers":22,"roads":157.954359427476,"buildings":100526,"edits":106771,"latest":"2018-01-29T07:02:37.000Z"},"geometry":{"type":"Point","coordinates":[125.057832391705,11.8671199478188]}},{"type":"Feature","properties":{"id":2144,"title":"ADB Padre Burgos Base Mapping Workshop","status":"PUBLISHED","created":"2016","lastUpdated":"2016","lastActive":"no","area":209.76542400018755,"changesets":198,"mappers":8,"roads":37.648346438164,"buildings":1894,"edits":2527,"latest":"2016-10-15T16:28:21.000Z"},"geometry":{"type":"Point","coordinates":[121.837683650212,13.925536930325]}},{"type":"Feature","properties":{"id":2006,"title":"DOST-Project NOAH (ISAIAH) Structures Map Up Misamis Oriental","status":"PUBLISHED","created":"2016","lastUpdated":"2017","lastActive":"no","area":3651.9980002426037,"changesets":1823,"mappers":49,"roads":260.052119454372,"buildings":267995,"edits":276567,"latest":"2017-02-08T23:59:12.000Z"},"geometry":{"type":"Point","coordinates":[124.79974620409,8.65317569027741]}},{"type":"Feature","properties":{"id":2008,"title":"DOST-Project NOAH (ISAIAH) Structures Map Up Ilocos Sur","status":"PUBLISHED","created":"2016","lastUpdated":"2017","lastActive":"no","area":4406.481445663697,"changesets":1343,"mappers":66,"roads":41.8131430523579,"buildings":173576,"edits":173782,"latest":"2017-02-17T02:27:29.000Z"},"geometry":{"type":"Point","coordinates":[120.461800650037,17.3141316340269]}},{"type":"Feature","properties":{"id":2206,"title":"DOST-Project NOAH (ISAIAH) Structures Map Up Marikina City","status":"PUBLISHED","created":"2016","lastUpdated":"2017","lastActive":"no","area":22.821861973817175,"changesets":76,"mappers":14,"roads":0.225998272792493,"buildings":5714,"edits":5865,"latest":"2018-08-20T07:50:07.000Z"},"geometry":{"type":"Point","coordinates":[121.105121557746,14.6470682307492]}},{"type":"Feature","properties":{"id":4219,"title":"Cagayan Valley, PH - Missing Roads","status":"ARCHIVED","created":"2018","lastUpdated":"2018","lastActive":"no","area":2.940942559638417,"changesets":0,"mappers":0,"roads":0,"buildings":0,"edits":0,"latest":null},"geometry":{"type":"Point","coordinates":[121.710017526934,17.2007347183699]}},{"type":"Feature","properties":{"id":2726,"title":"NOAH-UNICEF: Mapping Paracale, Camarines Norte","status":"PUBLISHED","created":"2017","lastUpdated":"2018","lastActive":"no","area":158.35118879223091,"changesets":63,"mappers":3,"roads":104.215381930902,"buildings":29534,"edits":30496,"latest":"2018-05-19T20:34:57.000Z"},"geometry":{"type":"Point","coordinates":[122.774434936295,14.2544603824519]}},{"type":"Feature","properties":{"id":5256,"title":"Post-Disaster Mapping in Brgy. Naalad and Brgy. Tinaan, Naga City, Cebu","status":"ARCHIVED","created":"2018","lastUpdated":"2018","lastActive":"no","area":4.081334180056122,"changesets":81,"mappers":14,"roads":0.541248657808227,"buildings":2559,"edits":2569,"latest":"2018-09-21T20:43:42.000Z"},"geometry":{"type":"Point","coordinates":[123.744010558498,10.2094401920945]}},{"type":"Feature","properties":{"id":3907,"title":"CRS-UP NOAH Building Footprints Mapping - Malabon City","status":"PUBLISHED","created":"2017","lastUpdated":"2018","lastActive":"no","area":15.859280000650813,"changesets":18,"mappers":2,"roads":0.908475572641972,"buildings":67,"edits":74,"latest":"2018-06-06T08:03:26.000Z"},"geometry":{"type":"Point","coordinates":[120.958556364948,14.6741194997004]}},{"type":"Feature","properties":{"id":3794,"title":"UP-NOAH Mapping Campuses (UP Manila School of Health Sciences, Aurora)","status":"PUBLISHED","created":"2017","lastUpdated":"2018","lastActive":"no","area":4.535501398412163,"changesets":9,"mappers":4,"roads":1.96975188471171e-9,"buildings":33,"edits":46,"latest":"2018-11-10T01:41:23.000Z"},"geometry":{"type":"Point","coordinates":[121.540786596002,15.8055494402257]}},{"type":"Feature","properties":{"id":3790,"title":"UP-NOAH Mapping Campuses (UP Open University - Headquarters)","status":"PUBLISHED","created":"2017","lastUpdated":"2017","lastActive":"no","area":1.4776756115042378,"changesets":3,"mappers":1,"roads":0.0132762322661055,"buildings":0,"edits":8,"latest":"2017-11-25T03:52:08.000Z"},"geometry":{"type":"Point","coordinates":[121.263475179868,14.1748876634663]}},{"type":"Feature","properties":{"id":3792,"title":"UP-NOAH Mapping Campuses (UP Manila School of Health Sciences, South Cotabato)","status":"PUBLISHED","created":"2017","lastUpdated":"2018","lastActive":"no","area":4.3460409669323505,"changesets":10,"mappers":3,"roads":0.744313973193778,"buildings":45,"edits":67,"latest":"2018-11-10T00:01:08.000Z"},"geometry":{"type":"Point","coordinates":[124.882442269799,6.44755107380189]}},{"type":"Feature","properties":{"id":4012,"title":"Rizal, PH - Missing Roads","status":"ARCHIVED","created":"2018","lastUpdated":"2018","lastActive":"no","area":4.093778643029161,"changesets":121,"mappers":4,"roads":246.80904924342,"buildings":233,"edits":3481,"latest":"2018-02-17T08:29:16.000Z"},"geometry":{"type":"Point","coordinates":[121.203837763436,14.6162866873367]}},{"type":"Feature","properties":{"id":4014,"title":"Batangas, PH - Missing Roads","status":"ARCHIVED","created":"2018","lastUpdated":"2018","lastActive":"no","area":8.747103651711436,"changesets":98,"mappers":3,"roads":218.847042342703,"buildings":286,"edits":2789,"latest":"2018-01-31T14:19:34.000Z"},"geometry":{"type":"Point","coordinates":[121.156755777762,13.8859216538293]}},{"type":"Feature","properties":{"id":4018,"title":"Pampanga, PH - Missing Roads","status":"ARCHIVED","created":"2018","lastUpdated":"2018","lastActive":"no","area":7.393817777829668,"changesets":94,"mappers":2,"roads":150.480490271127,"buildings":177,"edits":2268,"latest":"2018-02-16T22:46:00.000Z"},"geometry":{"type":"Point","coordinates":[120.597938575324,15.1352937819417]}},{"type":"Feature","properties":{"id":4016,"title":"Bulacan, PH - Missing Roads","status":"ARCHIVED","created":"2018","lastUpdated":"2018","lastActive":"no","area":6.0283202796513065,"changesets":112,"mappers":2,"roads":213.436683117997,"buildings":622,"edits":5044,"latest":"2018-02-13T06:18:08.000Z"},"geometry":{"type":"Point","coordinates":[120.930302611899,14.8486016638332]}},{"type":"Feature","properties":{"id":331,"title":"Guagua, Pampanga DRR mapping ","status":"PUBLISHED","created":"2013","lastUpdated":"2018","lastActive":"no","area":49.709960372922495,"changesets":0,"mappers":0,"roads":0,"buildings":0,"edits":0,"latest":null},"geometry":{"type":"Point","coordinates":[120.603497795665,14.9816853820111]}},{"type":"Feature","properties":{"id":768,"title":"Bohol Island, Philippines OpenRoad project, Part I -- MapGive","status":"PUBLISHED","created":"2014","lastUpdated":"2017","lastActive":"no","area":457.54507236444925,"changesets":0,"mappers":0,"roads":0,"buildings":0,"edits":0,"latest":null},"geometry":{"type":"Point","coordinates":[124.329666907057,9.77175880408418]}},{"type":"Feature","properties":{"id":969,"title":"Maguindanao Internally Displaced People Mapping","status":"ARCHIVED","created":"2015","lastUpdated":"2015","lastActive":"no","area":874.6779099535637,"changesets":70,"mappers":15,"roads":48.0968166399096,"buildings":1242,"edits":1584,"latest":"2017-02-03T14:07:13.000Z"},"geometry":{"type":"Point","coordinates":[124.455666113863,6.93376559749209]}},{"type":"Feature","properties":{"id":1157,"title":"Philippines: Silvinos Lobos","status":"PUBLISHED","created":"2015","lastUpdated":"2017","lastActive":"no","area":6.207303897148626,"changesets":292,"mappers":16,"roads":26.35312779277,"buildings":544,"edits":804,"latest":"2015-12-16T07:22:58.000Z"},"geometry":{"type":"Point","coordinates":[124.83818270349,12.3273031786335]}},{"type":"Feature","properties":{"id":1055,"title":"Bohol Island, Philippines OpenRoad project, Part III -- MapGive","status":"PUBLISHED","created":"2015","lastUpdated":"2017","lastActive":"no","area":167.18586226424708,"changesets":0,"mappers":0,"roads":0,"buildings":0,"edits":0,"latest":null},"geometry":{"type":"Point","coordinates":[124.050913486072,9.6513521536648]}},{"type":"Feature","properties":{"id":1458,"title":"Northern Cebu Risk Mapping Project - Bogo City","status":"ARCHIVED","created":"2016","lastUpdated":"2018","lastActive":"no","area":185.2414334365492,"changesets":579,"mappers":66,"roads":60.0266484741038,"buildings":23617,"edits":26886,"latest":"2017-02-15T08:51:57.000Z"},"geometry":{"type":"Point","coordinates":[123.993777935566,11.0245272303029]}},{"type":"Feature","properties":{"id":4476,"title":"CRS-UP NOAH Building Footprints Mapping - Angono, Rizal","status":"PUBLISHED","created":"2018","lastUpdated":"2018","lastActive":"no","area":14.749809999799018,"changesets":369,"mappers":13,"roads":0.56708532054949,"buildings":1334,"edits":1377,"latest":"2018-07-21T00:48:05.000Z"},"geometry":{"type":"Point","coordinates":[121.169113713278,14.539505638338]}},{"type":"Feature","properties":{"id":4934,"title":"Settlement mapping exercise - Lake Sebu, SCO, PH","status":"ARCHIVED","created":"2018","lastUpdated":"2018","lastActive":"no","area":5.951740845677327,"changesets":135,"mappers":15,"roads":18.7669911239401,"buildings":1228,"edits":1375,"latest":"2018-08-19T16:20:47.000Z"},"geometry":{"type":"Point","coordinates":[124.728218697631,6.34768561053494]}},{"type":"Feature","properties":{"id":504,"title":"General Santos City, Philippines","status":"PUBLISHED","created":"2014","lastUpdated":"2017","lastActive":"no","area":41.853759664341574,"changesets":0,"mappers":0,"roads":0,"buildings":0,"edits":0,"latest":null},"geometry":{"type":"Point","coordinates":[125.166194433626,6.1255914338959]}},{"type":"Feature","properties":{"id":4165,"title":"Cavite, PH - Missing Roads","status":"ARCHIVED","created":"2018","lastUpdated":"2018","lastActive":"no","area":8.147770355865646,"changesets":0,"mappers":0,"roads":0,"buildings":0,"edits":0,"latest":null},"geometry":{"type":"Point","coordinates":[120.959868463266,14.2904291173807]}},{"type":"Feature","properties":{"id":329,"title":"Lubao, Pampanga DRR mapping","status":"ARCHIVED","created":"2013","lastUpdated":"2017","lastActive":"no","area":163.99297241231992,"changesets":1,"mappers":1,"roads":0.172453330688903,"buildings":0,"edits":2,"latest":"2017-07-12T16:50:53.000Z"},"geometry":{"type":"Point","coordinates":[120.56027721164,14.9051372186071]}},{"type":"Feature","properties":{"id":362,"title":"Typhoon Haiyan - Panay Island Eastern Side","status":"ARCHIVED","created":"2014","lastUpdated":"2014","lastActive":"no","area":1091.2732336005486,"changesets":23,"mappers":7,"roads":24.3208311105812,"buildings":909,"edits":951,"latest":"2019-01-02T06:26:01.000Z"},"geometry":{"type":"Point","coordinates":[123.010111982788,11.3504538337967]}},{"type":"Feature","properties":{"id":335,"title":"Mapping in Olongapo city - SA activities","status":"ARCHIVED","created":"2013","lastUpdated":"2014","lastActive":"no","area":61.127634196708364,"changesets":46,"mappers":4,"roads":17.2462736359656,"buildings":1432,"edits":1545,"latest":"2018-12-13T06:36:31.000Z"},"geometry":{"type":"Point","coordinates":[120.310879995923,14.8448467273467]}},{"type":"Feature","properties":{"id":1509,"title":"Northern Cebu Risk Mapping Project - Daanbantayan and Medellin","status":"PUBLISHED","created":"2016","lastUpdated":"2018","lastActive":"no","area":165.4687088247908,"changesets":738,"mappers":125,"roads":62.7229363982263,"buildings":15949,"edits":19110,"latest":"2018-08-25T04:09:52.000Z"},"geometry":{"type":"Point","coordinates":[124.000804368288,11.18293581575]}},{"type":"Feature","properties":{"id":1636,"title":"DOST-Project NOAH (ISAIAH) Structures Map Up Cavite","status":"PUBLISHED","created":"2016","lastUpdated":"2017","lastActive":"no","area":1236.7930267854183,"changesets":11018,"mappers":38,"roads":25.913009487454,"buildings":811687,"edits":826206,"latest":"2018-07-25T08:21:28.000Z"},"geometry":{"type":"Point","coordinates":[120.869224835751,14.2555520122718]}},{"type":"Feature","properties":{"id":4474,"title":"CRS-UP NOAH Building Footprints Mapping - Marilao, Bulacan","status":"PUBLISHED","created":"2018","lastUpdated":"2018","lastActive":"no","area":28.509141928904054,"changesets":636,"mappers":14,"roads":16.086328379399,"buildings":22093,"edits":22885,"latest":"2018-08-21T03:49:57.000Z"},"geometry":{"type":"Point","coordinates":[120.971283673059,14.7728591926076]}},{"type":"Feature","properties":{"id":5495,"title":"Cotabato, Philippines - Build-up Setlements Mapping","status":"PUBLISHED","created":"2018","lastUpdated":"2018","lastActive":"no","area":5897.959292455374,"changesets":0,"mappers":0,"roads":0,"buildings":0,"edits":0,"latest":null},"geometry":{"type":"Point","coordinates":[124.850522861635,7.20260557821726]}},{"type":"Feature","properties":{"id":4993,"title":"Settlement mapping exercise - Lake Sebu, SCO, PH","status":"ARCHIVED","created":"2018","lastUpdated":"2018","lastActive":"no","area":12.139239685454037,"changesets":267,"mappers":30,"roads":70.6333937889701,"buildings":3978,"edits":4426,"latest":"2018-09-20T04:03:14.000Z"},"geometry":{"type":"Point","coordinates":[124.674894947625,6.24324411286153]}},{"type":"Feature","properties":{"id":132,"title":"Cateel - Typhoon Bopha/Pablo","status":"ARCHIVED","created":"2012","lastUpdated":"2018","lastActive":"no","area":118.05073540481972,"changesets":611,"mappers":32,"roads":675096.121518929,"buildings":18286,"edits":47562,"latest":"2018-05-25T15:48:17.000Z"},"geometry":{"type":"Point","coordinates":[126.420080755638,7.78840326075831]}},{"type":"Feature","properties":{"id":130,"title":"Montevista - Typhoon Bopha/Pablo","status":"ARCHIVED","created":"2012","lastUpdated":"2018","lastActive":"no","area":110.23855036305432,"changesets":82,"mappers":10,"roads":4.82485946046969,"buildings":20218,"edits":20373,"latest":"2018-04-15T04:17:20.000Z"},"geometry":{"type":"Point","coordinates":[125.991462794654,7.70103952234117]}},{"type":"Feature","properties":{"id":378,"title":"Mapping in Cavite, Philippines - SA activities","status":"PUBLISHED","created":"2013","lastUpdated":"2018","lastActive":"no","area":347.85007544928436,"changesets":0,"mappers":0,"roads":0,"buildings":0,"edits":0,"latest":null},"geometry":{"type":"Point","coordinates":[120.96912122858,14.4290195177527]}},{"type":"Feature","properties":{"id":5414,"title":"Luzon, Philippines - Missing Roads Validation","status":"PUBLISHED","created":"2018","lastUpdated":"2018","lastActive":"no","area":248.88650639067384,"changesets":0,"mappers":0,"roads":0,"buildings":0,"edits":0,"latest":null},"geometry":{"type":"Point","coordinates":[120.98845026101,14.837542318174]}},{"type":"Feature","properties":{"id":4227,"title":"Soccsksargen, PH - Missing Roads","status":"ARCHIVED","created":"2018","lastUpdated":"2018","lastActive":"no","area":3.1029043042642748,"changesets":0,"mappers":0,"roads":0,"buildings":0,"edits":0,"latest":null},"geometry":{"type":"Point","coordinates":[124.990132029402,6.2851636764707]}},{"type":"Feature","properties":{"id":4216,"title":"Northern Mindanao, PH - Missing Roads","status":"ARCHIVED","created":"2018","lastUpdated":"2018","lastActive":"no","area":3.6160059552083452,"changesets":0,"mappers":0,"roads":0,"buildings":0,"edits":0,"latest":null},"geometry":{"type":"Point","coordinates":[124.546122781293,8.38191901642987]}},{"type":"Feature","properties":{"id":4218,"title":"Ilocos, PH - Missing Roads","status":"ARCHIVED","created":"2018","lastUpdated":"2018","lastActive":"no","area":3.351577108453254,"changesets":0,"mappers":0,"roads":0,"buildings":0,"edits":0,"latest":null},"geometry":{"type":"Point","coordinates":[120.470400947485,17.4828315084603]}},{"type":"Feature","properties":{"id":4221,"title":"Central Luzon, PH - Missing Roads","status":"ARCHIVED","created":"2018","lastUpdated":"2018","lastActive":"no","area":7.136402147325932,"changesets":0,"mappers":0,"roads":0,"buildings":0,"edits":0,"latest":null},"geometry":{"type":"Point","coordinates":[120.561243973481,15.2014514270206]}},{"type":"Feature","properties":{"id":4180,"title":"Metro Manila, PH - Road Alignment","status":"ARCHIVED","created":"2018","lastUpdated":"2018","lastActive":"no","area":183.45449881914288,"changesets":0,"mappers":0,"roads":0,"buildings":0,"edits":0,"latest":null},"geometry":{"type":"Point","coordinates":[121.036352449656,14.5961072763956]}},{"type":"Feature","properties":{"id":3235,"title":"Barangay Kiling, MacArthur, Leyte - Missing Maps","status":"ARCHIVED","created":"2017","lastUpdated":"2017","lastActive":"no","area":0.236696902615044,"changesets":22,"mappers":2,"roads":0.241415222378668,"buildings":239,"edits":250,"latest":"2017-07-09T18:53:25.000Z"},"geometry":{"type":"Point","coordinates":[124.913293154246,10.8278820844186]}},{"type":"Feature","properties":{"id":3227,"title":"Barangay Burabod, MacArthur, Leyte, Philippines - Missing Maps","status":"ARCHIVED","created":"2017","lastUpdated":"2017","lastActive":"no","area":0.6983851403478792,"changesets":21,"mappers":3,"roads":2.37254205259137,"buildings":154,"edits":212,"latest":"2017-10-23T15:37:40.000Z"},"geometry":{"type":"Point","coordinates":[124.939180347741,10.8374430356225]}},{"type":"Feature","properties":{"id":3237,"title":"Barangay Burgos, Mayorga, Leyte - Missing Maps","status":"ARCHIVED","created":"2017","lastUpdated":"2017","lastActive":"no","area":1.0925764613549902,"changesets":33,"mappers":2,"roads":8.21818609437068,"buildings":357,"edits":504,"latest":"2017-07-28T15:10:24.000Z"},"geometry":{"type":"Point","coordinates":[124.985213924816,10.8826342628704]}},{"type":"Feature","properties":{"id":3225,"title":"Barangay Aslum, Alang Alang, Leyte, Philippines - Missing Maps","status":"ARCHIVED","created":"2017","lastUpdated":"2018","lastActive":"no","area":0.6055093365400158,"changesets":49,"mappers":4,"roads":7.73812367006566,"buildings":376,"edits":730,"latest":"2017-12-19T21:06:45.000Z"},"geometry":{"type":"Point","coordinates":[124.884755059024,11.1692880712302]}},{"type":"Feature","properties":{"id":3239,"title":"Barangay San Antonio, MacArthur, Leyte - Missing Maps","status":"ARCHIVED","created":"2017","lastUpdated":"2017","lastActive":"no","area":0.12122390001585517,"changesets":26,"mappers":5,"roads":0.750278355840365,"buildings":335,"edits":380,"latest":"2017-07-10T14:14:28.000Z"},"geometry":{"type":"Point","coordinates":[124.892070662961,10.8277155387306]}},{"type":"Feature","properties":{"id":2723,"title":"NOAH-UNICEF: Mapping Itogon, Benguet","status":"PUBLISHED","created":"2017","lastUpdated":"2017","lastActive":"no","area":438.98478316533635,"changesets":104,"mappers":3,"roads":63.427448544975,"buildings":11532,"edits":12011,"latest":"2018-11-12T15:54:54.000Z"},"geometry":{"type":"Point","coordinates":[120.707504946132,16.316694576558]}},{"type":"Feature","properties":{"id":2725,"title":"NOAH-UNICEF: Mapping Milagros, Masbate","status":"PUBLISHED","created":"2017","lastUpdated":"2017","lastActive":"no","area":481.5282184550585,"changesets":67,"mappers":3,"roads":61.2721158054577,"buildings":8871,"edits":9176,"latest":"2017-04-28T11:04:59.000Z"},"geometry":{"type":"Point","coordinates":[123.524087759695,12.2027594737496]}},{"type":"Feature","properties":{"id":3461,"title":"UP-NOAH Mapping Campuses (UP Cebu City)","status":"PUBLISHED","created":"2017","lastUpdated":"2017","lastActive":"no","area":3.674962024941641,"changesets":129,"mappers":5,"roads":0.000832742688164885,"buildings":762,"edits":798,"latest":"2018-03-14T14:49:23.000Z"},"geometry":{"type":"Point","coordinates":[123.898654686438,10.3208242799959]}},{"type":"Feature","properties":{"id":3457,"title":"UP-NOAH Mapping Campuses (UP Los BaÃ±os)","status":"PUBLISHED","created":"2017","lastUpdated":"2017","lastActive":"no","area":12.20182994686138,"changesets":200,"mappers":26,"roads":17.3248632606893,"buildings":4065,"edits":4497,"latest":"2017-11-25T08:06:04.000Z"},"geometry":{"type":"Point","coordinates":[121.235517765426,14.1644050639345]}},{"type":"Feature","properties":{"id":3469,"title":"UP-NOAH Mapping Campuses (UP Cebu South Road Properties)","status":"PUBLISHED","created":"2017","lastUpdated":"2017","lastActive":"no","area":11.024467091991225,"changesets":0,"mappers":0,"roads":0,"buildings":0,"edits":0,"latest":null},"geometry":{"type":"Point","coordinates":[123.863489798937,10.2720224148916]}},{"type":"Feature","properties":{"id":3436,"title":"UP-NOAH Mapping Campuses (UP Diliman)","status":"PUBLISHED","created":"2017","lastUpdated":"2017","lastActive":"no","area":4.428477183303132,"changesets":95,"mappers":5,"roads":1.5221188801769,"buildings":6810,"edits":7385,"latest":"2017-11-25T06:49:39.000Z"},"geometry":{"type":"Point","coordinates":[121.064794163922,14.653980273509]}},{"type":"Feature","properties":{"id":3434,"title":"UP-NOAH Mapping Campuses (UP Diliman Extension Programs in Pampanga)","status":"PUBLISHED","created":"2017","lastUpdated":"2018","lastActive":"no","area":43.54156672373075,"changesets":84,"mappers":6,"roads":19.7785801393429,"buildings":2930,"edits":3163,"latest":"2018-03-08T03:26:42.000Z"},"geometry":{"type":"Point","coordinates":[120.544840750701,15.1871533788111]}},{"type":"Feature","properties":{"id":3438,"title":"UP-NOAH Mapping Campuses (UP Manila)","status":"ARCHIVED","created":"2017","lastUpdated":"2018","lastActive":"no","area":1.6100307695151406,"changesets":106,"mappers":4,"roads":0.142282989595509,"buildings":209,"edits":217,"latest":"2018-11-10T03:31:40.000Z"},"geometry":{"type":"Point","coordinates":[120.983575861444,14.5803191938393]}}],"totalArea":2402723112.155058,"Tanzania":[{"type":"Feature","properties":{"id":5553,"title":"Ibihwa","status":"PUBLISHED","created":"2018","lastUpdated":"2018","lastActive":"no","area":209.9917674853979,"changesets":174,"mappers":15,"roads":0.00554910726118807,"buildings":374,"edits":380,"latest":"2018-11-23T11:23:13.000Z"},"geometry":{"type":"Point","coordinates":[35.4403328490389,-5.96240219007883]}},{"type":"Feature","properties":{"id":5534,"title":"Nondwa","status":"PUBLISHED","created":"2018","lastUpdated":"2018","lastActive":"no","area":1008.4644905302546,"changesets":187,"mappers":17,"roads":0.00247989935987292,"buildings":670,"edits":674,"latest":"2018-11-23T12:38:29.000Z"},"geometry":{"type":"Point","coordinates":[35.326350963294,-6.53971625781216]}},{"type":"Feature","properties":{"id":5398,"title":"Ungindoni_METEOR","status":"PUBLISHED","created":"2018","lastUpdated":"2018","lastActive":"no","area":0.8096558160905647,"changesets":0,"mappers":0,"roads":0,"buildings":0,"edits":0,"latest":null},"geometry":{"type":"Point","coordinates":[39.3545451261367,-6.8745441047526]}},{"type":"Feature","properties":{"id":5396,"title":"Sinza_METEOR","status":"PUBLISHED","created":"2018","lastUpdated":"2018","lastActive":"no","area":0.11495287086645402,"changesets":65,"mappers":15,"roads":0.115200681951529,"buildings":130,"edits":194,"latest":"2018-11-01T13:14:45.000Z"},"geometry":{"type":"Point","coordinates":[39.2245824861265,-6.7834148800241]}},{"type":"Feature","properties":{"id":5325,"title":"Mwananyamala","status":"PUBLISHED","created":"2018","lastUpdated":"2018","lastActive":"no","area":2.49542175237576,"changesets":336,"mappers":20,"roads":0.154280978731387,"buildings":1714,"edits":2074,"latest":"2018-10-09T13:18:30.000Z"},"geometry":{"type":"Point","coordinates":[39.2586298839167,-6.78686342634381]}},{"type":"Feature","properties":{"id":5166,"title":"Mbeya_mbalizi","status":"PUBLISHED","created":"2018","lastUpdated":"2018","lastActive":"no","area":4.490606172472349,"changesets":997,"mappers":124,"roads":7.51774112907024,"buildings":10937,"edits":11617,"latest":"2018-09-07T08:30:01.000Z"},"geometry":{"type":"Point","coordinates":[33.3401519377328,-8.93506614586956]}},{"type":"Feature","properties":{"id":5204,"title":"Makumbusho","status":"PUBLISHED","created":"2018","lastUpdated":"2018","lastActive":"no","area":1.7495807696096894,"changesets":1019,"mappers":20,"roads":5.85058068828721,"buildings":7506,"edits":9235,"latest":"2018-11-07T13:50:16.000Z"},"geometry":{"type":"Point","coordinates":[39.2508110711774,-6.78966677791311]}},{"type":"Feature","properties":{"id":5555,"title":"Ilindi","status":"PUBLISHED","created":"2018","lastUpdated":"2018","lastActive":"no","area":196.2382680447729,"changesets":132,"mappers":16,"roads":27.6915017919429,"buildings":205,"edits":257,"latest":"2019-01-03T23:41:17.000Z"},"geometry":{"type":"Point","coordinates":[35.5328145148499,-5.91621278072473]}},{"type":"Feature","properties":{"id":5559,"title":"Mpalanga","status":"PUBLISHED","created":"2018","lastUpdated":"2018","lastActive":"no","area":169.7571439071226,"changesets":1,"mappers":1,"roads":0,"buildings":7,"edits":7,"latest":"2018-11-28T20:07:01.000Z"},"geometry":{"type":"Point","coordinates":[35.4848551883275,-6.2923504082537]}},{"type":"Feature","properties":{"id":5551,"title":"Chipanga","status":"PUBLISHED","created":"2018","lastUpdated":"2018","lastActive":"no","area":198.24189193587776,"changesets":0,"mappers":0,"roads":0,"buildings":0,"edits":0,"latest":null},"geometry":{"type":"Point","coordinates":[35.3809548797818,-6.2699217899786]}},{"type":"Feature","properties":{"id":5390,"title":"Kisutu_METEOR","status":"PUBLISHED","created":"2018","lastUpdated":"2018","lastActive":"no","area":0.30002608748587883,"changesets":75,"mappers":13,"roads":0.336096943618833,"buildings":286,"edits":453,"latest":"2018-10-25T14:59:01.000Z"},"geometry":{"type":"Point","coordinates":[39.287876425417,-6.81640921080609]}},{"type":"Feature","properties":{"id":4412,"title":"Tunduru, Ruvuma, Tanzania Mini Grids Project 04","status":"PUBLISHED","created":"2018","lastUpdated":"2018","lastActive":"no","area":1554.890184050325,"changesets":1325,"mappers":68,"roads":0.398203610661417,"buildings":26966,"edits":27033,"latest":"2018-04-30T08:47:26.000Z"},"geometry":{"type":"Point","coordinates":[37.4224539441367,-11.00877356754]}},{"type":"Feature","properties":{"id":4423,"title":"Tunduru, Ruvuma, Tanzania Mini Grids Project 01","status":"PUBLISHED","created":"2018","lastUpdated":"2018","lastActive":"no","area":1513.3163670277308,"changesets":748,"mappers":73,"roads":0.672637130613432,"buildings":15105,"edits":15129,"latest":"2018-06-29T11:40:17.000Z"},"geometry":{"type":"Point","coordinates":[37.2136110366055,-11.5541265436822]}},{"type":"Feature","properties":{"id":4420,"title":"Tunduru, Ruvuma, Tanzania Mini Grids Project 06-07","status":"PUBLISHED","created":"2018","lastUpdated":"2018","lastActive":"no","area":2221.546325309108,"changesets":2472,"mappers":65,"roads":8.35441218309258,"buildings":33151,"edits":33219,"latest":"2018-06-26T09:49:39.000Z"},"geometry":{"type":"Point","coordinates":[37.2482470470671,-10.7299370452289]}},{"type":"Feature","properties":{"id":4435,"title":"Ivugula Village, Tanzania Mini Grids Project 01","status":"PUBLISHED","created":"2018","lastUpdated":"2018","lastActive":"no","area":12.603608518468686,"changesets":270,"mappers":44,"roads":23.4950636574225,"buildings":1686,"edits":2161,"latest":"2018-06-13T18:16:09.000Z"},"geometry":{"type":"Point","coordinates":[33.0729138374781,-8.9949988573835]}},{"type":"Feature","properties":{"id":4208,"title":"Mbeya minigrids","status":"PUBLISHED","created":"2018","lastUpdated":"2018","lastActive":"no","area":381.3150730146897,"changesets":8229,"mappers":81,"roads":545.472150450804,"buildings":454625,"edits":458780,"latest":"2018-03-29T12:55:24.000Z"},"geometry":{"type":"Point","coordinates":[33.2834313083823,-8.86666978309615]}},{"type":"Feature","properties":{"id":4508,"title":"Central Singida, Singida, Tanzania Mini Grids Project 00 North","status":"PUBLISHED","created":"2018","lastUpdated":"2018","lastActive":"no","area":2138.0235797080213,"changesets":2429,"mappers":66,"roads":2.19560796896209,"buildings":85349,"edits":85596,"latest":"2018-07-13T13:11:37.000Z"},"geometry":{"type":"Point","coordinates":[34.4849350763114,-4.77933065140117]}},{"type":"Feature","properties":{"id":4978,"title":"Tanzania Development Trust: Magata Karutonga  Community Mapping Project","status":"ARCHIVED","created":"2018","lastUpdated":"2018","lastActive":"no","area":34.0634342157299,"changesets":760,"mappers":56,"roads":433.264175834421,"buildings":3163,"edits":6211,"latest":"2018-08-19T16:59:22.000Z"},"geometry":{"type":"Point","coordinates":[31.6336096442559,-1.87369450984158]}},{"type":"Feature","properties":{"id":4495,"title":"Lindi, Lindi, Tanzania Mini Grids Project 04","status":"PUBLISHED","created":"2018","lastUpdated":"2018","lastActive":"no","area":2400.161505147141,"changesets":1774,"mappers":65,"roads":3.81934683994176,"buildings":47301,"edits":47458,"latest":"2018-06-29T06:39:00.000Z"},"geometry":{"type":"Point","coordinates":[39.6414025297716,-10.1822589125545]}},{"type":"Feature","properties":{"id":4487,"title":"Lindi, Lindi, Tanzania Mini Grids Project 01","status":"PUBLISHED","created":"2018","lastUpdated":"2018","lastActive":"no","area":2262.000623549842,"changesets":1674,"mappers":68,"roads":0.902342152134417,"buildings":56663,"edits":56749,"latest":"2018-05-14T14:03:37.000Z"},"geometry":{"type":"Point","coordinates":[38.9173096989872,-10.0781727355739]}},{"type":"Feature","properties":{"id":5423,"title":"Tanzania missing buildings Karatu District","status":"ARCHIVED","created":"2018","lastUpdated":"2019","lastActive":"no","area":0.4165335894023015,"changesets":12,"mappers":1,"roads":0,"buildings":22,"edits":22,"latest":"2019-01-04T20:37:22.000Z"},"geometry":{"type":"Point","coordinates":[35.4373928599897,-3.66531133905769]}},{"type":"Feature","properties":{"id":4489,"title":"Lindi, Lindi, Tanzania Mini Grids Project 03","status":"PUBLISHED","created":"2018","lastUpdated":"2018","lastActive":"no","area":1972.6554027241687,"changesets":1117,"mappers":68,"roads":0.712816430807669,"buildings":37574,"edits":37626,"latest":"2018-07-04T09:33:22.000Z"},"geometry":{"type":"Point","coordinates":[39.2489990334018,-10.1470862126786]}},{"type":"Feature","properties":{"id":4406,"title":"Tanzania Development Trust: Kyaibumba Community Mapping Project","status":"ARCHIVED","created":"2018","lastUpdated":"2018","lastActive":"no","area":14.678296379059542,"changesets":158,"mappers":30,"roads":133.357573789262,"buildings":795,"edits":1536,"latest":"2018-04-09T12:26:56.000Z"},"geometry":{"type":"Point","coordinates":[31.4548536327291,-1.9073101465972]}},{"type":"Feature","properties":{"id":4307,"title":"Tanzania Development Trust: Burungura Community Mapping Project","status":"ARCHIVED","created":"2018","lastUpdated":"2018","lastActive":"no","area":12.132811235880215,"changesets":422,"mappers":60,"roads":224.496584040424,"buildings":934,"edits":2752,"latest":"2018-03-15T22:38:18.000Z"},"geometry":{"type":"Point","coordinates":[31.4863826867625,-1.89364869788793]}},{"type":"Feature","properties":{"id":4335,"title":"Tanzania Development Trust: Urambo Community Mapping Project","status":"ARCHIVED","created":"2018","lastUpdated":"2018","lastActive":"no","area":22.72434812488303,"changesets":539,"mappers":76,"roads":209.42903890829,"buildings":7236,"edits":9333,"latest":"2018-03-25T09:46:55.000Z"},"geometry":{"type":"Point","coordinates":[32.0763834649408,-5.08236418614099]}},{"type":"Feature","properties":{"id":4284,"title":"Tanzania Development Trust: Nyakigando Ikimba Community Mapping Project","status":"ARCHIVED","created":"2018","lastUpdated":"2018","lastActive":"no","area":9.041298427344486,"changesets":320,"mappers":21,"roads":159.247797886851,"buildings":1179,"edits":3057,"latest":"2018-03-12T21:12:54.000Z"},"geometry":{"type":"Point","coordinates":[31.5705837031557,-1.51810455931155]}},{"type":"Feature","properties":{"id":4293,"title":"Tanzania Development Trust: Kibirizi Community Mapping Project","status":"ARCHIVED","created":"2018","lastUpdated":"2018","lastActive":"no","area":75.76463029779623,"changesets":932,"mappers":112,"roads":628.528332051034,"buildings":2461,"edits":8182,"latest":"2018-03-25T15:01:12.000Z"},"geometry":{"type":"Point","coordinates":[31.4031606875565,-1.63216015619948]}},{"type":"Feature","properties":{"id":4404,"title":"Tanzania Development Trust: Kiyebe Community Mapping Project","status":"ARCHIVED","created":"2018","lastUpdated":"2018","lastActive":"no","area":14.54425632534702,"changesets":165,"mappers":25,"roads":179.882131248454,"buildings":904,"edits":2112,"latest":"2018-04-12T18:26:16.000Z"},"geometry":{"type":"Point","coordinates":[31.5213611368364,-2.01443774986169]}},{"type":"Feature","properties":{"id":4325,"title":"Tanzania Development Trust: Kakuraijo Karagwe Community Mapping Project","status":"ARCHIVED","created":"2018","lastUpdated":"2018","lastActive":"no","area":26.03432942227103,"changesets":294,"mappers":21,"roads":200.728606871569,"buildings":2268,"edits":3280,"latest":"2018-03-19T17:29:04.000Z"},"geometry":{"type":"Point","coordinates":[30.9998529759753,-1.76362344469638]}},{"type":"Feature","properties":{"id":4329,"title":"Tanzania Development Trust: Chabuhora Karagwe Community Mapping Project","status":"ARCHIVED","created":"2018","lastUpdated":"2018","lastActive":"no","area":29.098942849205926,"changesets":337,"mappers":36,"roads":136.59546293545,"buildings":2260,"edits":3376,"latest":"2018-03-20T08:56:00.000Z"},"geometry":{"type":"Point","coordinates":[30.9793967385239,-1.78282439868476]}},{"type":"Feature","properties":{"id":4357,"title":"Tanzania Development Trust: Rungwe Kasulu Community Mapping Project","status":"ARCHIVED","created":"2018","lastUpdated":"2018","lastActive":"no","area":1013.1767777919853,"changesets":5552,"mappers":409,"roads":4999.48387166667,"buildings":20822,"edits":49162,"latest":"2018-06-17T14:10:03.000Z"},"geometry":{"type":"Point","coordinates":[30.2493018751241,-4.77015701562809]}},{"type":"Feature","properties":{"id":4316,"title":"Tanzania Development Trust: Ngara Community Mapping Project","status":"ARCHIVED","created":"2018","lastUpdated":"2018","lastActive":"no","area":5.680090353476652,"changesets":293,"mappers":44,"roads":80.4486420340574,"buildings":3478,"edits":4114,"latest":"2018-03-30T14:34:54.000Z"},"geometry":{"type":"Point","coordinates":[30.6563660461257,-2.51312893241178]}},{"type":"Feature","properties":{"id":4281,"title":"Tanzania Development Trust: Muleba Community Mapping Project","status":"ARCHIVED","created":"2018","lastUpdated":"2018","lastActive":"no","area":7.595025994574089,"changesets":807,"mappers":46,"roads":152.380940730158,"buildings":3685,"edits":5608,"latest":"2018-03-14T04:07:41.000Z"},"geometry":{"type":"Point","coordinates":[31.6560461932452,-1.84575729647524]}},{"type":"Feature","properties":{"id":4400,"title":"Katumba Songwe, Mbeya, Tanzania Mini Grids Project 01","status":"PUBLISHED","created":"2018","lastUpdated":"2018","lastActive":"no","area":38.180931167498045,"changesets":477,"mappers":58,"roads":1.86573763751187,"buildings":9477,"edits":9737,"latest":"2018-04-12T09:09:50.000Z"},"geometry":{"type":"Point","coordinates":[33.8507065038712,-9.64367875509911]}},{"type":"Feature","properties":{"id":4418,"title":"Mpwapwa, Dodoma, Tanzania Mini Grids Project 08","status":"PUBLISHED","created":"2018","lastUpdated":"2018","lastActive":"no","area":69.68255741962724,"changesets":1926,"mappers":103,"roads":18.7990415103299,"buildings":25541,"edits":25683,"latest":"2018-05-19T20:41:29.000Z"},"geometry":{"type":"Point","coordinates":[36.4532594329466,-5.95045585855322]}},{"type":"Feature","properties":{"id":4387,"title":"Heru Shingo Ward, Kigoma, Tanzania Mini Grids Project 01","status":"PUBLISHED","created":"2018","lastUpdated":"2018","lastActive":"no","area":789.0955168862893,"changesets":1455,"mappers":37,"roads":4.58334806253399,"buildings":33003,"edits":33301,"latest":"2018-06-01T13:26:31.000Z"},"geometry":{"type":"Point","coordinates":[30.2968792423321,-4.12596556962405]}},{"type":"Feature","properties":{"id":4402,"title":"Karema Ward, Katavi, Tanzania Mini Grids Project 01","status":"PUBLISHED","created":"2018","lastUpdated":"2018","lastActive":"no","area":49.87575499116186,"changesets":83,"mappers":11,"roads":0,"buildings":1985,"edits":1985,"latest":"2018-04-12T09:55:03.000Z"},"geometry":{"type":"Point","coordinates":[30.4412659655361,-6.79922870485028]}},{"type":"Feature","properties":{"id":5548,"title":"Chali","status":"PUBLISHED","created":"2018","lastUpdated":"2018","lastActive":"no","area":293.026474967643,"changesets":0,"mappers":0,"roads":0,"buildings":0,"edits":0,"latest":null},"geometry":{"type":"Point","coordinates":[35.2630727303968,-6.26212970964754]}},{"type":"Feature","properties":{"id":5556,"title":"Kigwe","status":"PUBLISHED","created":"2018","lastUpdated":"2018","lastActive":"no","area":162.81242472936432,"changesets":1,"mappers":1,"roads":0,"buildings":2,"edits":2,"latest":"2018-12-06T16:28:42.000Z"},"geometry":{"type":"Point","coordinates":[35.5034119238305,-6.15149765637834]}},{"type":"Feature","properties":{"id":4392,"title":"Rungwe, Mbeya, Tanzania Mini Grids Project 01","status":"PUBLISHED","created":"2018","lastUpdated":"2018","lastActive":"no","area":1330.3320402972577,"changesets":2885,"mappers":74,"roads":21.3821929149524,"buildings":119621,"edits":120470,"latest":"2018-05-30T06:51:18.000Z"},"geometry":{"type":"Point","coordinates":[33.5980998902635,-9.19753847018188]}},{"type":"Feature","properties":{"id":5541,"title":"Babayu","status":"PUBLISHED","created":"2018","lastUpdated":"2018","lastActive":"no","area":291.1572465623741,"changesets":0,"mappers":0,"roads":0,"buildings":0,"edits":0,"latest":null},"geometry":{"type":"Point","coordinates":[35.6844455201668,-5.68286034293222]}},{"type":"Feature","properties":{"id":5533,"title":"zanka_pilot","status":"PUBLISHED","created":"2018","lastUpdated":"2018","lastActive":"no","area":332.82676510382277,"changesets":110,"mappers":17,"roads":0.0208284000809371,"buildings":291,"edits":294,"latest":"2018-11-22T12:32:58.000Z"},"geometry":{"type":"Point","coordinates":[35.8282202770526,-5.78331947358886]}},{"type":"Feature","properties":{"id":4377,"title":"Urambo, Tabora, Tanzania Mini Grids Project 09-10","status":"PUBLISHED","created":"2018","lastUpdated":"2018","lastActive":"no","area":1677.5206088742302,"changesets":1703,"mappers":67,"roads":0.363745706229784,"buildings":26610,"edits":26624,"latest":"2018-05-21T13:49:44.000Z"},"geometry":{"type":"Point","coordinates":[32.1987393372539,-4.49824794936506]}},{"type":"Feature","properties":{"id":4366,"title":"Urambo, Tabora, Tanzania Mini Grids Project 04","status":"PUBLISHED","created":"2018","lastUpdated":"2018","lastActive":"no","area":1540.7875686482291,"changesets":1920,"mappers":73,"roads":6.2619827819317,"buildings":42229,"edits":42283,"latest":"2018-04-23T12:45:52.000Z"},"geometry":{"type":"Point","coordinates":[31.8054731800531,-5.12467103545177]}},{"type":"Feature","properties":{"id":4082,"title":"Kigoma_1","status":"PUBLISHED","created":"2018","lastUpdated":"2018","lastActive":"no","area":3.220895758602432,"changesets":128,"mappers":5,"roads":0,"buildings":3113,"edits":3113,"latest":"2018-02-19T11:05:31.000Z"},"geometry":{"type":"Point","coordinates":[30.4406843233075,-6.82013200035033]}},{"type":"Feature","properties":{"id":4354,"title":"Urambo, Tabora, Tanzania Mini Grids Project 07","status":"PUBLISHED","created":"2018","lastUpdated":"2018","lastActive":"no","area":1417.644733786158,"changesets":1438,"mappers":66,"roads":0.235986987394966,"buildings":40728,"edits":40743,"latest":"2018-07-02T08:15:16.000Z"},"geometry":{"type":"Point","coordinates":[31.9202678045656,-4.79835296039164]}},{"type":"Feature","properties":{"id":4097,"title":"Kigoma_11","status":"PUBLISHED","created":"2018","lastUpdated":"2018","lastActive":"no","area":4.492849273495634,"changesets":215,"mappers":4,"roads":0,"buildings":5705,"edits":5705,"latest":"2018-02-09T07:23:31.000Z"},"geometry":{"type":"Point","coordinates":[29.8986551180688,-5.94544192098447]}},{"type":"Feature","properties":{"id":5558,"title":"Makanda","status":"PUBLISHED","created":"2018","lastUpdated":"2018","lastActive":"no","area":303.7760037608982,"changesets":9,"mappers":3,"roads":0,"buildings":22,"edits":28,"latest":"2018-11-29T21:06:37.000Z"},"geometry":{"type":"Point","coordinates":[35.3810498816351,-5.746704775747]}},{"type":"Feature","properties":{"id":3333,"title":"Missing Maps: Dar es Salaam - Ramani Huria 2.0 - 03","status":"ARCHIVED","created":"2017","lastUpdated":"2017","lastActive":"no","area":26.68103348646749,"changesets":949,"mappers":63,"roads":5.59493262404743,"buildings":14795,"edits":15208,"latest":"2017-08-07T13:24:09.000Z"},"geometry":{"type":"Point","coordinates":[39.1885728048629,-6.68648803044929]}},{"type":"Feature","properties":{"id":5554,"title":"Ibugule","status":"PUBLISHED","created":"2018","lastUpdated":"2018","lastActive":"no","area":216.3150509902929,"changesets":0,"mappers":0,"roads":0,"buildings":0,"edits":0,"latest":null},"geometry":{"type":"Point","coordinates":[35.5318205113061,-6.39091426956685]}},{"type":"Feature","properties":{"id":3331,"title":"Missing Maps: Dar es Salaam - Ramani Huria 2.0 - 01","status":"ARCHIVED","created":"2017","lastUpdated":"2017","lastActive":"no","area":21.198059977554916,"changesets":1016,"mappers":59,"roads":3.20397694021402,"buildings":11745,"edits":12359,"latest":"2017-09-13T06:44:46.000Z"},"geometry":{"type":"Point","coordinates":[39.1533126101187,-6.63201450487923]}},{"type":"Feature","properties":{"id":4084,"title":"Kigoma_3","status":"PUBLISHED","created":"2018","lastUpdated":"2018","lastActive":"no","area":5.097450161720606,"changesets":288,"mappers":6,"roads":2.31764270978854,"buildings":6302,"edits":6359,"latest":"2018-02-08T07:46:42.000Z"},"geometry":{"type":"Point","coordinates":[30.4069129893841,-6.74299494501321]}},{"type":"Feature","properties":{"id":5550,"title":"Chikola","status":"PUBLISHED","created":"2018","lastUpdated":"2018","lastActive":"no","area":364.54472047107805,"changesets":0,"mappers":0,"roads":0,"buildings":0,"edits":0,"latest":null},"geometry":{"type":"Point","coordinates":[35.3432190143094,-6.13969848411729]}},{"type":"Feature","properties":{"id":5539,"title":"mwitirika","status":"PUBLISHED","created":"2018","lastUpdated":"2018","lastActive":"no","area":310.08409917434227,"changesets":0,"mappers":0,"roads":0,"buildings":0,"edits":0,"latest":null},"geometry":{"type":"Point","coordinates":[35.6729879289732,-6.56534479236094]}},{"type":"Feature","properties":{"id":5544,"title":"mtitaa_pilot","status":"PUBLISHED","created":"2018","lastUpdated":"2018","lastActive":"no","area":184.51184663767475,"changesets":0,"mappers":0,"roads":0,"buildings":0,"edits":0,"latest":null},"geometry":{"type":"Point","coordinates":[35.544978622217,-6.47118101674341]}},{"type":"Feature","properties":{"id":5441,"title":"Kinondoni","status":"PUBLISHED","created":"2018","lastUpdated":"2018","lastActive":"no","area":1.9111633153129555,"changesets":723,"mappers":19,"roads":0.51286613158573,"buildings":5979,"edits":6448,"latest":"2018-11-09T12:51:55.000Z"},"geometry":{"type":"Point","coordinates":[39.270133890838,-6.78485592342873]}},{"type":"Feature","properties":{"id":5647,"title":"Tanzania missing buildings Siha District","status":"PUBLISHED","created":"2019","lastUpdated":"2019","lastActive":"yes","area":404.1893876351622,"changesets":15,"mappers":1,"roads":0,"buildings":211,"edits":211,"latest":"2019-01-10T20:00:14.000Z"},"geometry":{"type":"Point","coordinates":[37.0437639036429,-3.1655500182464]}},{"type":"Feature","properties":{"id":5397,"title":"TPDC_METEOR","status":"PUBLISHED","created":"2018","lastUpdated":"2018","lastActive":"no","area":0.11797338733636886,"changesets":94,"mappers":18,"roads":0.266615772031029,"buildings":517,"edits":536,"latest":"2018-11-01T12:33:09.000Z"},"geometry":{"type":"Point","coordinates":[39.2441458818339,-6.76148596392833]}},{"type":"Feature","properties":{"id":5387,"title":"Kagera Mikoroshoni_METEOR","status":"PUBLISHED","created":"2018","lastUpdated":"2018","lastActive":"no","area":0.08697368560971801,"changesets":267,"mappers":16,"roads":0.854564025781824,"buildings":1018,"edits":1290,"latest":"2018-10-26T11:50:08.000Z"},"geometry":{"type":"Point","coordinates":[39.2429037515631,-6.79943400787608]}},{"type":"Feature","properties":{"id":5395,"title":"Pwani 2_METEOR","status":"PUBLISHED","created":"2018","lastUpdated":"2018","lastActive":"no","area":0.3697493857621717,"changesets":0,"mappers":0,"roads":0,"buildings":0,"edits":0,"latest":null},"geometry":{"type":"Point","coordinates":[39.0994490443233,-6.90247043542125]}},{"type":"Feature","properties":{"id":5405,"title":"keko magurumbasi_METEOR","status":"PUBLISHED","created":"2018","lastUpdated":"2018","lastActive":"no","area":0.03630974064275755,"changesets":62,"mappers":8,"roads":0.307114787463726,"buildings":204,"edits":378,"latest":"2018-10-29T07:08:01.000Z"},"geometry":{"type":"Point","coordinates":[39.2738899567246,-6.83651914744131]}},{"type":"Feature","properties":{"id":5391,"title":"Kivule_METEOR","status":"PUBLISHED","created":"2018","lastUpdated":"2018","lastActive":"no","area":0.5583741907798839,"changesets":105,"mappers":10,"roads":1.83379910834755,"buildings":757,"edits":834,"latest":"2018-10-31T08:17:39.000Z"},"geometry":{"type":"Point","coordinates":[39.169724511382,-6.9352240012431]}},{"type":"Feature","properties":{"id":5466,"title":"Makongo","status":"PUBLISHED","created":"2018","lastUpdated":"2018","lastActive":"no","area":18.298105774811496,"changesets":15,"mappers":7,"roads":0.686712931545164,"buildings":68,"edits":90,"latest":"2018-11-19T12:55:00.000Z"},"geometry":{"type":"Point","coordinates":[39.195804874665,-6.75981768277186]}},{"type":"Feature","properties":{"id":5422,"title":"Tanzania Mbinga Test","status":"ARCHIVED","created":"2018","lastUpdated":"2018","lastActive":"no","area":0.09678392301278596,"changesets":0,"mappers":0,"roads":0,"buildings":0,"edits":0,"latest":null},"geometry":{"type":"Point","coordinates":[35.0530360761986,-10.9293321539577]}},{"type":"Feature","properties":{"id":5389,"title":"Karakata_METEOR","status":"PUBLISHED","created":"2018","lastUpdated":"2018","lastActive":"no","area":0.06278618638144412,"changesets":169,"mappers":16,"roads":0.00354592966511319,"buildings":653,"edits":657,"latest":"2018-10-29T08:18:50.000Z"},"geometry":{"type":"Point","coordinates":[39.2067495928809,-6.8487382427679]}},{"type":"Feature","properties":{"id":5371,"title":"DAR Wards_METEOR","status":"PUBLISHED","created":"2018","lastUpdated":"2018","lastActive":"no","area":1.4384185421356332,"changesets":132,"mappers":16,"roads":6.29776572367043,"buildings":1424,"edits":1694,"latest":"2018-10-31T14:01:56.000Z"},"geometry":{"type":"Point","coordinates":[39.2733530998677,-6.83014324994139]}},{"type":"Feature","properties":{"id":5546,"title":"msisi_pilot","status":"PUBLISHED","created":"2018","lastUpdated":"2018","lastActive":"no","area":299.23019148117373,"changesets":0,"mappers":0,"roads":0,"buildings":0,"edits":0,"latest":null},"geometry":{"type":"Point","coordinates":[35.6507594031343,-5.81195430714583]}},{"type":"Feature","properties":{"id":5326,"title":"Gerezani 2","status":"PUBLISHED","created":"2018","lastUpdated":"2018","lastActive":"no","area":0.1378230000413372,"changesets":53,"mappers":16,"roads":0.00932165201596649,"buildings":205,"edits":254,"latest":"2018-10-05T10:46:52.000Z"},"geometry":{"type":"Point","coordinates":[39.2777012004308,-6.82897780332198]}},{"type":"Feature","properties":{"id":5321,"title":"Sinza","status":"PUBLISHED","created":"2018","lastUpdated":"2018","lastActive":"no","area":3.361250557091652,"changesets":797,"mappers":22,"roads":1.58255838155942,"buildings":10827,"edits":12143,"latest":"2018-10-12T08:09:26.000Z"},"geometry":{"type":"Point","coordinates":[39.2227970545496,-6.78373809051709]}},{"type":"Feature","properties":{"id":5318,"title":"Tandale","status":"PUBLISHED","created":"2018","lastUpdated":"2018","lastActive":"no","area":1.1670695349839497,"changesets":675,"mappers":19,"roads":1.999609349464,"buildings":5503,"edits":7596,"latest":"2018-10-22T11:33:48.000Z"},"geometry":{"type":"Point","coordinates":[39.2424390073453,-6.79411458257302]}},{"type":"Feature","properties":{"id":5223,"title":"Upanga magharibi 2","status":"PUBLISHED","created":"2018","lastUpdated":"2018","lastActive":"no","area":1.9683936895380227,"changesets":244,"mappers":21,"roads":0.182942871925768,"buildings":1988,"edits":2138,"latest":"2018-10-30T14:15:45.000Z"},"geometry":{"type":"Point","coordinates":[39.2743824403815,-6.80448984469261]}},{"type":"Feature","properties":{"id":5215,"title":"Ndugumbi","status":"PUBLISHED","created":"2018","lastUpdated":"2018","lastActive":"no","area":1.3231030262596133,"changesets":840,"mappers":18,"roads":9.43928187389173,"buildings":5114,"edits":6358,"latest":"2018-11-08T09:45:15.000Z"},"geometry":{"type":"Point","coordinates":[39.2482813559023,-6.80125797617356]}},{"type":"Feature","properties":{"id":5532,"title":"Bahi_Pilot","status":"PUBLISHED","created":"2018","lastUpdated":"2018","lastActive":"no","area":332.82676510382277,"changesets":1,"mappers":1,"roads":159.338500420196,"buildings":0,"edits":2,"latest":"2018-11-22T18:13:15.000Z"},"geometry":{"type":"Point","coordinates":[35.8282202770526,-5.78331947358886]}},{"type":"Feature","properties":{"id":5192,"title":"Mabibo","status":"PUBLISHED","created":"2018","lastUpdated":"2018","lastActive":"no","area":4.059450716198464,"changesets":2230,"mappers":25,"roads":6.02412742139535,"buildings":19921,"edits":24255,"latest":"2018-10-03T07:34:20.000Z"},"geometry":{"type":"Point","coordinates":[39.2256157177568,-6.80974155735172]}},{"type":"Feature","properties":{"id":5202,"title":"Mbagala","status":"PUBLISHED","created":"2018","lastUpdated":"2018","lastActive":"no","area":3.357497597645662,"changesets":614,"mappers":22,"roads":0.550372073861051,"buildings":3452,"edits":3769,"latest":"2018-10-23T14:01:26.000Z"},"geometry":{"type":"Point","coordinates":[39.2642484046761,-6.89854569609534]}},{"type":"Feature","properties":{"id":5394,"title":"Mtakuja_METEOR","status":"PUBLISHED","created":"2018","lastUpdated":"2018","lastActive":"no","area":0.12654256421525886,"changesets":111,"mappers":10,"roads":0.154747279215324,"buildings":1165,"edits":1365,"latest":"2018-10-26T12:56:08.000Z"},"geometry":{"type":"Point","coordinates":[39.2311664932879,-6.84526241829827]}},{"type":"Feature","properties":{"id":2361,"title":"Tanzania Development Trust: Tabora district mapping project","status":"PUBLISHED","created":"2016","lastUpdated":"2018","lastActive":"no","area":11331.719987775972,"changesets":11664,"mappers":420,"roads":28508.3138575684,"buildings":316326,"edits":517728,"latest":"2018-09-05T04:26:28.000Z"},"geometry":{"type":"Point","coordinates":[32.9311624412335,-5.02219301254299]}},{"type":"Feature","properties":{"id":5147,"title":"Buguruni","status":"PUBLISHED","created":"2018","lastUpdated":"2018","lastActive":"no","area":3.4752018850888398,"changesets":1320,"mappers":39,"roads":4.89305254742563,"buildings":15862,"edits":19963,"latest":"2018-09-11T11:11:16.000Z"},"geometry":{"type":"Point","coordinates":[39.2449507288679,-6.83166163112609]}},{"type":"Feature","properties":{"id":5156,"title":"Sombetini","status":"PUBLISHED","created":"2018","lastUpdated":"2018","lastActive":"no","area":2.158067893428719,"changesets":293,"mappers":79,"roads":0.414735952058103,"buildings":8073,"edits":8138,"latest":"2018-09-07T20:15:20.000Z"},"geometry":{"type":"Point","coordinates":[36.6679931001053,-3.38106582367836]}},{"type":"Feature","properties":{"id":5132,"title":"Mbeya","status":"PUBLISHED","created":"2018","lastUpdated":"2018","lastActive":"no","area":32.205542095178586,"changesets":1096,"mappers":149,"roads":10.112548747506,"buildings":22237,"edits":23434,"latest":"2018-09-21T09:26:09.000Z"},"geometry":{"type":"Point","coordinates":[33.4905580602805,-8.88468840419366]}},{"type":"Feature","properties":{"id":5154,"title":"Tabata","status":"PUBLISHED","created":"2018","lastUpdated":"2018","lastActive":"no","area":4.474362552715539,"changesets":1339,"mappers":40,"roads":3.34133572011009,"buildings":16310,"edits":18457,"latest":"2018-09-18T12:54:13.000Z"},"geometry":{"type":"Point","coordinates":[39.2250548605046,-6.82841398190697]}},{"type":"Feature","properties":{"id":5030,"title":"Mzimuni","status":"PUBLISHED","created":"2018","lastUpdated":"2018","lastActive":"no","area":1.2272442307232991,"changesets":716,"mappers":28,"roads":1.03965932616205,"buildings":6152,"edits":7023,"latest":"2018-08-31T11:15:01.000Z"},"geometry":{"type":"Point","coordinates":[39.2573050529511,-6.81085336649721]}},{"type":"Feature","properties":{"id":5028,"title":"Keko","status":"PUBLISHED","created":"2018","lastUpdated":"2018","lastActive":"no","area":1.4649293626540205,"changesets":1033,"mappers":36,"roads":3.96567970367937,"buildings":8564,"edits":10636,"latest":"2018-08-29T12:46:37.000Z"},"geometry":{"type":"Point","coordinates":[39.275538576061,-6.83599209301762]}},{"type":"Feature","properties":{"id":5022,"title":"Mchikichini","status":"PUBLISHED","created":"2018","lastUpdated":"2018","lastActive":"no","area":1.696085516193505,"changesets":668,"mappers":38,"roads":2.21692032106359,"buildings":7214,"edits":8160,"latest":"2018-08-24T13:48:26.000Z"},"geometry":{"type":"Point","coordinates":[39.2653533791413,-6.81925346992819]}},{"type":"Feature","properties":{"id":5149,"title":"Makurumla","status":"PUBLISHED","created":"2018","lastUpdated":"2018","lastActive":"no","area":1.5565034409898066,"changesets":6,"mappers":3,"roads":0.155136909614126,"buildings":44,"edits":51,"latest":"2018-09-27T08:15:11.000Z"},"geometry":{"type":"Point","coordinates":[39.2425747094317,-6.80590884032526]}},{"type":"Feature","properties":{"id":5016,"title":"Kariakoo2","status":"PUBLISHED","created":"2018","lastUpdated":"2018","lastActive":"no","area":0.41684912948919983,"changesets":253,"mappers":36,"roads":0.0279580739560328,"buildings":1324,"edits":2341,"latest":"2018-10-03T16:17:27.000Z"},"geometry":{"type":"Point","coordinates":[39.2756281624855,-6.82026480265793]}},{"type":"Feature","properties":{"id":4976,"title":"Ramani Huria and GreenWaste Colaboration","status":"PUBLISHED","created":"2018","lastUpdated":"2018","lastActive":"no","area":0.8606536928715187,"changesets":452,"mappers":12,"roads":0.303793935716114,"buildings":1699,"edits":2153,"latest":"2018-08-09T09:46:52.000Z"},"geometry":{"type":"Point","coordinates":[39.2825405412206,-6.82300659119486]}},{"type":"Feature","properties":{"id":2609,"title":"Tanzania Development Trust: Maswa district mapping project part 2","status":"ARCHIVED","created":"2017","lastUpdated":"2017","lastActive":"no","area":562.8015857815028,"changesets":3334,"mappers":121,"roads":2584.15851997412,"buildings":32479,"edits":61974,"latest":"2017-07-23T02:02:02.000Z"},"geometry":{"type":"Point","coordinates":[33.8216815175903,-3.13671054186429]}},{"type":"Feature","properties":{"id":1788,"title":"Tanzania Development Trust: Serengeti district mapping project","status":"ARCHIVED","created":"2016","lastUpdated":"2018","lastActive":"no","area":13584.124479203561,"changesets":22885,"mappers":911,"roads":32070.8722414285,"buildings":416061,"edits":635374,"latest":"2018-10-07T14:50:39.000Z"},"geometry":{"type":"Point","coordinates":[34.6535890667968,-1.94252940124096]}},{"type":"Feature","properties":{"id":1066,"title":"Missing Maps: Kigoma region towns, Burundi / Tanzania","status":"ARCHIVED","created":"2015","lastUpdated":"2015","lastActive":"no","area":213.63718639264667,"changesets":2,"mappers":1,"roads":1.68154796651448,"buildings":231,"edits":245,"latest":"2015-09-27T23:38:29.000Z"},"geometry":{"type":"Point","coordinates":[29.6664188192449,-4.72722002716652]}},{"type":"Feature","properties":{"id":1462,"title":"MSD & JSI/USAID Tanzania Road Import - Rukwa and Katavi regions","status":"PUBLISHED","created":"2016","lastUpdated":"2016","lastActive":"no","area":23601.174016426638,"changesets":46,"mappers":13,"roads":2965.50978720348,"buildings":26,"edits":3295,"latest":"2016-11-09T18:57:31.000Z"},"geometry":{"type":"Point","coordinates":[31.386548500474,-7.66185013891424]}},{"type":"Feature","properties":{"id":4704,"title":"Songea Rural, Ruvuma, Tanzania Mini Grids Project 03","status":"PUBLISHED","created":"2018","lastUpdated":"2018","lastActive":"no","area":2223.7007441409824,"changesets":559,"mappers":53,"roads":1.3997523367762,"buildings":4565,"edits":4600,"latest":"2018-07-26T11:48:10.000Z"},"geometry":{"type":"Point","coordinates":[35.4845429905191,-10.0895331115736]}},{"type":"Feature","properties":{"id":4623,"title":"Rufiji, Pwani, Tanzania Mini Grids Project 03","status":"PUBLISHED","created":"2018","lastUpdated":"2018","lastActive":"no","area":1539.3249459809983,"changesets":1141,"mappers":46,"roads":0.239674830143507,"buildings":25465,"edits":25525,"latest":"2018-06-13T07:45:23.000Z"},"geometry":{"type":"Point","coordinates":[39.2743309681675,-7.88542189986384]}},{"type":"Feature","properties":{"id":4556,"title":"Manyoni, Singida, Tanzania Mini Grids Project 06","status":"PUBLISHED","created":"2018","lastUpdated":"2018","lastActive":"no","area":3110.180831968628,"changesets":1901,"mappers":69,"roads":0.0988541090635963,"buildings":35125,"edits":35164,"latest":"2018-07-11T13:29:54.000Z"},"geometry":{"type":"Point","coordinates":[33.9208946952443,-6.69112747679568]}},{"type":"Feature","properties":{"id":3203,"title":"Ikuna Ward Mapping Project","status":"PUBLISHED","created":"2017","lastUpdated":"2018","lastActive":"no","area":224.51296025612464,"changesets":335,"mappers":7,"roads":742.813559438956,"buildings":4401,"edits":9943,"latest":"2017-10-31T12:28:59.000Z"},"geometry":{"type":"Point","coordinates":[34.9321748000936,-9.19082600920363]}},{"type":"Feature","properties":{"id":3496,"title":"Missing Maps: Dar es Salaam - Ramani Huria 2.0 - 38","status":"PUBLISHED","created":"2017","lastUpdated":"2018","lastActive":"no","area":41.1920610625183,"changesets":5472,"mappers":73,"roads":78.4353169552313,"buildings":94858,"edits":120253,"latest":"2017-11-10T12:46:09.000Z"},"geometry":{"type":"Point","coordinates":[39.2408830614877,-6.80049765582427]}},{"type":"Feature","properties":{"id":4751,"title":"Njombe Region, Tanzania Mini Grids Project 05","status":"PUBLISHED","created":"2018","lastUpdated":"2018","lastActive":"no","area":1958.8180766909427,"changesets":1262,"mappers":33,"roads":5.76234886943838,"buildings":59931,"edits":60292,"latest":"2018-06-22T07:51:23.000Z"},"geometry":{"type":"Point","coordinates":[34.73166445996,-9.30709784418002]}},{"type":"Feature","properties":{"id":3410,"title":"Missing Maps: Dar es Salaam - Ramani Huria 2.0 - 24","status":"PUBLISHED","created":"2017","lastUpdated":"2018","lastActive":"no","area":178.71077034656207,"changesets":1325,"mappers":49,"roads":0.0922744730575409,"buildings":7624,"edits":7650,"latest":"2017-08-16T00:47:29.000Z"},"geometry":{"type":"Point","coordinates":[39.4916315242413,-6.96378121588068]}},{"type":"Feature","properties":{"id":5155,"title":"Temeke","status":"PUBLISHED","created":"2018","lastUpdated":"2018","lastActive":"no","area":2.940691262220834,"changesets":949,"mappers":23,"roads":0.984664545466694,"buildings":7916,"edits":9508,"latest":"2018-10-08T14:01:02.000Z"},"geometry":{"type":"Point","coordinates":[39.2555695686437,-6.85004422213022]}},{"type":"Feature","properties":{"id":5159,"title":"Mbeya","status":"PUBLISHED","created":"2018","lastUpdated":"2018","lastActive":"no","area":8.421146412497725,"changesets":887,"mappers":139,"roads":3.09824799104305,"buildings":6638,"edits":6994,"latest":"2018-09-07T08:19:25.000Z"},"geometry":{"type":"Point","coordinates":[33.4236752858494,-8.89458266134112]}},{"type":"Feature","properties":{"id":2261,"title":"Tanzania Development Trust: Serengeti district mapping project part 2","status":"PUBLISHED","created":"2016","lastUpdated":"2019","lastActive":"no","area":11207.631576365555,"changesets":34034,"mappers":1633,"roads":29673.4432013087,"buildings":605345,"edits":921727,"latest":"2019-01-02T10:22:31.000Z"},"geometry":{"type":"Point","coordinates":[33.6631417496372,-1.71314326443619]}},{"type":"Feature","properties":{"id":4358,"title":"Tanzania Development Trust: Mwanza West Community Mapping Project","status":"PUBLISHED","created":"2018","lastUpdated":"2019","lastActive":"no","area":1290.9455273129195,"changesets":20269,"mappers":1236,"roads":9858.70177487427,"buildings":173275,"edits":240137,"latest":"2019-01-04T05:42:20.000Z"},"geometry":{"type":"Point","coordinates":[32.539528576888,-2.61529690008607]}},{"type":"Feature","properties":{"id":4386,"title":"Igalula Ward, Kigoma, Tanzania Mini Grids Project 01","status":"PUBLISHED","created":"2018","lastUpdated":"2018","lastActive":"no","area":1169.7270185651328,"changesets":912,"mappers":37,"roads":0.00817977234302703,"buildings":9782,"edits":9783,"latest":"2018-04-17T14:00:26.000Z"},"geometry":{"type":"Point","coordinates":[30.1160375593605,-6.04163687332309]}},{"type":"Feature","properties":{"id":4179,"title":"Itona_Kilosa","status":"PUBLISHED","created":"2018","lastUpdated":"2018","lastActive":"no","area":741.6959938125862,"changesets":409,"mappers":55,"roads":1.35885332610885,"buildings":3691,"edits":3744,"latest":"2018-04-11T07:21:08.000Z"},"geometry":{"type":"Point","coordinates":[35.5313455011513,-8.5391899246068]}},{"type":"Feature","properties":{"id":3993,"title":"Tanzania Development Trust:  Mwanza East","status":"PUBLISHED","created":"2018","lastUpdated":"2019","lastActive":"yes","area":6942.748601206665,"changesets":9937,"mappers":443,"roads":11192.2099815325,"buildings":174043,"edits":237618,"latest":"2019-01-10T17:24:54.000Z"},"geometry":{"type":"Point","coordinates":[33.1460082996701,-2.93920908459836]}},{"type":"Feature","properties":{"id":3699,"title":"Missing Maps: Temeke - Data Zetu","status":"PUBLISHED","created":"2017","lastUpdated":"2018","lastActive":"no","area":14.051390146474496,"changesets":931,"mappers":30,"roads":58.5254100191776,"buildings":29137,"edits":33372,"latest":"2018-03-09T20:29:21.000Z"},"geometry":{"type":"Point","coordinates":[39.2689216235374,-6.89604721588135]}},{"type":"Feature","properties":{"id":4824,"title":"Zanzibar-Digitization","status":"PUBLISHED","created":"2018","lastUpdated":"2018","lastActive":"no","area":448.3142744445994,"changesets":603,"mappers":31,"roads":4.54690549735974,"buildings":12573,"edits":12893,"latest":"2018-08-17T09:34:31.000Z"},"geometry":{"type":"Point","coordinates":[39.2874808727826,-5.91212678450974]}},{"type":"Feature","properties":{"id":3968,"title":"Tanzania Development Trust: Mbozi district community mapping project","status":"PUBLISHED","created":"2017","lastUpdated":"2018","lastActive":"no","area":270.15833206747897,"changesets":2288,"mappers":250,"roads":2547.11002163608,"buildings":13884,"edits":37565,"latest":"2018-12-25T22:28:07.000Z"},"geometry":{"type":"Point","coordinates":[32.7810690177479,-9.02055139563406]}},{"type":"Feature","properties":{"id":834,"title":"Serengeti National Park","status":"PUBLISHED","created":"2015","lastUpdated":"2017","lastActive":"no","area":13370.038280033767,"changesets":165,"mappers":19,"roads":648.970986560487,"buildings":336,"edits":1752,"latest":"2017-10-23T10:50:06.000Z"},"geometry":{"type":"Point","coordinates":[34.781220904536,-2.33150605571682]}},{"type":"Feature","properties":{"id":1904,"title":"Peace Corps Tanzania -- Mnavira","status":"ARCHIVED","created":"2016","lastUpdated":"2016","lastActive":"no","area":2.392296820488899,"changesets":67,"mappers":12,"roads":34.4734407565492,"buildings":1089,"edits":1629,"latest":"2016-07-19T15:50:21.000Z"},"geometry":{"type":"Point","coordinates":[39.2554909570247,-11.0739917532281]}},{"type":"Feature","properties":{"id":4076,"title":"Shinyanga_Tabora_Geita","status":"PUBLISHED","created":"2018","lastUpdated":"2018","lastActive":"no","area":3994.8430365253507,"changesets":50,"mappers":14,"roads":0.000161002645333808,"buildings":2248,"edits":2251,"latest":"2018-08-23T03:54:33.000Z"},"geometry":{"type":"Point","coordinates":[31.8409955510823,-4.30414913053918]}},{"type":"Feature","properties":{"id":3826,"title":"Tanzania Development Trust: Ihanda Community Mapping Project","status":"ARCHIVED","created":"2017","lastUpdated":"2018","lastActive":"no","area":84.22986494226826,"changesets":308,"mappers":18,"roads":373.737137847268,"buildings":3803,"edits":6185,"latest":"2018-06-21T20:32:04.000Z"},"geometry":{"type":"Point","coordinates":[31.088492540636,-1.549140845654]}},{"type":"Feature","properties":{"id":3319,"title":"Tanzania Development Trust and Institute for Rural Development Planning: Mvomero district student mapping project ","status":"PUBLISHED","created":"2017","lastUpdated":"2018","lastActive":"no","area":1439.4586268120136,"changesets":1014,"mappers":18,"roads":314.284915147335,"buildings":908,"edits":2244,"latest":"2018-11-27T18:18:52.000Z"},"geometry":{"type":"Point","coordinates":[37.5490091358043,-6.45241297893469]}},{"type":"Feature","properties":{"id":2142,"title":"Earthquake in Uganda and Tanzania, 10/09/2016 - Road Network Mapping","status":"ARCHIVED","created":"2016","lastUpdated":"2016","lastActive":"no","area":4547.282461398547,"changesets":2055,"mappers":153,"roads":8021.40300882304,"buildings":8543,"edits":65009,"latest":"2016-09-29T20:47:06.000Z"},"geometry":{"type":"Point","coordinates":[31.5381716128231,-1.0830246554389]}},{"type":"Feature","properties":{"id":2149,"title":"Earthquake in Uganda and Tanzania, 10/09/2016 - Bukoba Buildings Mapping","status":"ARCHIVED","created":"2016","lastUpdated":"2016","lastActive":"no","area":31.690178701237453,"changesets":993,"mappers":43,"roads":31.6646699010167,"buildings":26227,"edits":27057,"latest":"2017-01-06T13:44:11.000Z"},"geometry":{"type":"Point","coordinates":[31.8096442169796,-1.32589362270035]}},{"type":"Feature","properties":{"id":955,"title":"Missing Maps: Ushirombo, Tanzania","status":"ARCHIVED","created":"2015","lastUpdated":"2017","lastActive":"no","area":734.2330870305057,"changesets":5658,"mappers":205,"roads":2686.98537358062,"buildings":25007,"edits":61755,"latest":"2015-10-29T23:37:03.000Z"},"geometry":{"type":"Point","coordinates":[31.8893884959412,-3.44082642084493]}},{"type":"Feature","properties":{"id":2159,"title":"Earthquake in Uganda and Tanzania, 10/09/2016 - NW of Bukoba Buildings Mapping","status":"ARCHIVED","created":"2016","lastUpdated":"2016","lastActive":"no","area":35.25230685743545,"changesets":692,"mappers":35,"roads":17.305928804687,"buildings":7977,"edits":8616,"latest":"2016-09-19T09:02:48.000Z"},"geometry":{"type":"Point","coordinates":[31.764514331462,-1.30982429531606]}},{"type":"Feature","properties":{"id":2177,"title":"Earthquake in Uganda and Tanzania, 10/09/2016 - SE of Epicenter Buildings Mapping","status":"ARCHIVED","created":"2016","lastUpdated":"2016","lastActive":"no","area":40.23315767364361,"changesets":615,"mappers":44,"roads":80.1324630799427,"buildings":4510,"edits":6507,"latest":"2016-09-29T09:44:41.000Z"},"geometry":{"type":"Point","coordinates":[31.6705138437158,-1.26898587395043]}},{"type":"Feature","properties":{"id":2124,"title":"Untitled project","status":"ARCHIVED","created":"2016","lastUpdated":"2016","lastActive":"no","area":15.59172030179052,"changesets":0,"mappers":0,"roads":0,"buildings":0,"edits":0,"latest":null},"geometry":{"type":"Point","coordinates":[39.2272702302774,-6.72482139604585]}},{"type":"Feature","properties":{"id":4336,"title":"Tanzania Development Trust: Mingoyo Community Mapping Project","status":"ARCHIVED","created":"2018","lastUpdated":"2018","lastActive":"no","area":6.093244915676354,"changesets":452,"mappers":71,"roads":108.978266720093,"buildings":3373,"edits":5105,"latest":"2018-03-25T17:50:56.000Z"},"geometry":{"type":"Point","coordinates":[39.6150235515117,-10.1073176624119]}},{"type":"Feature","properties":{"id":3903,"title":"PEPFAR TANZANIA: GEITA DC","status":"PUBLISHED","created":"2017","lastUpdated":"2018","lastActive":"no","area":4738.968040349855,"changesets":5705,"mappers":275,"roads":3185.90199833963,"buildings":61057,"edits":85259,"latest":"2018-11-18T06:22:39.000Z"},"geometry":{"type":"Point","coordinates":[32.1742010245843,-2.86754820690531]}},{"type":"Feature","properties":{"id":4355,"title":"Urambo, Tabora, Tanzania Mini Grids Project 08","status":"PUBLISHED","created":"2018","lastUpdated":"2018","lastActive":"no","area":1512.9535222617567,"changesets":1803,"mappers":62,"roads":0.0539411172980745,"buildings":55003,"edits":55009,"latest":"2018-06-29T06:38:59.000Z"},"geometry":{"type":"Point","coordinates":[32.0314904614418,-4.67837737836096]}},{"type":"Feature","properties":{"id":4282,"title":"Tanzania Development Trust: Kamishango Community Mapping Project","status":"ARCHIVED","created":"2018","lastUpdated":"2018","lastActive":"no","area":9.427409216356606,"changesets":237,"mappers":26,"roads":63.4951655647916,"buildings":946,"edits":1796,"latest":"2018-03-27T14:29:57.000Z"},"geometry":{"type":"Point","coordinates":[31.6140883568513,-1.8374625035104]}},{"type":"Feature","properties":{"id":4294,"title":"Tanzania Development Trust: Mubunda Muleba Community Mapping Project","status":"ARCHIVED","created":"2018","lastUpdated":"2018","lastActive":"no","area":7.587230914571072,"changesets":306,"mappers":43,"roads":177.651635751973,"buildings":1516,"edits":2786,"latest":"2018-03-16T04:45:19.000Z"},"geometry":{"type":"Point","coordinates":[31.5148740880789,-1.94608709963417]}},{"type":"Feature","properties":{"id":4323,"title":"Tanzania Development Trust: Simiyu South","status":"PUBLISHED","created":"2018","lastUpdated":"2019","lastActive":"no","area":3977.4740524717954,"changesets":7834,"mappers":557,"roads":5797.80179388753,"buildings":93505,"edits":112500,"latest":"2019-01-08T18:28:42.000Z"},"geometry":{"type":"Point","coordinates":[34.3684346241635,-3.14466084541383]}},{"type":"Feature","properties":{"id":2111,"title":"MSD & JSI/USAID Tanzania Road Import - Mbeya region","status":"PUBLISHED","created":"2016","lastUpdated":"2016","lastActive":"no","area":19769.484038509396,"changesets":79,"mappers":5,"roads":2211.37645137462,"buildings":3314,"edits":7568,"latest":"2016-10-05T18:18:41.000Z"},"geometry":{"type":"Point","coordinates":[33.156706012806,-8.77001626949037]}},{"type":"Feature","properties":{"id":4326,"title":"Tanzania Development Trust: Chamchuzi Karagwe Community Mapping Project","status":"ARCHIVED","created":"2018","lastUpdated":"2018","lastActive":"no","area":14.620352225319428,"changesets":96,"mappers":13,"roads":118.753544967722,"buildings":625,"edits":1031,"latest":"2018-03-18T21:53:31.000Z"},"geometry":{"type":"Point","coordinates":[30.8657918691606,-1.79784583007795]}},{"type":"Feature","properties":{"id":4334,"title":"Tanzania Development Trust: Ihemi Iringa Community Mapping Project","status":"ARCHIVED","created":"2018","lastUpdated":"2018","lastActive":"no","area":17.979652120471023,"changesets":138,"mappers":17,"roads":162.956597880068,"buildings":1531,"edits":2481,"latest":"2018-03-20T18:15:43.000Z"},"geometry":{"type":"Point","coordinates":[35.5059379677161,-8.01149565167227]}},{"type":"Feature","properties":{"id":4324,"title":"Tanzania Development Trust: Nyakaiga Karagwe Community Mapping Project","status":"ARCHIVED","created":"2018","lastUpdated":"2018","lastActive":"no","area":12.111231176337705,"changesets":103,"mappers":12,"roads":99.5600341898669,"buildings":1190,"edits":1678,"latest":"2018-03-18T16:20:36.000Z"},"geometry":{"type":"Point","coordinates":[30.9630721040928,-1.72913994836662]}},{"type":"Feature","properties":{"id":4353,"title":"Urambo, Tabora, Tanzania Mini Grids Project 06","status":"PUBLISHED","created":"2018","lastUpdated":"2018","lastActive":"no","area":1555.7313427834936,"changesets":2204,"mappers":67,"roads":0.0376777707116761,"buildings":58216,"edits":58229,"latest":"2018-06-29T06:36:08.000Z"},"geometry":{"type":"Point","coordinates":[31.8599232080963,-4.91518059883278]}},{"type":"Feature","properties":{"id":3666,"title":"Zanzibar Roads - Unguja Island - 02","status":"PUBLISHED","created":"2017","lastUpdated":"2017","lastActive":"no","area":467.0999763333136,"changesets":182,"mappers":13,"roads":1127.1061948184,"buildings":5,"edits":6570,"latest":"2017-10-04T08:29:26.000Z"},"geometry":{"type":"Point","coordinates":[39.2879567596863,-5.91889676940709]}},{"type":"Feature","properties":{"id":3670,"title":"Zanzibar Roads - Unguja Island - 03","status":"PUBLISHED","created":"2017","lastUpdated":"2018","lastActive":"no","area":891.0473088683418,"changesets":412,"mappers":18,"roads":2063.39671273259,"buildings":162,"edits":11431,"latest":"2018-09-29T05:14:47.000Z"},"geometry":{"type":"Point","coordinates":[39.4232119996911,-6.23876844212124]}},{"type":"Feature","properties":{"id":4376,"title":"Urambo, Tabora, Tanzania Mini Grids Project 01-02","status":"PUBLISHED","created":"2018","lastUpdated":"2018","lastActive":"no","area":2032.586550505636,"changesets":2264,"mappers":60,"roads":0.977625727876198,"buildings":26878,"edits":26920,"latest":"2018-06-19T08:37:22.000Z"},"geometry":{"type":"Point","coordinates":[31.7287992798091,-5.3745816051939]}},{"type":"Feature","properties":{"id":3698,"title":"Missing Maps: Kyela - Data Zetu","status":"PUBLISHED","created":"2017","lastUpdated":"2018","lastActive":"no","area":251.55720854707542,"changesets":802,"mappers":12,"roads":5.58626698624379,"buildings":29269,"edits":29469,"latest":"2018-07-19T11:51:17.000Z"},"geometry":{"type":"Point","coordinates":[33.8935261689772,-9.52003925109173]}},{"type":"Feature","properties":{"id":2125,"title":"Missing Maps: Dar es Salaam - Ramani Huria 7","status":"PUBLISHED","created":"2016","lastUpdated":"2017","lastActive":"no","area":15.59172030179052,"changesets":681,"mappers":54,"roads":23.3546858581493,"buildings":15759,"edits":16703,"latest":"2017-12-11T17:19:19.000Z"},"geometry":{"type":"Point","coordinates":[39.2272702302774,-6.72482139604585]}},{"type":"Feature","properties":{"id":4436,"title":"Mbulu Center Village, Tanzania Mini Grids Project 01","status":"PUBLISHED","created":"2018","lastUpdated":"2018","lastActive":"no","area":12.606083526364179,"changesets":134,"mappers":33,"roads":0.0184481585815086,"buildings":1409,"edits":1446,"latest":"2018-04-20T09:10:43.000Z"},"geometry":{"type":"Point","coordinates":[33.0464779854459,-8.95939155015172]}},{"type":"Feature","properties":{"id":1068,"title":"Missing Maps: Nyarugusu Refugee Camp","status":"ARCHIVED","created":"2015","lastUpdated":"2016","lastActive":"no","area":30.6380293127976,"changesets":1829,"mappers":28,"roads":137.084034918248,"buildings":9461,"edits":10370,"latest":"2016-02-01T22:20:10.000Z"},"geometry":{"type":"Point","coordinates":[30.3869401669017,-4.21942756911438]}},{"type":"Feature","properties":{"id":5529,"title":"Tanzania missing buildings Simanjiro District","status":"PUBLISHED","created":"2018","lastUpdated":"2019","lastActive":"yes","area":1446.0821011615285,"changesets":5377,"mappers":366,"roads":453.775786954935,"buildings":37063,"edits":38309,"latest":"2019-01-10T18:00:24.000Z"},"geometry":{"type":"Point","coordinates":[36.977133550602,-4.08798441021924]}},{"type":"Feature","properties":{"id":3937,"title":"Ardhi University: Housing Development - Arusha City","status":"PUBLISHED","created":"2017","lastUpdated":"2018","lastActive":"no","area":28.84666648523269,"changesets":1282,"mappers":38,"roads":22.6209379906767,"buildings":3678,"edits":3856,"latest":"2018-10-19T19:52:37.000Z"},"geometry":{"type":"Point","coordinates":[36.8469816006829,-3.39200788314546]}},{"type":"Feature","properties":{"id":4102,"title":"Kigoma_15","status":"PUBLISHED","created":"2018","lastUpdated":"2018","lastActive":"no","area":1.4561334248441051,"changesets":36,"mappers":5,"roads":0.613262345810854,"buildings":921,"edits":929,"latest":"2018-02-06T11:58:55.000Z"},"geometry":{"type":"Point","coordinates":[29.7539727931363,-5.41871598951743]}},{"type":"Feature","properties":{"id":3971,"title":"Tanzania Development Trust: 2nd Mtwara Community Mapping Project","status":"ARCHIVED","created":"2018","lastUpdated":"2018","lastActive":"no","area":98.24692106163043,"changesets":687,"mappers":24,"roads":511.802625732125,"buildings":11183,"edits":19631,"latest":"2018-06-22T19:53:56.000Z"},"geometry":{"type":"Point","coordinates":[39.428959871461,-10.8447995271352]}},{"type":"Feature","properties":{"id":4068,"title":"Kagera_Goziba","status":"PUBLISHED","created":"2018","lastUpdated":"2018","lastActive":"no","area":1.2825061201820658,"changesets":1,"mappers":1,"roads":0,"buildings":0,"edits":0,"latest":"2018-01-27T17:01:56.000Z"},"geometry":{"type":"Point","coordinates":[32.6139163551729,-1.47155678215259]}},{"type":"Feature","properties":{"id":4072,"title":"kagera_3","status":"PUBLISHED","created":"2018","lastUpdated":"2018","lastActive":"no","area":5.425110699350517,"changesets":66,"mappers":4,"roads":0,"buildings":1436,"edits":1436,"latest":"2018-01-30T06:14:28.000Z"},"geometry":{"type":"Point","coordinates":[31.7868173826187,-1.9820906918101]}},{"type":"Feature","properties":{"id":4079,"title":"Kagera_Goziba","status":"PUBLISHED","created":"2018","lastUpdated":"2018","lastActive":"no","area":1.1395975392255964,"changesets":0,"mappers":0,"roads":0,"buildings":0,"edits":0,"latest":null},"geometry":{"type":"Point","coordinates":[32.6139907107105,-1.47123684237771]}},{"type":"Feature","properties":{"id":2556,"title":"PEPFAR Tanzania: Mbeya CC","status":"PUBLISHED","created":"2017","lastUpdated":"2018","lastActive":"no","area":256.08947868821076,"changesets":3674,"mappers":263,"roads":1309.65000981764,"buildings":21914,"edits":54339,"latest":"2018-05-15T06:12:15.000Z"},"geometry":{"type":"Point","coordinates":[33.4732048006568,-8.89830150489546]}},{"type":"Feature","properties":{"id":4086,"title":"Kigoma_5","status":"PUBLISHED","created":"2018","lastUpdated":"2018","lastActive":"no","area":3.7491092848574272,"changesets":156,"mappers":6,"roads":0.459783989828362,"buildings":1942,"edits":1948,"latest":"2018-02-07T11:29:30.000Z"},"geometry":{"type":"Point","coordinates":[30.0140478228083,-6.47067176048628]}},{"type":"Feature","properties":{"id":4090,"title":"Kigoma_9","status":"PUBLISHED","created":"2018","lastUpdated":"2018","lastActive":"no","area":1.722690665551124,"changesets":290,"mappers":6,"roads":0.249339693562493,"buildings":1929,"edits":1941,"latest":"2018-02-15T09:43:50.000Z"},"geometry":{"type":"Point","coordinates":[29.8251364406655,-6.00624785298935]}},{"type":"Feature","properties":{"id":4099,"title":"Kigoma_13","status":"PUBLISHED","created":"2018","lastUpdated":"2018","lastActive":"no","area":2.897626588524291,"changesets":98,"mappers":5,"roads":0.000234970678110244,"buildings":1712,"edits":1719,"latest":"2018-02-12T06:40:16.000Z"},"geometry":{"type":"Point","coordinates":[29.6580900736946,-4.48594525532537]}},{"type":"Feature","properties":{"id":4088,"title":"Kigoma_7","status":"PUBLISHED","created":"2018","lastUpdated":"2018","lastActive":"no","area":2.1750746662810996,"changesets":64,"mappers":6,"roads":0,"buildings":770,"edits":770,"latest":"2018-02-14T06:35:46.000Z"},"geometry":{"type":"Point","coordinates":[29.747674177169,-6.02882798381811]}},{"type":"Feature","properties":{"id":5613,"title":"Tanzania Mbeya Missing Highways","status":"ARCHIVED","created":"2018","lastUpdated":"2019","lastActive":"no","area":322.07731681096374,"changesets":36,"mappers":2,"roads":148.73506986815,"buildings":39,"edits":135,"latest":"2018-12-26T22:41:06.000Z"},"geometry":{"type":"Point","coordinates":[33.1571146316758,-7.79404877174866]}},{"type":"Feature","properties":{"id":4656,"title":"Chemba and Bahi Districts, Tanzania Mini Grids Project 05","status":"PUBLISHED","created":"2018","lastUpdated":"2018","lastActive":"no","area":1943.7393401406555,"changesets":2139,"mappers":66,"roads":1.37724754241375,"buildings":26302,"edits":26408,"latest":"2018-06-14T08:37:58.000Z"},"geometry":{"type":"Point","coordinates":[35.693942385692,-5.27392956674015]}},{"type":"Feature","properties":{"id":4166,"title":"Tanzania Development Trust: Shinyanga East community mapping project","status":"PUBLISHED","created":"2018","lastUpdated":"2018","lastActive":"no","area":1007.0589397559861,"changesets":4121,"mappers":502,"roads":2725.59303227508,"buildings":34155,"edits":47073,"latest":"2018-12-17T08:13:41.000Z"},"geometry":{"type":"Point","coordinates":[33.6837535541805,-3.51751040221294]}},{"type":"Feature","properties":{"id":4105,"title":"Kigoma_17","status":"PUBLISHED","created":"2018","lastUpdated":"2018","lastActive":"no","area":4.227050493859274,"changesets":84,"mappers":8,"roads":0.193564177598396,"buildings":1322,"edits":1325,"latest":"2018-02-22T12:12:21.000Z"},"geometry":{"type":"Point","coordinates":[29.9287252179311,-5.73757948308089]}},{"type":"Feature","properties":{"id":4642,"title":"Villages in Pangani District, Tanzania Mini Grids Project","status":"PUBLISHED","created":"2018","lastUpdated":"2018","lastActive":"no","area":3.2853624864693787,"changesets":85,"mappers":27,"roads":0.0728887891265449,"buildings":3068,"edits":3101,"latest":"2018-06-08T10:05:47.000Z"},"geometry":{"type":"Point","coordinates":[38.9510503654064,-5.45416108609809]}},{"type":"Feature","properties":{"id":2095,"title":"MSD & JSI/USAID Tanzania Road Import - Mara region","status":"PUBLISHED","created":"2016","lastUpdated":"2016","lastActive":"no","area":18583.120612545095,"changesets":412,"mappers":12,"roads":2664.66783599299,"buildings":2995,"edits":11152,"latest":"2016-12-02T22:57:06.000Z"},"geometry":{"type":"Point","coordinates":[34.2964225881828,-1.80037216405206]}},{"type":"Feature","properties":{"id":4235,"title":"Tanzania Development Trust: Biharamulo Community Mapping Project","status":"ARCHIVED","created":"2018","lastUpdated":"2018","lastActive":"no","area":6.039818387380115,"changesets":765,"mappers":51,"roads":284.739876449328,"buildings":4189,"edits":5785,"latest":"2018-06-24T19:09:43.000Z"},"geometry":{"type":"Point","coordinates":[31.311664443878,-2.63422509905993]}},{"type":"Feature","properties":{"id":3876,"title":"TZ IFC Mini-grids house count test","status":"PUBLISHED","created":"2017","lastUpdated":"2018","lastActive":"no","area":481.70619678590833,"changesets":3458,"mappers":35,"roads":5.06366089326074,"buildings":275823,"edits":276862,"latest":"2018-02-20T15:26:25.000Z"},"geometry":{"type":"Point","coordinates":[33.9656515456289,-6.53613031653058]}},{"type":"Feature","properties":{"id":4035,"title":"TZ IFC Mini-grids house count test-1","status":"PUBLISHED","created":"2018","lastUpdated":"2018","lastActive":"no","area":481.70619678590833,"changesets":3,"mappers":3,"roads":0,"buildings":180,"edits":180,"latest":"2018-02-09T12:27:18.000Z"},"geometry":{"type":"Point","coordinates":[33.965651545629,-6.53613031653059]}},{"type":"Feature","properties":{"id":4245,"title":"Tanzania Development Trust: Kome Island Community Mapping Project","status":"ARCHIVED","created":"2018","lastUpdated":"2018","lastActive":"no","area":385.79192833306934,"changesets":1556,"mappers":136,"roads":903.993377006293,"buildings":11792,"edits":17458,"latest":"2018-03-23T13:14:21.000Z"},"geometry":{"type":"Point","coordinates":[32.4921971949472,-2.32937991152019]}},{"type":"Feature","properties":{"id":4210,"title":"Tanzania Development Trust: Rubya Muleba Community Mapping Project","status":"ARCHIVED","created":"2018","lastUpdated":"2018","lastActive":"no","area":3.8004410986879655,"changesets":883,"mappers":30,"roads":76.7339517069804,"buildings":1681,"edits":2914,"latest":"2018-03-04T15:40:41.000Z"},"geometry":{"type":"Point","coordinates":[31.6199206128424,-1.75212343213756]}},{"type":"Feature","properties":{"id":3388,"title":"Missing Maps: Dar es Salaam - Ramani Huria 2.0 - 21","status":"PUBLISHED","created":"2017","lastUpdated":"2017","lastActive":"no","area":69.65587897048133,"changesets":1939,"mappers":75,"roads":6.84000186734417,"buildings":36784,"edits":37868,"latest":"2017-08-11T12:28:34.000Z"},"geometry":{"type":"Point","coordinates":[39.1283057323213,-6.89210398958084]}},{"type":"Feature","properties":{"id":4283,"title":"Tanzania Development Trust: Kashenge Community Mapping Project","status":"ARCHIVED","created":"2018","lastUpdated":"2018","lastActive":"no","area":16.271801267146635,"changesets":316,"mappers":27,"roads":117.504567662701,"buildings":856,"edits":1867,"latest":"2018-05-01T11:36:25.000Z"},"geometry":{"type":"Point","coordinates":[31.65773305698,-1.69517523871843]}},{"type":"Feature","properties":{"id":4212,"title":"Tanzania Development Trust: Tunduma, Songwe Community Mapping Project","status":"ARCHIVED","created":"2018","lastUpdated":"2018","lastActive":"no","area":8.348830576332833,"changesets":1309,"mappers":102,"roads":131.172852446918,"buildings":16144,"edits":18573,"latest":"2018-04-16T10:35:52.000Z"},"geometry":{"type":"Point","coordinates":[32.7742526020665,-9.30855990968659]}},{"type":"Feature","properties":{"id":3351,"title":"Missing Maps: Dar es Salaam - Ramani Huria 2.0 - 06","status":"PUBLISHED","created":"2017","lastUpdated":"2017","lastActive":"no","area":42.09056201926153,"changesets":1060,"mappers":98,"roads":583.340797762564,"buildings":2543,"edits":21480,"latest":"2017-09-18T13:34:28.000Z"},"geometry":{"type":"Point","coordinates":[39.0979103142561,-6.69636185713101]}},{"type":"Feature","properties":{"id":4695,"title":"Didia, Jomu, Singita in Shinyanga District, Tanzania Mini Grids Project","status":"PUBLISHED","created":"2018","lastUpdated":"2018","lastActive":"no","area":633.425618192545,"changesets":1071,"mappers":69,"roads":1.1515270702661,"buildings":35118,"edits":35234,"latest":"2018-06-14T10:23:19.000Z"},"geometry":{"type":"Point","coordinates":[33.18986858368,-3.852090824045]}},{"type":"Feature","properties":{"id":4951,"title":"Ramani Huria and GreenWastePro Collaboration","status":"PUBLISHED","created":"2018","lastUpdated":"2018","lastActive":"no","area":0.4359428542272518,"changesets":377,"mappers":13,"roads":0.120804790239145,"buildings":1401,"edits":1748,"latest":"2018-08-03T11:45:09.000Z"},"geometry":{"type":"Point","coordinates":[39.2851515232949,-6.81585154800023]}},{"type":"Feature","properties":{"id":2050,"title":"MSD & JSI/USAID Tanzania Road Import - Morogoro region","status":"PUBLISHED","created":"2016","lastUpdated":"2016","lastActive":"no","area":28136.915277094853,"changesets":232,"mappers":9,"roads":5403.72286464984,"buildings":8,"edits":6562,"latest":"2016-08-17T09:47:25.000Z"},"geometry":{"type":"Point","coordinates":[37.1326578119178,-7.21230071196328]}},{"type":"Feature","properties":{"id":4778,"title":"Chato District Villages, Geita Region, Tanzania Mini Grids Project","status":"PUBLISHED","created":"2018","lastUpdated":"2018","lastActive":"no","area":4421.105608459506,"changesets":4930,"mappers":59,"roads":55.2059060410998,"buildings":266071,"edits":266569,"latest":"2018-08-02T09:44:15.000Z"},"geometry":{"type":"Point","coordinates":[32.0397914259504,-2.93095561585775]}},{"type":"Feature","properties":{"id":4069,"title":"Mwanza_sengerema","status":"PUBLISHED","created":"2018","lastUpdated":"2018","lastActive":"no","area":126.12964780900826,"changesets":1,"mappers":1,"roads":0,"buildings":0,"edits":0,"latest":"2018-01-27T16:55:51.000Z"},"geometry":{"type":"Point","coordinates":[32.0146901070511,-2.29756141820935]}},{"type":"Feature","properties":{"id":4531,"title":"Manyoni, Singida, Tanzania Mini Grids Project 01","status":"PUBLISHED","created":"2018","lastUpdated":"2018","lastActive":"no","area":1326.5528682624965,"changesets":590,"mappers":59,"roads":1.45366588363026,"buildings":7569,"edits":7587,"latest":"2018-11-17T21:17:08.000Z"},"geometry":{"type":"Point","coordinates":[34.6075539482003,-5.56288622408193]}},{"type":"Feature","properties":{"id":1389,"title":" Missing Maps: Dar es Salaam - Ramani Huria2","status":"ARCHIVED","created":"2015","lastUpdated":"2016","lastActive":"no","area":17.055250175253022,"changesets":1779,"mappers":105,"roads":2952.23609891391,"buildings":25963,"edits":29457,"latest":"2016-08-23T11:52:57.000Z"},"geometry":{"type":"Point","coordinates":[39.193973920295,-6.81759743655606]}},{"type":"Feature","properties":{"id":3159,"title":"Tanzania Development Trust: Singida district community mapping project ","status":"PUBLISHED","created":"2017","lastUpdated":"2018","lastActive":"no","area":746.5381861519145,"changesets":8158,"mappers":373,"roads":10510.3568767361,"buildings":97706,"edits":203282,"latest":"2019-01-01T06:32:47.000Z"},"geometry":{"type":"Point","coordinates":[34.973843496759,-4.67540763811596]}},{"type":"Feature","properties":{"id":4083,"title":"Kigoma_2","status":"PUBLISHED","created":"2018","lastUpdated":"2018","lastActive":"no","area":1.965158778543636,"changesets":127,"mappers":2,"roads":0,"buildings":458,"edits":458,"latest":"2018-01-30T14:04:27.000Z"},"geometry":{"type":"Point","coordinates":[30.4906126271375,-6.81467605913481]}},{"type":"Feature","properties":{"id":4100,"title":"Kigoma_14","status":"PUBLISHED","created":"2018","lastUpdated":"2018","lastActive":"no","area":0.8979043606940176,"changesets":179,"mappers":9,"roads":0,"buildings":906,"edits":906,"latest":"2018-02-16T06:08:51.000Z"},