{"totalEdits":45259889,"totalBuildings":37765911,"totalRoads":948090.121727358,"mappersOnline":19,"totalTasksMapped":1798461,"totalMappers":155426,"totalProjects":4338,"Indonesia":[{"type":"Feature","properties":{"id":1011,"title":"Aktivitas Pengumpulan Data di DAS Jeneberang","status":"PUBLISHED","created":"2015","lastUpdated":"2015","lastActive":"no","area":2353.106322075065,"changesets":83,"mappers":3,"roads":18.9318585168149,"buildings":1318,"edits":2128,"latest":"2015-08-12T05:02:39.000Z"},"geometry":{"type":"Point","coordinates":[119.730948333476,-5.2697108809525]}},{"type":"Feature","properties":{"id":3018,"title":"Missing Maps: Cipayung Sub Districs #PDC Jakarta","status":"ARCHIVED","created":"2017","lastUpdated":"2017","lastActive":"no","area":28.30154903074125,"changesets":275,"mappers":8,"roads":83.3339668041295,"buildings":74181,"edits":77136,"latest":"2017-08-30T03:44:15.000Z"},"geometry":{"type":"Point","coordinates":[106.903499743806,-6.32573709887508]}},{"type":"Feature","properties":{"id":2754,"title":"Missing Maps: Tambora Sub Districs #PDC Jakarta","status":"ARCHIVED","created":"2017","lastUpdated":"2017","lastActive":"no","area":5.505383816688497,"changesets":880,"mappers":38,"roads":182.465308905547,"buildings":47577,"edits":56756,"latest":"2017-10-04T05:20:50.000Z"},"geometry":{"type":"Point","coordinates":[106.803435638742,-6.14738508282838]}},{"type":"Feature","properties":{"id":2691,"title":"Missing Maps: Cempaka Putih Sub Districs #PDCJakarta","status":"ARCHIVED","created":"2017","lastUpdated":"2017","lastActive":"no","area":4.778549026419479,"changesets":434,"mappers":19,"roads":59.0535390938455,"buildings":19115,"edits":22286,"latest":"2017-08-12T05:38:39.000Z"},"geometry":{"type":"Point","coordinates":[106.868155693381,-6.18091922866915]}},{"type":"Feature","properties":{"id":2689,"title":"Missing Maps: Menteng Sub Districs #PDCJakarta","status":"ARCHIVED","created":"2017","lastUpdated":"2017","lastActive":"no","area":6.49624219448772,"changesets":218,"mappers":7,"roads":31.9405292719671,"buildings":12253,"edits":16293,"latest":"2017-07-19T03:15:12.000Z"},"geometry":{"type":"Point","coordinates":[106.835377701302,-6.19598238539176]}},{"type":"Feature","properties":{"id":2685,"title":"Missing Maps: Setiabudi Sub Districs #PDCJakarta","status":"ARCHIVED","created":"2017","lastUpdated":"2017","lastActive":"no","area":8.932975151497558,"changesets":688,"mappers":5,"roads":46.1882909657013,"buildings":23820,"edits":30885,"latest":"2017-08-07T16:17:37.000Z"},"geometry":{"type":"Point","coordinates":[106.829944052177,-6.21961131960167]}},{"type":"Feature","properties":{"id":3034,"title":"Missing Maps: Tanjung Priok Sub Districs #PDC Jakarta","status":"ARCHIVED","created":"2017","lastUpdated":"2017","lastActive":"no","area":20.15061201281578,"changesets":374,"mappers":16,"roads":1.28290461708598,"buildings":54267,"edits":55399,"latest":"2017-10-13T02:51:12.000Z"},"geometry":{"type":"Point","coordinates":[106.874349153301,-6.13557873230582]}},{"type":"Feature","properties":{"id":3020,"title":"Missing Maps: Taman Sari Sub Districs #PDC Jakarta","status":"ARCHIVED","created":"2017","lastUpdated":"2017","lastActive":"no","area":4.54761799681661,"changesets":109,"mappers":3,"roads":19.8164513461639,"buildings":12721,"edits":14125,"latest":"2017-08-28T03:47:21.000Z"},"geometry":{"type":"Point","coordinates":[106.818291468151,-6.1480152119583]}},{"type":"Feature","properties":{"id":2748,"title":"Missing Maps: Senen Sub Districs #PDC Jakarta","status":"ARCHIVED","created":"2017","lastUpdated":"2017","lastActive":"no","area":4.380864638256325,"changesets":147,"mappers":4,"roads":20.1052342060612,"buildings":9397,"edits":11318,"latest":"2017-07-19T06:02:29.000Z"},"geometry":{"type":"Point","coordinates":[106.845942265554,-6.18433938607949]}},{"type":"Feature","properties":{"id":2278,"title":"Missing Maps: Bogor","status":"ARCHIVED","created":"2016","lastUpdated":"2017","lastActive":"no","area":105.95848593815685,"changesets":1920,"mappers":154,"roads":20.9793348838668,"buildings":13870,"edits":14971,"latest":"2017-03-09T16:57:18.000Z"},"geometry":{"type":"Point","coordinates":[106.796593334081,-6.58050416012029]}},{"type":"Feature","properties":{"id":2683,"title":"Missing Maps: Pancoran Sub Districs #PDC Jakarta","status":"ARCHIVED","created":"2017","lastUpdated":"2017","lastActive":"no","area":8.932455561387133,"changesets":1195,"mappers":5,"roads":146.859901413294,"buildings":51134,"edits":59754,"latest":"2017-08-09T02:24:30.000Z"},"geometry":{"type":"Point","coordinates":[106.843665402227,-6.25528917297567]}},{"type":"Feature","properties":{"id":4048,"title":"Missing Maps: Genuk Sub Districts #PDC Semarang","status":"PUBLISHED","created":"2018","lastUpdated":"2019","lastActive":"no","area":26.89138122809543,"changesets":337,"mappers":17,"roads":211.651213602355,"buildings":30048,"edits":32607,"latest":"2018-07-23T04:32:20.000Z"},"geometry":{"type":"Point","coordinates":[110.476936026215,-6.96338054019794]}},{"type":"Feature","properties":{"id":2751,"title":"Missing Maps: Gambir Sub Districs #PDC Jakarta","status":"ARCHIVED","created":"2017","lastUpdated":"2017","lastActive":"no","area":7.532639425068289,"changesets":233,"mappers":6,"roads":17.4080305784869,"buildings":17606,"edits":19317,"latest":"2017-07-19T06:19:32.000Z"},"geometry":{"type":"Point","coordinates":[106.818041882526,-6.17148897715882]}},{"type":"Feature","properties":{"id":4056,"title":"Missing Maps: Semarang Tengah Sub Districts #PDC Semarang","status":"ARCHIVED","created":"2018","lastUpdated":"2018","lastActive":"no","area":5.39883144937884,"changesets":47,"mappers":3,"roads":1.56794116826866,"buildings":550,"edits":773,"latest":"2018-06-28T02:48:20.000Z"},"geometry":{"type":"Point","coordinates":[110.420989498907,-6.98031805440703]}},{"type":"Feature","properties":{"id":3025,"title":"Missing Maps: Cilandak Sub Districs #PDC Jakarta","status":"ARCHIVED","created":"2017","lastUpdated":"2017","lastActive":"no","area":17.826440731180615,"changesets":183,"mappers":4,"roads":28.6590632722901,"buildings":26772,"edits":28477,"latest":"2017-09-18T02:21:25.000Z"},"geometry":{"type":"Point","coordinates":[106.793307284061,-6.29318797958196]}},{"type":"Feature","properties":{"id":769,"title":"Badan Geologi - Buildings and Roads Mapping Around Bromo","status":"PUBLISHED","created":"2014","lastUpdated":"2018","lastActive":"no","area":620.501398306766,"changesets":0,"mappers":0,"roads":0,"buildings":0,"edits":0,"latest":null},"geometry":{"type":"Point","coordinates":[112.970588975425,-7.91641987596082]}},{"type":"Feature","properties":{"id":4046,"title":"Missing Maps: Gajah Mungkur Sub Districts #PDC Semarang","status":"ARCHIVED","created":"2018","lastUpdated":"2018","lastActive":"no","area":9.7825467368316,"changesets":119,"mappers":3,"roads":24.996948716469,"buildings":6160,"edits":7312,"latest":"2018-06-26T09:46:00.000Z"},"geometry":{"type":"Point","coordinates":[110.405596342639,-7.01275552509079]}},{"type":"Feature","properties":{"id":4052,"title":"Missing Maps: Pedurungan Sub Districts #PDC Semarang","status":"PUBLISHED","created":"2018","lastUpdated":"2019","lastActive":"no","area":22.337854701407565,"changesets":481,"mappers":31,"roads":46.6776194885713,"buildings":47970,"edits":49143,"latest":"2018-07-23T03:01:55.000Z"},"geometry":{"type":"Point","coordinates":[110.473977056036,-7.00223449583275]}},{"type":"Feature","properties":{"id":4058,"title":"Missing Maps: Tembalang Sub Districts #PDC Semarang","status":"PUBLISHED","created":"2018","lastUpdated":"2019","lastActive":"no","area":40.54145098859969,"changesets":665,"mappers":56,"roads":264.065386297172,"buildings":45216,"edits":48320,"latest":"2018-07-23T04:57:28.000Z"},"geometry":{"type":"Point","coordinates":[110.460995575373,-7.04854201123433]}},{"type":"Feature","properties":{"id":3021,"title":"Missing Maps: Kali Deres Sub Districs #PDC Jakarta","status":"ARCHIVED","created":"2017","lastUpdated":"2017","lastActive":"no","area":29.932357603667022,"changesets":1472,"mappers":7,"roads":51.32161785343,"buildings":63634,"edits":68367,"latest":"2017-11-09T10:14:00.000Z"},"geometry":{"type":"Point","coordinates":[106.703602395224,-6.13440116229757]}},{"type":"Feature","properties":{"id":557,"title":"Training BPBD Lembata","status":"PUBLISHED","created":"2014","lastUpdated":"2014","lastActive":"no","area":24.269262834900626,"changesets":0,"mappers":0,"roads":0,"buildings":0,"edits":0,"latest":null},"geometry":{"type":"Point","coordinates":[123.433717781495,-8.3741741873601]}},{"type":"Feature","properties":{"id":3017,"title":"Missing Maps: Pasar Rebo Sub Districs #PDC Jakarta","status":"ARCHIVED","created":"2017","lastUpdated":"2017","lastActive":"no","area":12.342260215364801,"changesets":351,"mappers":5,"roads":10.8466904443053,"buildings":37866,"edits":39283,"latest":"2017-10-06T07:49:46.000Z"},"geometry":{"type":"Point","coordinates":[106.857470769184,-6.3271561630854]}},{"type":"Feature","properties":{"id":3031,"title":"Missing Maps: Grogol Petamburan Sub Districs #PDC Jakarta","status":"ARCHIVED","created":"2017","lastUpdated":"2017","lastActive":"no","area":10.805656337791167,"changesets":218,"mappers":5,"roads":3.98900637661907,"buildings":47671,"edits":49629,"latest":"2017-10-03T12:21:38.000Z"},"geometry":{"type":"Point","coordinates":[106.786483931117,-6.16359030555416]}},{"type":"Feature","properties":{"id":4051,"title":"Missing Maps: Ngaliyan Sub Districts #PDC Semarang","status":"ARCHIVED","created":"2018","lastUpdated":"2018","lastActive":"no","area":44.8476968659584,"changesets":232,"mappers":10,"roads":46.1065645937855,"buildings":25146,"edits":25826,"latest":"2018-07-23T03:29:53.000Z"},"geometry":{"type":"Point","coordinates":[110.327250358732,-7.00011443821596]}},{"type":"Feature","properties":{"id":4053,"title":"Missing Maps: Semarang Barat Sub Districts #PDC Semarang","status":"ARCHIVED","created":"2018","lastUpdated":"2018","lastActive":"no","area":22.83940614309307,"changesets":397,"mappers":3,"roads":63.8038792305447,"buildings":6232,"edits":7341,"latest":"2018-07-23T08:57:57.000Z"},"geometry":{"type":"Point","coordinates":[110.384285030972,-6.97881389583904]}},{"type":"Feature","properties":{"id":4049,"title":"Missing Maps: Gunung Pati Sub Districts #PDC Semarang","status":"ARCHIVED","created":"2018","lastUpdated":"2018","lastActive":"no","area":60.18197606655719,"changesets":327,"mappers":18,"roads":173.74975489,"buildings":28455,"edits":29910,"latest":"2018-07-05T08:44:40.000Z"},"geometry":{"type":"Point","coordinates":[110.375307098226,-7.06488899513931]}},{"type":"Feature","properties":{"id":4057,"title":"Missing Maps: Semarang Utara Sub Districts #PDC Semarang","status":"PUBLISHED","created":"2018","lastUpdated":"2019","lastActive":"no","area":11.395719492311404,"changesets":219,"mappers":6,"roads":50.7096016227286,"buildings":3929,"edits":4597,"latest":"2018-06-25T10:56:51.000Z"},"geometry":{"type":"Point","coordinates":[110.417310280136,-6.95817966495625]}},{"type":"Feature","properties":{"id":4055,"title":"Missing Maps: Semarang Timur Sub Districts #PDC Semarang","status":"ARCHIVED","created":"2018","lastUpdated":"2018","lastActive":"no","area":5.66841480349367,"changesets":216,"mappers":3,"roads":35.0623491422408,"buildings":6138,"edits":6856,"latest":"2018-06-25T06:09:27.000Z"},"geometry":{"type":"Point","coordinates":[110.437082643682,-6.97269696341064]}},{"type":"Feature","properties":{"id":4050,"title":"Missing Maps: Mijen Sub Districts #PDC Semarang","status":"ARCHIVED","created":"2018","lastUpdated":"2018","lastActive":"no","area":58.38424258359907,"changesets":641,"mappers":16,"roads":248.15917317191,"buildings":44462,"edits":48895,"latest":"2018-07-17T03:41:21.000Z"},"geometry":{"type":"Point","coordinates":[110.316039793238,-7.05292695812427]}},{"type":"Feature","properties":{"id":4059,"title":"Missing Maps: Tugu Sub Districts #PDC Semarang","status":"ARCHIVED","created":"2018","lastUpdated":"2018","lastActive":"no","area":30.007635401369544,"changesets":150,"mappers":22,"roads":33.7110607357028,"buildings":7137,"edits":7618,"latest":"2018-07-09T08:38:35.000Z"},"geometry":{"type":"Point","coordinates":[110.329889000038,-6.96189968008406]}},{"type":"Feature","properties":{"id":4054,"title":"Missing Maps: Semarang Selatan Sub Districts #PDC Semarang","status":"ARCHIVED","created":"2018","lastUpdated":"2018","lastActive":"no","area":6.216206220761751,"changesets":317,"mappers":4,"roads":104.549294432283,"buildings":7273,"edits":9672,"latest":"2018-06-28T09:25:52.000Z"},"geometry":{"type":"Point","coordinates":[110.424620763431,-6.99694059104644]}},{"type":"Feature","properties":{"id":1378,"title":"Sentinel Asia Mini-Project: Tarogong, Garut, Indonesia","status":"PUBLISHED","created":"2015","lastUpdated":"2018","lastActive":"no","area":0.6008014497431968,"changesets":43,"mappers":11,"roads":26.8721401721233,"buildings":617,"edits":814,"latest":"2018-10-03T17:05:19.000Z"},"geometry":{"type":"Point","coordinates":[107.877149647755,-7.19397702510357]}},{"type":"Feature","properties":{"id":2085,"title":"Missing Maps: Jambangan Sub Districs #PDC Surabaya","status":"ARCHIVED","created":"2016","lastUpdated":"2017","lastActive":"no","area":4.372352653913602,"changesets":220,"mappers":9,"roads":40.262470357784,"buildings":8408,"edits":10104,"latest":"2017-02-22T08:43:12.000Z"},"geometry":{"type":"Point","coordinates":[112.715697830644,-7.32312667880513]}},{"type":"Feature","properties":{"id":2083,"title":"Missing Maps: Wiyung Sub Districts #PDC Surabaya","status":"ARCHIVED","created":"2016","lastUpdated":"2017","lastActive":"no","area":11.201966005752986,"changesets":1205,"mappers":12,"roads":74.3808535049186,"buildings":21239,"edits":24700,"latest":"2017-03-09T09:38:43.000Z"},"geometry":{"type":"Point","coordinates":[112.688321164013,-7.31262061856803]}},{"type":"Feature","properties":{"id":4043,"title":"Missing Maps: Banyumanik Sub Districts #PDC Semarang","status":"ARCHIVED","created":"2018","lastUpdated":"2018","lastActive":"no","area":31.263404954853762,"changesets":619,"mappers":13,"roads":288.064224597288,"buildings":29152,"edits":34454,"latest":"2018-07-17T04:20:43.000Z"},"geometry":{"type":"Point","coordinates":[110.420634743892,-7.0698505073789]}},{"type":"Feature","properties":{"id":2745,"title":"Missing Maps: Makasar Sub Districs #PDC Jakarta","status":"ARCHIVED","created":"2017","lastUpdated":"2017","lastActive":"no","area":21.702895230187877,"changesets":192,"mappers":5,"roads":8.0530548112001,"buildings":48332,"edits":49771,"latest":"2017-10-03T12:26:17.000Z"},"geometry":{"type":"Point","coordinates":[106.891129959349,-6.2661058012357]}},{"type":"Feature","properties":{"id":3037,"title":"Missing Maps: Cilincing Sub Districs #PDC Jakarta","status":"ARCHIVED","created":"2017","lastUpdated":"2017","lastActive":"no","area":41.17584204145506,"changesets":370,"mappers":7,"roads":44.6930557805136,"buildings":61048,"edits":65886,"latest":"2017-10-05T06:00:38.000Z"},"geometry":{"type":"Point","coordinates":[106.943262692355,-6.12798931279952]}},{"type":"Feature","properties":{"id":2810,"title":"Missing Maps: Cakung Sub Districs #PDC Jakarta","status":"ARCHIVED","created":"2017","lastUpdated":"2017","lastActive":"no","area":40.6731416648683,"changesets":928,"mappers":4,"roads":41.6128199606069,"buildings":102543,"edits":108164,"latest":"2017-09-12T04:31:11.000Z"},"geometry":{"type":"Point","coordinates":[106.940749285978,-6.18934724786333]}},{"type":"Feature","properties":{"id":305,"title":"Mapping Bengkulu","status":"PUBLISHED","created":"2013","lastUpdated":"2016","lastActive":"no","area":10.304714027034251,"changesets":552,"mappers":22,"roads":1040.63331994019,"buildings":72,"edits":3301,"latest":"2018-02-27T07:36:09.000Z"},"geometry":{"type":"Point","coordinates":[102.264250091134,-3.79338148642302]}},{"type":"Feature","properties":{"id":2081,"title":"Missing Maps: Wonokromo Sub Districs #PDC Surabaya","status":"ARCHIVED","created":"2016","lastUpdated":"2017","lastActive":"no","area":8.295998238077491,"changesets":519,"mappers":12,"roads":2.95752241993943,"buildings":26060,"edits":27183,"latest":"2017-02-24T05:59:42.000Z"},"geometry":{"type":"Point","coordinates":[112.737905821407,-7.29771035810582]}},{"type":"Feature","properties":{"id":2067,"title":"Missing Maps: Gubeng Sub Districts #PDC Surabaya","status":"ARCHIVED","created":"2016","lastUpdated":"2017","lastActive":"no","area":7.946806546306559,"changesets":983,"mappers":20,"roads":46.6643877577317,"buildings":33562,"edits":34594,"latest":"2017-02-03T04:06:46.000Z"},"geometry":{"type":"Point","coordinates":[112.759397144637,-7.27964966209539]}},{"type":"Feature","properties":{"id":5580,"title":"Pemetaan Kabupaten Semarang","status":"ARCHIVED","created":"2018","lastUpdated":"2018","lastActive":"no","area":1010.4908057874406,"changesets":12,"mappers":10,"roads":0,"buildings":15,"edits":15,"latest":"2018-12-04T07:20:31.000Z"},"geometry":{"type":"Point","coordinates":[110.475265391174,-7.27203134776449]}},{"type":"Feature","properties":{"id":2749,"title":"Missing Maps: Kemayoran Sub Districs #PDC Jakarta","status":"ARCHIVED","created":"2017","lastUpdated":"2017","lastActive":"no","area":7.795259817267811,"changesets":251,"mappers":4,"roads":14.5073181796966,"buildings":32519,"edits":34144,"latest":"2017-10-04T05:34:24.000Z"},"geometry":{"type":"Point","coordinates":[106.855013657131,-6.16163036742218]}},{"type":"Feature","properties":{"id":2486,"title":"Missing Maps: Penjaringan Sub Districs #PDC Jakarta","status":"PUBLISHED","created":"2017","lastUpdated":"2019","lastActive":"no","area":35.136973393611804,"changesets":227,"mappers":49,"roads":5.28883843514275,"buildings":2163,"edits":2763,"latest":"2018-09-28T15:36:09.000Z"},"geometry":{"type":"Point","coordinates":[106.766724470152,-6.11861207164781]}},{"type":"Feature","properties":{"id":561,"title":"Bukittinggi","status":"PUBLISHED","created":"2014","lastUpdated":"2018","lastActive":"no","area":22.79253327213511,"changesets":0,"mappers":0,"roads":0,"buildings":0,"edits":0,"latest":null},"geometry":{"type":"Point","coordinates":[100.372733667836,-0.298313971675028]}},{"type":"Feature","properties":{"id":536,"title":"Help Digitize Tebet and Jatinegara for Jakarta Disaster Hackathon Competition","status":"ARCHIVED","created":"2014","lastUpdated":"2014","lastActive":"no","area":30.978061269977502,"changesets":0,"mappers":0,"roads":0,"buildings":0,"edits":0,"latest":null},"geometry":{"type":"Point","coordinates":[106.857779497146,-6.22919511409277]}},{"type":"Feature","properties":{"id":2684,"title":"Missing Maps: Tebet Sub Districs #PDC Jakarta","status":"ARCHIVED","created":"2017","lastUpdated":"2017","lastActive":"no","area":9.408890607713326,"changesets":497,"mappers":20,"roads":19.6793730101626,"buildings":31333,"edits":34092,"latest":"2017-07-19T03:42:49.000Z"},"geometry":{"type":"Point","coordinates":[106.8508708311,-6.22882722261039]}},{"type":"Feature","properties":{"id":2686,"title":"Missing Maps: Kramat Jati Sub Districs #PDCJakarta","status":"ARCHIVED","created":"2017","lastUpdated":"2018","lastActive":"no","area":13.129244982799834,"changesets":567,"mappers":19,"roads":285.753576206208,"buildings":102534,"edits":113731,"latest":"2017-08-18T10:11:25.000Z"},"geometry":{"type":"Point","coordinates":[106.865408049316,-6.27652035093109]}},{"type":"Feature","properties":{"id":707,"title":"Pesisir Selatan - Landuse and infrastructure digitation ","status":"PUBLISHED","created":"2014","lastUpdated":"2018","lastActive":"no","area":1043.4121305079773,"changesets":0,"mappers":0,"roads":0,"buildings":0,"edits":0,"latest":null},"geometry":{"type":"Point","coordinates":[100.190246973454,-0.586409129302323]}},{"type":"Feature","properties":{"id":2682,"title":"Missing Maps: Mampang Prapatan Sub Districs #PDC Jakarta","status":"ARCHIVED","created":"2017","lastUpdated":"2017","lastActive":"no","area":7.937678176628443,"changesets":322,"mappers":8,"roads":27.7159762684502,"buildings":34460,"edits":37381,"latest":"2017-09-25T07:37:28.000Z"},"geometry":{"type":"Point","coordinates":[106.821002574256,-6.25223001999702]}},{"type":"Feature","properties":{"id":2747,"title":"Missing Maps: Tanah Abang Sub Districs #PDC Jakarta","status":"ARCHIVED","created":"2017","lastUpdated":"2017","lastActive":"no","area":10.235889165722531,"changesets":244,"mappers":4,"roads":61.1379398045008,"buildings":19580,"edits":23123,"latest":"2017-07-27T12:33:30.000Z"},"geometry":{"type":"Point","coordinates":[106.809283035778,-6.20555493555219]}},{"type":"Feature","properties":{"id":2688,"title":"Missing Maps: Matraman Sub Districs #PDCJakarta","status":"ARCHIVED","created":"2017","lastUpdated":"2017","lastActive":"no","area":4.852162587562553,"changesets":558,"mappers":6,"roads":38.9919910337758,"buildings":33387,"edits":36523,"latest":"2017-08-12T01:41:26.000Z"},"geometry":{"type":"Point","coordinates":[106.86450901734,-6.20369990102316]}},{"type":"Feature","properties":{"id":3033,"title":"Missing Maps: Penjaringan Sub Districs #PDC Jakarta","status":"ARCHIVED","created":"2017","lastUpdated":"2017","lastActive":"no","area":34.25824196319767,"changesets":252,"mappers":11,"roads":30.055312740412,"buildings":38727,"edits":41424,"latest":"2017-10-06T08:43:50.000Z"},"geometry":{"type":"Point","coordinates":[106.765900217218,-6.11862209534467]}},{"type":"Feature","properties":{"id":3029,"title":"Missing Maps: Ciracas Sub Districs #PDC Jakarta","status":"ARCHIVED","created":"2017","lastUpdated":"2017","lastActive":"no","area":16.66387875779246,"changesets":490,"mappers":7,"roads":211.138527419401,"buildings":57133,"edits":67829,"latest":"2017-10-25T03:29:42.000Z"},"geometry":{"type":"Point","coordinates":[106.878465483458,-6.33393509009654]}},{"type":"Feature","properties":{"id":2753,"title":"Missing Maps: Palmerah Sub Districs #PDC Jakarta","status":"ARCHIVED","created":"2017","lastUpdated":"2017","lastActive":"no","area":7.419272470955236,"changesets":800,"mappers":6,"roads":165.927571905199,"buildings":31494,"edits":41934,"latest":"2017-08-11T08:17:08.000Z"},"geometry":{"type":"Point","coordinates":[106.795578582719,-6.19175678087728]}},{"type":"Feature","properties":{"id":3027,"title":"Missing Maps: Kebayoran Baru Sub Districs #PDC Jakarta","status":"ARCHIVED","created":"2017","lastUpdated":"2017","lastActive":"no","area":12.766082803531393,"changesets":306,"mappers":16,"roads":4.65841257609875,"buildings":25429,"edits":27872,"latest":"2017-11-08T08:22:59.000Z"},"geometry":{"type":"Point","coordinates":[106.801459859383,-6.2447259415702]}},{"type":"Feature","properties":{"id":3019,"title":"Missing Maps: Kebon Jeruk Sub Districs #PDC Jakarta","status":"ARCHIVED","created":"2017","lastUpdated":"2017","lastActive":"no","area":17.71909348698738,"changesets":224,"mappers":4,"roads":9.78093330678165,"buildings":101072,"edits":104973,"latest":"2017-09-18T03:31:36.000Z"},"geometry":{"type":"Point","coordinates":[106.769120917933,-6.18966735903269]}},{"type":"Feature","properties":{"id":3023,"title":"Missing Maps: Jagakarsa Sub Districs #PDC Jakarta","status":"ARCHIVED","created":"2017","lastUpdated":"2018","lastActive":"no","area":25.42210309140762,"changesets":402,"mappers":4,"roads":291.254137097454,"buildings":60355,"edits":74341,"latest":"2017-09-27T08:09:19.000Z"},"geometry":{"type":"Point","coordinates":[106.822686971367,-6.33345822843127]}},{"type":"Feature","properties":{"id":3035,"title":"Missing Maps: Koja Sub Districs #PDC Jakarta","status":"ARCHIVED","created":"2017","lastUpdated":"2017","lastActive":"no","area":9.89511853564706,"changesets":450,"mappers":10,"roads":18.8340571467575,"buildings":50848,"edits":53904,"latest":"2017-10-06T01:23:57.000Z"},"geometry":{"type":"Point","coordinates":[106.905929549656,-6.12538848485847]}},{"type":"Feature","properties":{"id":2690,"title":"Missing Maps: Johar Baru Sub Districs #PDCJakarta","status":"ARCHIVED","created":"2017","lastUpdated":"2017","lastActive":"no","area":2.4040925614066637,"changesets":287,"mappers":7,"roads":10.3530194607153,"buildings":16558,"edits":19052,"latest":"2017-06-02T07:47:00.000Z"},"geometry":{"type":"Point","coordinates":[106.854584144217,-6.18210953519141]}},{"type":"Feature","properties":{"id":299,"title":"Aceh Project Area 4","status":"PUBLISHED","created":"2013","lastUpdated":"2016","lastActive":"no","area":26.996912641232914,"changesets":700,"mappers":24,"roads":1303.89723035274,"buildings":282,"edits":3911,"latest":"2018-03-29T04:52:00.000Z"},"geometry":{"type":"Point","coordinates":[96.8302712895369,4.61207369086666]}},{"type":"Feature","properties":{"id":301,"title":"Scan for buildings not digitized - Aceh","status":"PUBLISHED","created":"2013","lastUpdated":"2016","lastActive":"no","area":3375.758806919696,"changesets":616,"mappers":24,"roads":734.733287406144,"buildings":185,"edits":2754,"latest":"2018-02-19T07:39:11.000Z"},"geometry":{"type":"Point","coordinates":[96.691855341424,4.70898412406649]}},{"type":"Feature","properties":{"id":272,"title":"Earthquake Response Kecamatan Ketol in Aceh","status":"PUBLISHED","created":"2013","lastUpdated":"2016","lastActive":"no","area":495.55191652131555,"changesets":330,"mappers":22,"roads":396.594666224029,"buildings":2617,"edits":8302,"latest":"2018-01-05T03:07:12.000Z"},"geometry":{"type":"Point","coordinates":[96.6268648170635,4.77994661657688]}},{"type":"Feature","properties":{"id":135,"title":"Mapping Selayar Island Indonesia for Preparedness","status":"PUBLISHED","created":"2013","lastUpdated":"2018","lastActive":"no","area":718.4990620335725,"changesets":4,"mappers":2,"roads":0,"buildings":253,"edits":253,"latest":"2017-07-11T09:28:41.000Z"},"geometry":{"type":"Point","coordinates":[120.49588939269,-6.09859405108333]}},{"type":"Feature","properties":{"id":270,"title":"Latihan Digitasi Jeneponto","status":"PUBLISHED","created":"2013","lastUpdated":"2016","lastActive":"no","area":777.2106709731412,"changesets":552,"mappers":22,"roads":847.20249137615,"buildings":28810,"edits":53654,"latest":"2018-01-03T09:05:24.000Z"},"geometry":{"type":"Point","coordinates":[119.714551510091,-5.58306248225377]}},{"type":"Feature","properties":{"id":231,"title":"Help with Contingency Planning in Eastern Java","status":"PUBLISHED","created":"2013","lastUpdated":"2019","lastActive":"no","area":301.06733622926146,"changesets":110,"mappers":10,"roads":53.1352950638241,"buildings":36669,"edits":37246,"latest":"2018-11-27T17:12:26.000Z"},"geometry":{"type":"Point","coordinates":[112.012253917137,-7.16443300449215]}},{"type":"Feature","properties":{"id":2089,"title":"Missing Maps: Pakal Sub Districs #PDC Surabaya","status":"ARCHIVED","created":"2016","lastUpdated":"2017","lastActive":"no","area":18.81794956875589,"changesets":159,"mappers":14,"roads":31.8629722924841,"buildings":14942,"edits":15936,"latest":"2017-02-23T07:17:46.000Z"},"geometry":{"type":"Point","coordinates":[112.616029372875,-7.22967182670023]}},{"type":"Feature","properties":{"id":2087,"title":"Missing Maps: Suko Mangunggal Sub Districs #PDC Surabaya","status":"ARCHIVED","created":"2016","lastUpdated":"2017","lastActive":"no","area":9.242927350922935,"changesets":273,"mappers":7,"roads":10.4724554996487,"buildings":19738,"edits":20413,"latest":"2017-01-24T02:36:08.000Z"},"geometry":{"type":"Point","coordinates":[112.699737872625,-7.26880714234452]}},{"type":"Feature","properties":{"id":1150,"title":"Exposure Mapping Raung Volcano, East Java","status":"PUBLISHED","created":"2015","lastUpdated":"2019","lastActive":"no","area":2699.759445094531,"changesets":1955,"mappers":204,"roads":586.514736757471,"buildings":37986,"edits":43216,"latest":"2019-02-02T22:58:42.000Z"},"geometry":{"type":"Point","coordinates":[113.99786323889,-8.12593667906343]}},{"type":"Feature","properties":{"id":781,"title":"INSIST II ( Integrated Services for Infrastructure and Sanitation Technology ) II - Kelurahan Penjaringan","status":"PUBLISHED","created":"2014","lastUpdated":"2018","lastActive":"no","area":23.838971811308195,"changesets":0,"mappers":0,"roads":0,"buildings":0,"edits":0,"latest":null},"geometry":{"type":"Point","coordinates":[106.795606613159,-6.1179389778385]}},{"type":"Feature","properties":{"id":877,"title":"Data Preparedness Activity in Kabupaten Malang, East Java, Indonesia","status":"PUBLISHED","created":"2015","lastUpdated":"2017","lastActive":"no","area":3608.974911525084,"changesets":323,"mappers":29,"roads":96.0386433508552,"buildings":4919,"edits":6130,"latest":"2017-03-08T12:35:23.000Z"},"geometry":{"type":"Point","coordinates":[112.638874058965,-8.12350380352826]}},{"type":"Feature","properties":{"id":1178,"title":"Untitled project","status":"ARCHIVED","created":"2015","lastUpdated":"2015","lastActive":"no","area":27.794434799584433,"changesets":0,"mappers":0,"roads":0,"buildings":0,"edits":0,"latest":null},"geometry":{"type":"Point","coordinates":[106.037094157771,-6.2093470100396]}},{"type":"Feature","properties":{"id":1148,"title":"Raung Volcano - Indonesia","status":"ARCHIVED","created":"2015","lastUpdated":"2015","lastActive":"no","area":3396.384172396099,"changesets":5,"mappers":3,"roads":2.00355167127096,"buildings":79,"edits":92,"latest":"2015-10-21T20:55:26.000Z"},"geometry":{"type":"Point","coordinates":[114.031116876177,-8.135163738756]}},{"type":"Feature","properties":{"id":258,"title":"Latihan Kabupaten Buton Utara","status":"PUBLISHED","created":"2013","lastUpdated":"2016","lastActive":"no","area":14.951899744441585,"changesets":111,"mappers":5,"roads":37.7315592011703,"buildings":463,"edits":990,"latest":"2017-12-26T08:29:37.000Z"},"geometry":{"type":"Point","coordinates":[122.983578486052,-4.77535322464851]}},{"type":"Feature","properties":{"id":297,"title":"Aceh Project Area 2","status":"PUBLISHED","created":"2013","lastUpdated":"2014","lastActive":"no","area":35.388245837435974,"changesets":624,"mappers":25,"roads":1095.38235761661,"buildings":133,"edits":3693,"latest":"2018-02-15T02:07:25.000Z"},"geometry":{"type":"Point","coordinates":[96.8524759617595,4.7189461142942]}},{"type":"Feature","properties":{"id":896,"title":"Data Preparedness Activity in Kabupaten Situbondo, East Java, Indonesia","status":"PUBLISHED","created":"2015","lastUpdated":"2018","lastActive":"no","area":1673.1534225044552,"changesets":44,"mappers":8,"roads":27.4505932486567,"buildings":4059,"edits":4229,"latest":"2018-08-07T23:11:48.000Z"},"geometry":{"type":"Point","coordinates":[114.052435183027,-7.80132659749921]}},{"type":"Feature","properties":{"id":875,"title":"---","status":"ARCHIVED","created":"2015","lastUpdated":"2015","lastActive":"no","area":1673.155615732146,"changesets":0,"mappers":0,"roads":0,"buildings":0,"edits":0,"latest":null},"geometry":{"type":"Point","coordinates":[114.052436529188,-7.80132615385991]}},{"type":"Feature","properties":{"id":95,"title":"Help Digitize Tasikmalaya District for Landslide Assessment ","status":"PUBLISHED","created":"2012","lastUpdated":"2017","lastActive":"no","area":685.6501175075578,"changesets":46,"mappers":1,"roads":436.767067173753,"buildings":6912,"edits":7609,"latest":"2018-01-16T05:09:12.000Z"},"geometry":{"type":"Point","coordinates":[108.024904083238,-7.45993579925139]}},{"type":"Feature","properties":{"id":160,"title":"Let's fix Makassar!","status":"PUBLISHED","created":"2013","lastUpdated":"2014","lastActive":"no","area":78.44017500255143,"changesets":377,"mappers":16,"roads":38.9660989391555,"buildings":117818,"edits":118922,"latest":"2018-08-30T03:16:45.000Z"},"geometry":{"type":"Point","coordinates":[119.430569416447,-5.15122741125968]}},{"type":"Feature","properties":{"id":203,"title":"North Jakarta Red Cross / Tulane Mapping","status":"ARCHIVED","created":"2013","lastUpdated":"2014","lastActive":"no","area":14.38620966520452,"changesets":63,"mappers":17,"roads":12.7283050193669,"buildings":441,"edits":723,"latest":"2018-07-24T03:54:44.000Z"},"geometry":{"type":"Point","coordinates":[106.822365678629,-6.12330978046749]}},{"type":"Feature","properties":{"id":256,"title":"Mapping Disaster Prone Area for Papandayan and Guntur Volcano","status":"PUBLISHED","created":"2013","lastUpdated":"2017","lastActive":"no","area":910.4873497253371,"changesets":177,"mappers":5,"roads":16.509553940701,"buildings":802,"edits":1227,"latest":"2018-05-08T07:53:19.000Z"},"geometry":{"type":"Point","coordinates":[107.812651699598,-7.21627336408439]}},{"type":"Feature","properties":{"id":295,"title":"Aceh Project Area 1","status":"PUBLISHED","created":"2013","lastUpdated":"2014","lastActive":"no","area":9.138886115765386,"changesets":762,"mappers":23,"roads":871.082861117097,"buildings":451,"edits":9857,"latest":"2018-02-14T03:27:17.000Z"},"geometry":{"type":"Point","coordinates":[96.7522140579729,4.72098543699988]}},{"type":"Feature","properties":{"id":454,"title":"Help digitize buildings & roads for better emergency response in Mt. Slamet ","status":"PUBLISHED","created":"2014","lastUpdated":"2018","lastActive":"no","area":6.940715703178464,"changesets":0,"mappers":0,"roads":0,"buildings":0,"edits":0,"latest":null},"geometry":{"type":"Point","coordinates":[109.216043387363,-7.24129473882666]}},{"type":"Feature","properties":{"id":2752,"title":"Missing Maps: Kembangan Sub Districs #PDC Jakarta","status":"ARCHIVED","created":"2017","lastUpdated":"2017","lastActive":"no","area":25.229228382556542,"changesets":1726,"mappers":6,"roads":261.075363905223,"buildings":77494,"edits":96219,"latest":"2017-10-06T07:17:24.000Z"},"geometry":{"type":"Point","coordinates":[106.741932072569,-6.1983588926559]}},{"type":"Feature","properties":{"id":2750,"title":"Missing Maps: Pulo Gadung Sub Districs #PDC Jakarta","status":"ARCHIVED","created":"2017","lastUpdated":"2017","lastActive":"no","area":15.017768102585904,"changesets":314,"mappers":4,"roads":6.68953063373833,"buildings":40209,"edits":41840,"latest":"2017-08-03T08:07:09.000Z"},"geometry":{"type":"Point","coordinates":[106.888970840117,-6.19320943394448]}},{"type":"Feature","properties":{"id":1031,"title":"Aktivitas Pengumpulan Data di Kabupaten Timor Tengah Utara (TTU)","status":"PUBLISHED","created":"2015","lastUpdated":"2015","lastActive":"no","area":2631.88847539912,"changesets":9,"mappers":2,"roads":1.51273446172416,"buildings":70,"edits":150,"latest":"2015-05-11T10:23:20.000Z"},"geometry":{"type":"Point","coordinates":[124.569651212504,-9.37751060730675]}},{"type":"Feature","properties":{"id":1012,"title":"Aktivitas Pengumpulan Data di sekitar Danau Tempe dan Ancaman Gempa Bumi ","status":"PUBLISHED","created":"2015","lastUpdated":"2015","lastActive":"no","area":8700.19532526336,"changesets":83,"mappers":5,"roads":149.429711120035,"buildings":6158,"edits":7632,"latest":"2015-07-15T09:20:41.000Z"},"geometry":{"type":"Point","coordinates":[119.961295180703,-4.18428036387788]}},{"type":"Feature","properties":{"id":2065,"title":"Missing Maps: Gayungan Sub Districts #PDC Surabaya","status":"ARCHIVED","created":"2016","lastUpdated":"2017","lastActive":"no","area":5.876548818039097,"changesets":176,"mappers":6,"roads":27.057094561617,"buildings":8728,"edits":9604,"latest":"2017-03-14T02:26:35.000Z"},"geometry":{"type":"Point","coordinates":[112.726874868915,-7.32999419948107]}},{"type":"Feature","properties":{"id":2061,"title":"Missing Maps: Benowo Sub Districts #PDC Surabaya","status":"ARCHIVED","created":"2016","lastUpdated":"2017","lastActive":"no","area":23.449075266218717,"changesets":270,"mappers":5,"roads":183.471536478751,"buildings":22830,"edits":26345,"latest":"2017-02-10T02:55:18.000Z"},"geometry":{"type":"Point","coordinates":[112.646348632844,-7.22649690413484]}},{"type":"Feature","properties":{"id":576,"title":"Indonesian Red Cross Flood Risk Mapping (Kedoya Utara & Kedoya Selatan)","status":"PUBLISHED","created":"2014","lastUpdated":"2017","lastActive":"no","area":9.572161893358784,"changesets":0,"mappers":0,"roads":0,"buildings":0,"edits":0,"latest":null},"geometry":{"type":"Point","coordinates":[106.760472991246,-6.17296332769724]}}],"totalArea":6886560.85174581,"Botswana":[{"type":"Feature","properties":{"id":4339,"title":"Botswana, Gumare Village - National Malaria Programme","status":"PUBLISHED","created":"2018","lastUpdated":"2018","lastActive":"no","area":62.94267106863238,"changesets":408,"mappers":51,"roads":114.3642599087,"buildings":2711,"edits":3636,"latest":"2018-04-18T10:29:18.000Z"},"geometry":{"type":"Point","coordinates":[22.1783284839623,-19.3262353380699]}},{"type":"Feature","properties":{"id":5161,"title":"Botswana, Ngami Sub-district - National Malaria Programme","status":"ARCHIVED","created":"2018","lastUpdated":"2018","lastActive":"no","area":59183.0670446809,"changesets":1,"mappers":1,"roads":0,"buildings":31,"edits":31,"latest":"2018-09-05T16:22:43.000Z"},"geometry":{"type":"Point","coordinates":[23.3126127780449,-19.9939365031887]}},{"type":"Feature","properties":{"id":5184,"title":"Botswana, Bobirwa Sub-district - 01 - National Malaria Programme","status":"ARCHIVED","created":"2018","lastUpdated":"2018","lastActive":"no","area":5662.561868598544,"changesets":1,"mappers":1,"roads":0,"buildings":9,"edits":9,"latest":"2018-09-09T12:52:54.000Z"},"geometry":{"type":"Point","coordinates":[28.5750267323985,-21.934321446397]}},{"type":"Feature","properties":{"id":5162,"title":"Botswana, Boteti Sub-district - National Malaria Programme","status":"ARCHIVED","created":"2018","lastUpdated":"2018","lastActive":"no","area":16562.83359044561,"changesets":3,"mappers":2,"roads":0,"buildings":12,"edits":12,"latest":"2018-09-05T18:50:51.000Z"},"geometry":{"type":"Point","coordinates":[24.6092839036636,-21.0752686480163]}},{"type":"Feature","properties":{"id":5181,"title":"Botswana, Okavango Sub-district - National Malaria Programme","status":"ARCHIVED","created":"2018","lastUpdated":"2018","lastActive":"no","area":32466.830756382315,"changesets":0,"mappers":0,"roads":0,"buildings":0,"edits":0,"latest":null},"geometry":{"type":"Point","coordinates":[22.008151679285,-18.9930660401322]}},{"type":"Feature","properties":{"id":1991,"title":"Missing Maps: Ngami District, Botswana - Clinton Health Access Initiative ","status":"ARCHIVED","created":"2016","lastUpdated":"2017","lastActive":"no","area":65777.26250106131,"changesets":0,"mappers":0,"roads":0,"buildings":0,"edits":0,"latest":null},"geometry":{"type":"Point","coordinates":[23.2841323904972,-20.0026575598528]}},{"type":"Feature","properties":{"id":1893,"title":"Peace Corps Botswana -- Groote Laagte","status":"ARCHIVED","created":"2016","lastUpdated":"2016","lastActive":"no","area":18.194390237277673,"changesets":40,"mappers":10,"roads":41.3550229914716,"buildings":71,"edits":425,"latest":"2016-05-20T13:01:07.000Z"},"geometry":{"type":"Point","coordinates":[21.204246627966,-21.3678270088725]}},{"type":"Feature","properties":{"id":5185,"title":"Botswana, Bobirwa Sub-district - 02 - National Malaria Programme","status":"ARCHIVED","created":"2018","lastUpdated":"2018","lastActive":"no","area":1470.7566346831622,"changesets":66,"mappers":21,"roads":33.664184057159,"buildings":347,"edits":378,"latest":"2018-09-12T17:11:40.000Z"},"geometry":{"type":"Point","coordinates":[28.50484696108,-22.3820740784452]}},{"type":"Feature","properties":{"id":2376,"title":"Missing Maps: BOBIRWA District, Botswana -Part 1/2- Clinton Health Access Initiative - BUILDINGS ONLY  ","status":"ARCHIVED","created":"2016","lastUpdated":"2016","lastActive":"no","area":7146.471227371979,"changesets":2455,"mappers":47,"roads":23.8959178272802,"buildings":20700,"edits":20908,"latest":"2017-02-13T14:31:19.000Z"},"geometry":{"type":"Point","coordinates":[28.5849034996303,-22.1952816839487]}},{"type":"Feature","properties":{"id":2527,"title":"Untitled project","status":"ARCHIVED","created":"2017","lastUpdated":"2017","lastActive":"no","area":240.0800264822955,"changesets":0,"mappers":0,"roads":0,"buildings":0,"edits":0,"latest":null},"geometry":{"type":"Point","coordinates":[27.2381725518904,-20.4791243437741]}},{"type":"Feature","properties":{"id":5183,"title":"Botswana, Tutume Sub-district - Road Network Improvement","status":"PUBLISHED","created":"2018","lastUpdated":"2019","lastActive":"no","area":10265.790520967448,"changesets":1736,"mappers":169,"roads":4689.12654040886,"buildings":2699,"edits":9613,"latest":"2019-01-31T18:21:10.000Z"},"geometry":{"type":"Point","coordinates":[25.8188327114728,-20.0815413865541]}},{"type":"Feature","properties":{"id":2491,"title":"Changate, Botswana - Clinton Health Access Initiative","status":"ARCHIVED","created":"2017","lastUpdated":"2017","lastActive":"no","area":93.80606413322549,"changesets":87,"mappers":1,"roads":0,"buildings":1733,"edits":1733,"latest":"2017-02-10T14:31:35.000Z"},"geometry":{"type":"Point","coordinates":[27.237449845083,-20.29682033743]}},{"type":"Feature","properties":{"id":2503,"title":"Orapa, Botswana","status":"ARCHIVED","created":"2017","lastUpdated":"2017","lastActive":"no","area":360.2381174668008,"changesets":111,"mappers":2,"roads":0.000655108738693123,"buildings":3858,"edits":3882,"latest":"2017-02-13T12:35:52.000Z"},"geometry":{"type":"Point","coordinates":[25.3645079634206,-21.2845231070072]}},{"type":"Feature","properties":{"id":2512,"title":"WMA, Botswana, Clinton Health Access Initiative","status":"ARCHIVED","created":"2017","lastUpdated":"2017","lastActive":"no","area":10119.295625237915,"changesets":10,"mappers":1,"roads":0,"buildings":207,"edits":207,"latest":"2017-02-14T10:28:14.000Z"},"geometry":{"type":"Point","coordinates":[25.6000717391353,-19.4105744561759]}},{"type":"Feature","properties":{"id":2495,"title":"ZORGOA, Botswana - Clinton Health Access Initiative","status":"ARCHIVED","created":"2017","lastUpdated":"2017","lastActive":"no","area":2281.5260163522767,"changesets":92,"mappers":2,"roads":0.0000551241330686025,"buildings":364,"edits":366,"latest":"2017-03-02T09:26:45.000Z"},"geometry":{"type":"Point","coordinates":[25.7065765158285,-20.3189219602555]}},{"type":"Feature","properties":{"id":1590,"title":"Peace Corps Botswana - Sepopa","status":"ARCHIVED","created":"2016","lastUpdated":"2016","lastActive":"no","area":4.126976225822726,"changesets":104,"mappers":27,"roads":45.5905205721354,"buildings":947,"edits":1844,"latest":"2016-04-11T16:42:55.000Z"},"geometry":{"type":"Point","coordinates":[22.1725391962034,-18.7398233857328]}},{"type":"Feature","properties":{"id":1035,"title":"Peace Corps Botswana - Molepolole III","status":"PUBLISHED","created":"2015","lastUpdated":"2017","lastActive":"no","area":14.04745954473544,"changesets":538,"mappers":49,"roads":28.6935776094552,"buildings":6177,"edits":6837,"latest":"2017-02-24T10:34:09.000Z"},"geometry":{"type":"Point","coordinates":[25.5010282541785,-24.3865919107098]}},{"type":"Feature","properties":{"id":2499,"title":"NKANGE, Botswana - Clinton Health Access Initiative","status":"ARCHIVED","created":"2017","lastUpdated":"2017","lastActive":"no","area":157.52170444706366,"changesets":151,"mappers":4,"roads":0,"buildings":3193,"edits":3193,"latest":"2017-02-13T06:40:52.000Z"},"geometry":{"type":"Point","coordinates":[27.1518789450639,-20.2933744526696]}},{"type":"Feature","properties":{"id":2497,"title":"MARAPONG, Botswana - Clinton Health Access Initiative","status":"ARCHIVED","created":"2017","lastUpdated":"2017","lastActive":"no","area":404.47681596670554,"changesets":127,"mappers":2,"roads":0,"buildings":2889,"edits":2889,"latest":"2017-02-17T06:20:49.000Z"},"geometry":{"type":"Point","coordinates":[26.9638444741489,-20.8946752912905]}},{"type":"Feature","properties":{"id":2493,"title":"WILDLIFE MGMT AREA CT10- Botswana - Clinton Health Access Initiative","status":"ARCHIVED","created":"2017","lastUpdated":"2017","lastActive":"no","area":5129.758003508448,"changesets":83,"mappers":1,"roads":0,"buildings":1627,"edits":1627,"latest":"2017-02-10T14:29:19.000Z"},"geometry":{"type":"Point","coordinates":[25.1987290458312,-20.7395242624559]}},{"type":"Feature","properties":{"id":2517,"title":"Missing Maps: Mosu, Botswana - Clinton Health Access Initiative","status":"ARCHIVED","created":"2017","lastUpdated":"2017","lastActive":"no","area":2220.4774511050036,"changesets":115,"mappers":10,"roads":15.9142033171499,"buildings":1089,"edits":1153,"latest":"2017-02-20T14:28:30.000Z"},"geometry":{"type":"Point","coordinates":[26.0504000315427,-21.1107601577386]}},{"type":"Feature","properties":{"id":2510,"title":"Missing Maps: Zone 2B, Botswana - Clinton Health Access Initiative","status":"ARCHIVED","created":"2017","lastUpdated":"2017","lastActive":"no","area":530.648311842292,"changesets":22,"mappers":2,"roads":0,"buildings":140,"edits":140,"latest":"2017-02-11T06:30:26.000Z"},"geometry":{"type":"Point","coordinates":[25.213390792779,-21.636622455615]}},{"type":"Feature","properties":{"id":2516,"title":"MAROBELA, Botswana, Clinton Health Access Initiative","status":"ARCHIVED","created":"2017","lastUpdated":"2017","lastActive":"no","area":126.24980928852588,"changesets":291,"mappers":6,"roads":2.29827283959594e-9,"buildings":4778,"edits":4788,"latest":"2017-02-13T14:27:39.000Z"},"geometry":{"type":"Point","coordinates":[27.2226710978192,-20.9161937916415]}},{"type":"Feature","properties":{"id":2505,"title":"Mopipi, Botswana","status":"ARCHIVED","created":"2017","lastUpdated":"2017","lastActive":"no","area":775.5191953110237,"changesets":216,"mappers":8,"roads":10.1845108419423,"buildings":2461,"edits":2513,"latest":"2017-02-15T12:14:15.000Z"},"geometry":{"type":"Point","coordinates":[24.8752904546617,-21.1263439580856]}},{"type":"Feature","properties":{"id":1538,"title":"Peace Corps Botswana - Serowe","status":"PUBLISHED","created":"2016","lastUpdated":"2018","lastActive":"no","area":103.03380657395984,"changesets":1123,"mappers":127,"roads":507.440389502026,"buildings":18456,"edits":23113,"latest":"2018-09-12T08:44:26.000Z"},"geometry":{"type":"Point","coordinates":[26.7196956660752,-22.4060053626072]}},{"type":"Feature","properties":{"id":2152,"title":"Peace Corps -- Botswana","status":"PUBLISHED","created":"2016","lastUpdated":"2018","lastActive":"no","area":399.9650587062993,"changesets":3534,"mappers":386,"roads":3661.07145658057,"buildings":85793,"edits":113013,"latest":"2018-11-13T13:40:52.000Z"},"geometry":{"type":"Point","coordinates":[25.7667174209141,-23.123439124819]}},{"type":"Feature","properties":{"id":2374,"title":"Missing Maps: Ngami District, Botswana -Part 4/5- Clinton Health Access Initiative - BUILDINGS ONLYoject","status":"ARCHIVED","created":"2016","lastUpdated":"2016","lastActive":"no","area":9146.493797836127,"changesets":0,"mappers":0,"roads":0,"buildings":0,"edits":0,"latest":null},"geometry":{"type":"Point","coordinates":[23.2213603571419,-19.783292692621]}},{"type":"Feature","properties":{"id":2508,"title":"Missing Maps: Xere, Botswana - Clinton Health Access Initiative","status":"ARCHIVED","created":"2017","lastUpdated":"2017","lastActive":"no","area":938.6740203375277,"changesets":28,"mappers":1,"roads":0.000379540672374958,"buildings":359,"edits":361,"latest":"2017-02-09T09:47:23.000Z"},"geometry":{"type":"Point","coordinates":[24.2169320274099,-21.226511077777]}},{"type":"Feature","properties":{"id":760,"title":"Peace Corps Stomp Out Malaria - Pandamatenga Area","status":"ARCHIVED","created":"2014","lastUpdated":"2014","lastActive":"no","area":16.266774590535444,"changesets":0,"mappers":0,"roads":0,"buildings":0,"edits":0,"latest":null},"geometry":{"type":"Point","coordinates":[25.6420927772446,-18.5410442291454]}},{"type":"Feature","properties":{"id":1512,"title":"Peace Corps Botswana - Tutume","status":"ARCHIVED","created":"2016","lastUpdated":"2016","lastActive":"no","area":40.503255387374736,"changesets":1474,"mappers":73,"roads":179.304518754093,"buildings":17279,"edits":19864,"latest":"2016-10-14T10:43:00.000Z"},"geometry":{"type":"Point","coordinates":[27.0371385282309,-20.5004223442006]}},{"type":"Feature","properties":{"id":1803,"title":"Peace Corps Botswana -- Kang","status":"PUBLISHED","created":"2016","lastUpdated":"2018","lastActive":"no","area":28.34379858272266,"changesets":227,"mappers":17,"roads":197.59128660123,"buildings":4564,"edits":7204,"latest":"2018-03-13T19:53:20.000Z"},"geometry":{"type":"Point","coordinates":[22.7981988818947,-23.6740237881026]}},{"type":"Feature","properties":{"id":1037,"title":"Peace Corps Botswana - Molepolole V","status":"PUBLISHED","created":"2015","lastUpdated":"2017","lastActive":"no","area":16.31817162737985,"changesets":1051,"mappers":90,"roads":230.955311071122,"buildings":8536,"edits":11426,"latest":"2017-02-24T11:38:02.000Z"},"geometry":{"type":"Point","coordinates":[25.4719983568004,-24.4020611534747]}},{"type":"Feature","properties":{"id":954,"title":"Peace Corps Botswana - Thamaga VI","status":"PUBLISHED","created":"2015","lastUpdated":"2017","lastActive":"no","area":5.315276500548214,"changesets":70,"mappers":6,"roads":42.1040000400871,"buildings":855,"edits":1511,"latest":"2017-02-24T07:46:57.000Z"},"geometry":{"type":"Point","coordinates":[25.5260766960465,-24.6828435379038]}},{"type":"Feature","properties":{"id":952,"title":"Peace Corps Botswana - Thamaga IV","status":"PUBLISHED","created":"2015","lastUpdated":"2015","lastActive":"no","area":6.236986219341584,"changesets":21,"mappers":2,"roads":16.2447485867183,"buildings":554,"edits":788,"latest":"2015-07-18T11:59:51.000Z"},"geometry":{"type":"Point","coordinates":[25.524147538995,-24.6564067764375]}},{"type":"Feature","properties":{"id":1022,"title":"Peace Corps Botswana - Molepolole I","status":"PUBLISHED","created":"2015","lastUpdated":"2015","lastActive":"no","area":8.587554796204715,"changesets":748,"mappers":26,"roads":25.5928898708746,"buildings":2488,"edits":3244,"latest":"2015-09-12T21:01:44.000Z"},"geometry":{"type":"Point","coordinates":[25.5804258494739,-24.3977876138032]}},{"type":"Feature","properties":{"id":1772,"title":"Missing Maps: Chobe District, Botswana - Clinton Health Access Initiative ","status":"ARCHIVED","created":"2016","lastUpdated":"2019","lastActive":"no","area":21188.486703991395,"changesets":600,"mappers":121,"roads":1701.20767748245,"buildings":14170,"edits":20230,"latest":"2017-08-15T15:41:18.000Z"},"geometry":{"type":"Point","coordinates":[24.8039971245855,-18.5134283179712]}},{"type":"Feature","properties":{"id":1993,"title":"Missing Maps: Tutume District, Botswana - Clinton Health Access Initiative ","status":"ARCHIVED","created":"2016","lastUpdated":"2019","lastActive":"no","area":40073.08018870562,"changesets":0,"mappers":0,"roads":0,"buildings":0,"edits":0,"latest":null},"geometry":{"type":"Point","coordinates":[26.0373918311498,-20.1707055622474]}},{"type":"Feature","properties":{"id":1331,"title":"Peace Corps Botswana - Goodhope","status":"ARCHIVED","created":"2015","lastUpdated":"2016","lastActive":"no","area":62.06260037376828,"changesets":674,"mappers":33,"roads":564.874062205233,"buildings":5335,"edits":10718,"latest":"2016-03-02T23:34:31.000Z"},"geometry":{"type":"Point","coordinates":[25.4586365642769,-25.4834764948192]}},{"type":"Feature","properties":{"id":4317,"title":"Botswana, Chobe District - National Malaria Programme","status":"PUBLISHED","created":"2018","lastUpdated":"2018","lastActive":"no","area":2422.6655366125387,"changesets":1401,"mappers":158,"roads":1981.40636245232,"buildings":5944,"edits":11864,"latest":"2018-04-22T20:13:03.000Z"},"geometry":{"type":"Point","coordinates":[24.9305227330624,-18.3594754240366]}},{"type":"Feature","properties":{"id":4340,"title":"Botswana, Mathathane Village - National Malaria Programme","status":"PUBLISHED","created":"2018","lastUpdated":"2018","lastActive":"no","area":71.14226400245143,"changesets":260,"mappers":35,"roads":270.672171601546,"buildings":1057,"edits":2262,"latest":"2018-04-26T20:24:37.000Z"},"geometry":{"type":"Point","coordinates":[28.6789788154414,-22.2517860838973]}},{"type":"Feature","properties":{"id":4337,"title":"Botswana, Nata Village - National Malaria Programme","status":"ARCHIVED","created":"2018","lastUpdated":"2018","lastActive":"no","area":434.7624185042024,"changesets":307,"mappers":52,"roads":193.648583756651,"buildings":1256,"edits":1783,"latest":"2018-03-29T17:19:17.000Z"},"geometry":{"type":"Point","coordinates":[26.168439315419,-20.3921706084066]}},{"type":"Feature","properties":{"id":4382,"title":"Botswana, Nata Village (re-do) - National Malaria Programme","status":"PUBLISHED","created":"2018","lastUpdated":"2018","lastActive":"no","area":434.7624185220041,"changesets":662,"mappers":110,"roads":697.130695316267,"buildings":3508,"edits":6902,"latest":"2018-04-14T08:01:09.000Z"},"geometry":{"type":"Point","coordinates":[26.1684393154216,-20.392170608413]}}],"Tanzania":[{"type":"Feature","properties":{"id":5132,"title":"Mbeya","status":"PUBLISHED","created":"2018","lastUpdated":"2018","lastActive":"no","area":32.205542095178586,"changesets":1096,"mappers":149,"roads":10.112548747506,"buildings":22237,"edits":23434,"latest":"2018-09-21T09:26:09.000Z"},"geometry":{"type":"Point","coordinates":[33.4905580602805,-8.88468840419366]}},{"type":"Feature","properties":{"id":5149,"title":"Makurumla","status":"PUBLISHED","created":"2018","lastUpdated":"2018","lastActive":"no","area":1.5565034409898066,"changesets":6,"mappers":3,"roads":0.155136909614126,"buildings":44,"edits":51,"latest":"2018-09-27T08:15:11.000Z"},"geometry":{"type":"Point","coordinates":[39.2425747094317,-6.80590884032526]}},{"type":"Feature","properties":{"id":5154,"title":"Tabata","status":"PUBLISHED","created":"2018","lastUpdated":"2018","lastActive":"no","area":4.474362552715539,"changesets":1339,"mappers":40,"roads":3.34133572011009,"buildings":16310,"edits":18457,"latest":"2018-09-18T12:54:13.000Z"},"geometry":{"type":"Point","coordinates":[39.2250548605046,-6.82841398190697]}},{"type":"Feature","properties":{"id":5156,"title":"Sombetini","status":"PUBLISHED","created":"2018","lastUpdated":"2018","lastActive":"no","area":2.158067893428719,"changesets":293,"mappers":79,"roads":0.414735952058103,"buildings":8073,"edits":8138,"latest":"2018-09-07T20:15:20.000Z"},"geometry":{"type":"Point","coordinates":[36.6679931001053,-3.38106582367836]}},{"type":"Feature","properties":{"id":3159,"title":"Tanzania Development Trust: Singida district community mapping project ","status":"PUBLISHED","created":"2017","lastUpdated":"2018","lastActive":"no","area":746.5381861519145,"changesets":8158,"mappers":373,"roads":10510.3568767361,"buildings":97706,"edits":203282,"latest":"2019-01-01T06:32:47.000Z"},"geometry":{"type":"Point","coordinates":[34.973843496759,-4.67540763811596]}},{"type":"Feature","properties":{"id":5691,"title":"Tanzania missing buildings Monduli District, Arusha","status":"PUBLISHED","created":"2019","lastUpdated":"2019","lastActive":"yes","area":713.2427696372321,"changesets":536,"mappers":53,"roads":9.1968309989079,"buildings":5483,"edits":5535,"latest":"2019-02-03T09:36:52.000Z"},"geometry":{"type":"Point","coordinates":[36.2220988816253,-3.3202456121967]}},{"type":"Feature","properties":{"id":5557,"title":"Lamaiti","status":"PUBLISHED","created":"2018","lastUpdated":"2018","lastActive":"no","area":326.2386225078726,"changesets":1,"mappers":1,"roads":0,"buildings":1,"edits":1,"latest":"2018-12-07T10:59:51.000Z"},"geometry":{"type":"Point","coordinates":[35.5037148641028,-5.76552887192817]}},{"type":"Feature","properties":{"id":5559,"title":"Mpalanga","status":"PUBLISHED","created":"2018","lastUpdated":"2019","lastActive":"no","area":169.7571439071226,"changesets":7,"mappers":4,"roads":0.109727490794065,"buildings":23,"edits":26,"latest":"2019-01-28T08:55:24.000Z"},"geometry":{"type":"Point","coordinates":[35.4848551883275,-6.2923504082537]}},{"type":"Feature","properties":{"id":5547,"title":"mpamantwa_pilot","status":"PUBLISHED","created":"2018","lastUpdated":"2018","lastActive":"no","area":308.4274233341887,"changesets":0,"mappers":0,"roads":0,"buildings":0,"edits":0,"latest":null},"geometry":{"type":"Point","coordinates":[35.327037548613,-5.9855572467169]}},{"type":"Feature","properties":{"id":4978,"title":"Tanzania Development Trust: Magata Karutonga  Community Mapping Project","status":"ARCHIVED","created":"2018","lastUpdated":"2018","lastActive":"no","area":34.0634342157299,"changesets":760,"mappers":56,"roads":433.264175834421,"buildings":3163,"edits":6211,"latest":"2018-08-19T16:59:22.000Z"},"geometry":{"type":"Point","coordinates":[31.6336096442559,-1.87369450984158]}},{"type":"Feature","properties":{"id":4357,"title":"Tanzania Development Trust: Rungwe Kasulu Community Mapping Project","status":"ARCHIVED","created":"2018","lastUpdated":"2018","lastActive":"no","area":1013.1767777919853,"changesets":5552,"mappers":409,"roads":4999.48387166667,"buildings":20822,"edits":49162,"latest":"2018-06-17T14:10:03.000Z"},"geometry":{"type":"Point","coordinates":[30.2493018751241,-4.77015701562809]}},{"type":"Feature","properties":{"id":4281,"title":"Tanzania Development Trust: Muleba Community Mapping Project","status":"ARCHIVED","created":"2018","lastUpdated":"2018","lastActive":"no","area":7.595025994574089,"changesets":807,"mappers":46,"roads":152.380940730158,"buildings":3685,"edits":5608,"latest":"2018-03-14T04:07:41.000Z"},"geometry":{"type":"Point","coordinates":[31.6560461932452,-1.84575729647524]}},{"type":"Feature","properties":{"id":4406,"title":"Tanzania Development Trust: Kyaibumba Community Mapping Project","status":"ARCHIVED","created":"2018","lastUpdated":"2018","lastActive":"no","area":14.678296379059542,"changesets":158,"mappers":30,"roads":133.357573789262,"buildings":795,"edits":1536,"latest":"2018-04-09T12:26:56.000Z"},"geometry":{"type":"Point","coordinates":[31.4548536327291,-1.9073101465972]}},{"type":"Feature","properties":{"id":4325,"title":"Tanzania Development Trust: Kakuraijo Karagwe Community Mapping Project","status":"ARCHIVED","created":"2018","lastUpdated":"2018","lastActive":"no","area":26.03432942227103,"changesets":294,"mappers":21,"roads":200.728606871569,"buildings":2268,"edits":3280,"latest":"2018-03-19T17:29:04.000Z"},"geometry":{"type":"Point","coordinates":[30.9998529759753,-1.76362344469638]}},{"type":"Feature","properties":{"id":4335,"title":"Tanzania Development Trust: Urambo Community Mapping Project","status":"ARCHIVED","created":"2018","lastUpdated":"2018","lastActive":"no","area":22.72434812488303,"changesets":539,"mappers":76,"roads":209.42903890829,"buildings":7236,"edits":9333,"latest":"2018-03-25T09:46:55.000Z"},"geometry":{"type":"Point","coordinates":[32.0763834649408,-5.08236418614099]}},{"type":"Feature","properties":{"id":4307,"title":"Tanzania Development Trust: Burungura Community Mapping Project","status":"ARCHIVED","created":"2018","lastUpdated":"2018","lastActive":"no","area":12.132811235880215,"changesets":422,"mappers":60,"roads":224.496584040424,"buildings":934,"edits":2752,"latest":"2018-03-15T22:38:18.000Z"},"geometry":{"type":"Point","coordinates":[31.4863826867625,-1.89364869788793]}},{"type":"Feature","properties":{"id":4284,"title":"Tanzania Development Trust: Nyakigando Ikimba Community Mapping Project","status":"ARCHIVED","created":"2018","lastUpdated":"2018","lastActive":"no","area":9.041298427344486,"changesets":320,"mappers":21,"roads":159.247797886851,"buildings":1179,"edits":3057,"latest":"2018-03-12T21:12:54.000Z"},"geometry":{"type":"Point","coordinates":[31.5705837031557,-1.51810455931155]}},{"type":"Feature","properties":{"id":4316,"title":"Tanzania Development Trust: Ngara Community Mapping Project","status":"ARCHIVED","created":"2018","lastUpdated":"2018","lastActive":"no","area":5.680090353476652,"changesets":293,"mappers":44,"roads":80.4486420340574,"buildings":3478,"edits":4114,"latest":"2018-03-30T14:34:54.000Z"},"geometry":{"type":"Point","coordinates":[30.6563660461257,-2.51312893241178]}},{"type":"Feature","properties":{"id":4329,"title":"Tanzania Development Trust: Chabuhora Karagwe Community Mapping Project","status":"ARCHIVED","created":"2018","lastUpdated":"2018","lastActive":"no","area":29.098942849205926,"changesets":337,"mappers":36,"roads":136.59546293545,"buildings":2260,"edits":3376,"latest":"2018-03-20T08:56:00.000Z"},"geometry":{"type":"Point","coordinates":[30.9793967385239,-1.78282439868476]}},{"type":"Feature","properties":{"id":4404,"title":"Tanzania Development Trust: Kiyebe Community Mapping Project","status":"ARCHIVED","created":"2018","lastUpdated":"2018","lastActive":"no","area":14.54425632534702,"changesets":165,"mappers":25,"roads":179.882131248454,"buildings":904,"edits":2112,"latest":"2018-04-12T18:26:16.000Z"},"geometry":{"type":"Point","coordinates":[31.5213611368364,-2.01443774986169]}},{"type":"Feature","properties":{"id":4293,"title":"Tanzania Development Trust: Kibirizi Community Mapping Project","status":"ARCHIVED","created":"2018","lastUpdated":"2018","lastActive":"no","area":75.76463029779623,"changesets":932,"mappers":112,"roads":628.528332051034,"buildings":2461,"edits":8182,"latest":"2018-03-25T15:01:12.000Z"},"geometry":{"type":"Point","coordinates":[31.4031606875565,-1.63216015619948]}},{"type":"Feature","properties":{"id":2361,"title":"Tanzania Development Trust: Tabora district mapping project","status":"PUBLISHED","created":"2016","lastUpdated":"2018","lastActive":"no","area":11331.719987775972,"changesets":11664,"mappers":420,"roads":28508.3138575683,"buildings":316326,"edits":517728,"latest":"2018-09-05T04:26:28.000Z"},"geometry":{"type":"Point","coordinates":[32.9311624412335,-5.02219301254299]}},{"type":"Feature","properties":{"id":5555,"title":"Ilindi","status":"PUBLISHED","created":"2018","lastUpdated":"2018","lastActive":"no","area":196.2382680447729,"changesets":132,"mappers":16,"roads":27.6915017919429,"buildings":205,"edits":257,"latest":"2019-01-03T23:41:17.000Z"},"geometry":{"type":"Point","coordinates":[35.5328145148499,-5.91621278072473]}},{"type":"Feature","properties":{"id":5542,"title":"Bahi","status":"PUBLISHED","created":"2018","lastUpdated":"2018","lastActive":"no","area":245.4160164970151,"changesets":0,"mappers":0,"roads":0,"buildings":0,"edits":0,"latest":null},"geometry":{"type":"Point","coordinates":[35.2791646451881,-5.93535746858305]}},{"type":"Feature","properties":{"id":5532,"title":"Bahi_Pilot","status":"PUBLISHED","created":"2018","lastUpdated":"2018","lastActive":"no","area":332.82676510382277,"changesets":1,"mappers":1,"roads":159.338500420196,"buildings":0,"edits":2,"latest":"2018-11-22T18:13:15.000Z"},"geometry":{"type":"Point","coordinates":[35.8282202770526,-5.78331947358886]}},{"type":"Feature","properties":{"id":5322,"title":"Gerezani","status":"PUBLISHED","created":"2018","lastUpdated":"2018","lastActive":"no","area":0.6617969975738225,"changesets":244,"mappers":19,"roads":0.0429388379459798,"buildings":959,"edits":1687,"latest":"2018-10-05T09:50:57.000Z"},"geometry":{"type":"Point","coordinates":[39.2751643416466,-6.82552891846113]}},{"type":"Feature","properties":{"id":5529,"title":"Tanzania missing buildings Simanjiro District","status":"PUBLISHED","created":"2018","lastUpdated":"2019","lastActive":"no","area":1446.0821011615285,"changesets":6053,"mappers":390,"roads":471.359908389494,"buildings":42585,"edits":43940,"latest":"2019-02-01T14:33:07.000Z"},"geometry":{"type":"Point","coordinates":[36.977133550602,-4.08798441021924]}},{"type":"Feature","properties":{"id":5588,"title":"Tanzania missing buildings Babati District","status":"PUBLISHED","created":"2018","lastUpdated":"2019","lastActive":"yes","area":1517.0501880287118,"changesets":5817,"mappers":396,"roads":329.442204218554,"buildings":52766,"edits":54672,"latest":"2019-02-02T23:02:16.000Z"},"geometry":{"type":"Point","coordinates":[35.6567410589608,-4.14263266870681]}},{"type":"Feature","properties":{"id":5029,"title":"Kigogo","status":"PUBLISHED","created":"2018","lastUpdated":"2018","lastActive":"no","area":1.919044857626449,"changesets":1335,"mappers":37,"roads":2.99758976000865,"buildings":13712,"edits":15491,"latest":"2018-08-31T08:16:38.000Z"},"geometry":{"type":"Point","coordinates":[39.245687327176,-6.81863004202305]}},{"type":"Feature","properties":{"id":5131,"title":"Mwanga","status":"PUBLISHED","created":"2018","lastUpdated":"2018","lastActive":"no","area":3782.6420454970325,"changesets":569,"mappers":80,"roads":7.81830506173643,"buildings":21219,"edits":21349,"latest":"2018-09-05T19:32:28.000Z"},"geometry":{"type":"Point","coordinates":[37.5770749373082,-3.7639028140101]}},{"type":"Feature","properties":{"id":5027,"title":"Ilala","status":"PUBLISHED","created":"2018","lastUpdated":"2018","lastActive":"no","area":2.1401569895589914,"changesets":990,"mappers":36,"roads":0.685158972388243,"buildings":8391,"edits":9512,"latest":"2018-09-05T11:06:57.000Z"},"geometry":{"type":"Point","coordinates":[39.2595696928926,-6.82787629400169]}},{"type":"Feature","properties":{"id":2261,"title":"Tanzania Development Trust: Serengeti district mapping project part 2","status":"PUBLISHED","created":"2016","lastUpdated":"2019","lastActive":"no","area":11207.631576365555,"changesets":34063,"mappers":1633,"roads":29683.6540443379,"buildings":605432,"edits":921936,"latest":"2019-02-03T00:22:21.000Z"},"geometry":{"type":"Point","coordinates":[33.6631417496372,-1.71314326443619]}},{"type":"Feature","properties":{"id":5551,"title":"Chipanga","status":"PUBLISHED","created":"2018","lastUpdated":"2018","lastActive":"no","area":198.24189193587776,"changesets":0,"mappers":0,"roads":0,"buildings":0,"edits":0,"latest":null},"geometry":{"type":"Point","coordinates":[35.3809548797818,-6.2699217899786]}},{"type":"Feature","properties":{"id":4799,"title":"Priority Villages, Arusha Region, Tanzania Mini Grids Project","status":"PUBLISHED","created":"2018","lastUpdated":"2018","lastActive":"no","area":188.40438855389118,"changesets":190,"mappers":24,"roads":0.065129375727978,"buildings":5995,"edits":6000,"latest":"2018-06-27T08:53:12.000Z"},"geometry":{"type":"Point","coordinates":[35.7093307611836,-2.32524942071168]}},{"type":"Feature","properties":{"id":5549,"title":"Chibelela","status":"PUBLISHED","created":"2018","lastUpdated":"2018","lastActive":"no","area":116.30561855464316,"changesets":0,"mappers":0,"roads":0,"buildings":0,"edits":0,"latest":null},"geometry":{"type":"Point","coordinates":[35.677159098994,-6.39138296668424]}},{"type":"Feature","properties":{"id":4804,"title":"Priority Villages, Shinyanga Region, Tanzania Mini Grids Project","status":"PUBLISHED","created":"2018","lastUpdated":"2018","lastActive":"no","area":1465.614946569395,"changesets":1321,"mappers":44,"roads":0.221320667325215,"buildings":61883,"edits":61936,"latest":"2018-11-15T09:30:56.000Z"},"geometry":{"type":"Point","coordinates":[32.879747752917,-4.01346413808607]}},{"type":"Feature","properties":{"id":5534,"title":"Nondwa","status":"PUBLISHED","created":"2018","lastUpdated":"2018","lastActive":"no","area":1008.4644905302546,"changesets":187,"mappers":17,"roads":0.00247989935987292,"buildings":670,"edits":674,"latest":"2018-11-23T12:38:29.000Z"},"geometry":{"type":"Point","coordinates":[35.326350963294,-6.53971625781216]}},{"type":"Feature","properties":{"id":5553,"title":"Ibihwa","status":"PUBLISHED","created":"2018","lastUpdated":"2018","lastActive":"no","area":209.9917674853979,"changesets":174,"mappers":15,"roads":0.00554910726118807,"buildings":374,"edits":380,"latest":"2018-11-23T11:23:13.000Z"},"geometry":{"type":"Point","coordinates":[35.4403328490389,-5.96240219007883]}},{"type":"Feature","properties":{"id":5540,"title":"Mundemu_pilot","status":"PUBLISHED","created":"2018","lastUpdated":"2018","lastActive":"no","area":130.61456919995516,"changesets":0,"mappers":0,"roads":0,"buildings":0,"edits":0,"latest":null},"geometry":{"type":"Point","coordinates":[35.6606462889206,-5.92424987379376]}},{"type":"Feature","properties":{"id":1066,"title":"Missing Maps: Kigoma region towns, Burundi / Tanzania","status":"ARCHIVED","created":"2015","lastUpdated":"2015","lastActive":"no","area":213.63718639264667,"changesets":2,"mappers":1,"roads":1.68154796651448,"buildings":231,"edits":245,"latest":"2015-09-27T23:38:29.000Z"},"geometry":{"type":"Point","coordinates":[29.6664188192449,-4.72722002716652]}},{"type":"Feature","properties":{"id":5466,"title":"Makongo","status":"PUBLISHED","created":"2018","lastUpdated":"2019","lastActive":"no","area":18.298105774811496,"changesets":21,"mappers":9,"roads":0.915972993413625,"buildings":85,"edits":117,"latest":"2019-01-25T16:18:46.000Z"},"geometry":{"type":"Point","coordinates":[39.195804874665,-6.75981768277186]}},{"type":"Feature","properties":{"id":5441,"title":"Kinondoni","status":"PUBLISHED","created":"2018","lastUpdated":"2018","lastActive":"no","area":1.9111633153129555,"changesets":723,"mappers":19,"roads":0.51286613158573,"buildings":5979,"edits":6448,"latest":"2018-11-09T12:51:55.000Z"},"geometry":{"type":"Point","coordinates":[39.270133890838,-6.78485592342873]}},{"type":"Feature","properties":{"id":5398,"title":"Ungindoni_METEOR","status":"PUBLISHED","created":"2018","lastUpdated":"2019","lastActive":"no","area":0.8096558160905647,"changesets":8,"mappers":1,"roads":1.50857497492245,"buildings":22,"edits":39,"latest":"2019-01-16T13:57:53.000Z"},"geometry":{"type":"Point","coordinates":[39.3545451261367,-6.8745441047526]}},{"type":"Feature","properties":{"id":5320,"title":"Mburahati","status":"PUBLISHED","created":"2018","lastUpdated":"2018","lastActive":"no","area":1.1212118323428015,"changesets":15,"mappers":2,"roads":0.0911120604846218,"buildings":12,"edits":16,"latest":"2018-10-10T03:09:39.000Z"},"geometry":{"type":"Point","coordinates":[39.242086920805,-6.81266527325492]}},{"type":"Feature","properties":{"id":5291,"title":"Bububu Zanzibar Mapping","status":"PUBLISHED","created":"2018","lastUpdated":"2019","lastActive":"no","area":9.349523279823226,"changesets":186,"mappers":73,"roads":24.7842441338549,"buildings":2763,"edits":3177,"latest":"2019-01-23T11:58:32.000Z"},"geometry":{"type":"Point","coordinates":[39.2207064718988,-6.09133977311896]}},{"type":"Feature","properties":{"id":5191,"title":"Arusha Urban","status":"PUBLISHED","created":"2018","lastUpdated":"2018","lastActive":"no","area":21.060253845499485,"changesets":419,"mappers":41,"roads":6.50137513028055,"buildings":9420,"edits":9639,"latest":"2019-01-12T01:11:52.000Z"},"geometry":{"type":"Point","coordinates":[36.6801067826224,-3.35473835249449]}},{"type":"Feature","properties":{"id":5317,"title":"Kijitonyama","status":"PUBLISHED","created":"2018","lastUpdated":"2018","lastActive":"no","area":3.944334462943499,"changesets":984,"mappers":24,"roads":1.36938792486868,"buildings":12348,"edits":13618,"latest":"2018-11-02T12:54:37.000Z"},"geometry":{"type":"Point","coordinates":[39.2362348265782,-6.77781749264387]}},{"type":"Feature","properties":{"id":5201,"title":"Mbagala Kuu","status":"PUBLISHED","created":"2018","lastUpdated":"2018","lastActive":"no","area":6.586352566704119,"changesets":696,"mappers":18,"roads":2.03386537084955,"buildings":7935,"edits":8531,"latest":"2018-10-18T10:59:16.000Z"},"geometry":{"type":"Point","coordinates":[39.2823935446052,-6.90745859327607]}},{"type":"Feature","properties":{"id":5386,"title":"Gerezani_METEOR","status":"PUBLISHED","created":"2018","lastUpdated":"2018","lastActive":"no","area":0.31545538866072964,"changesets":208,"mappers":20,"roads":5.17559823813131,"buildings":366,"edits":844,"latest":"2018-10-25T08:50:20.000Z"},"geometry":{"type":"Point","coordinates":[39.2753213377704,-6.82192478353065]}},{"type":"Feature","properties":{"id":5325,"title":"Mwananyamala","status":"PUBLISHED","created":"2018","lastUpdated":"2018","lastActive":"no","area":2.49542175237576,"changesets":336,"mappers":20,"roads":0.154280978731387,"buildings":1714,"edits":2074,"latest":"2018-10-09T13:18:30.000Z"},"geometry":{"type":"Point","coordinates":[39.2586298839167,-6.78686342634381]}},{"type":"Feature","properties":{"id":5356,"title":"Kimanga","status":"PUBLISHED","created":"2018","lastUpdated":"2018","lastActive":"no","area":9.377792323494011,"changesets":1,"mappers":1,"roads":0,"buildings":2,"edits":2,"latest":"2018-10-16T13:25:26.000Z"},"geometry":{"type":"Point","coordinates":[39.1889734397382,-6.82488295475237]}},{"type":"Feature","properties":{"id":5392,"title":"Miembeni_METEOR","status":"PUBLISHED","created":"2018","lastUpdated":"2018","lastActive":"no","area":0.6398735476823335,"changesets":38,"mappers":6,"roads":0.812261387339561,"buildings":332,"edits":416,"latest":"2018-10-26T09:57:26.000Z"},"geometry":{"type":"Point","coordinates":[39.2311523544842,-6.84980246580113]}},{"type":"Feature","properties":{"id":5396,"title":"Sinza_METEOR","status":"PUBLISHED","created":"2018","lastUpdated":"2018","lastActive":"no","area":0.11495287086645402,"changesets":65,"mappers":15,"roads":0.115200681951529,"buildings":130,"edits":194,"latest":"2018-11-01T13:14:45.000Z"},"geometry":{"type":"Point","coordinates":[39.2245824861265,-6.7834148800241]}},{"type":"Feature","properties":{"id":5390,"title":"Kisutu_METEOR","status":"PUBLISHED","created":"2018","lastUpdated":"2018","lastActive":"no","area":0.30002608748587883,"changesets":75,"mappers":13,"roads":0.336096943618833,"buildings":286,"edits":453,"latest":"2018-10-25T14:59:01.000Z"},"geometry":{"type":"Point","coordinates":[39.287876425417,-6.81640921080609]}},{"type":"Feature","properties":{"id":5394,"title":"Mtakuja_METEOR","status":"PUBLISHED","created":"2018","lastUpdated":"2018","lastActive":"no","area":0.12654256421525886,"changesets":111,"mappers":10,"roads":0.154747279215324,"buildings":1165,"edits":1365,"latest":"2018-10-26T12:56:08.000Z"},"geometry":{"type":"Point","coordinates":[39.2311664932879,-6.84526241829827]}},{"type":"Feature","properties":{"id":4752,"title":"Njombe Region, Tanzania Mini Grids Project 06","status":"PUBLISHED","created":"2018","lastUpdated":"2018","lastActive":"no","area":1905.0649927180077,"changesets":959,"mappers":31,"roads":0.380572673185506,"buildings":29189,"edits":29249,"latest":"2018-07-02T08:52:44.000Z"},"geometry":{"type":"Point","coordinates":[34.7557342888488,-9.41123960482513]}},{"type":"Feature","properties":{"id":5338,"title":"Tabata_Msimbazi","status":"PUBLISHED","created":"2018","lastUpdated":"2018","lastActive":"no","area":2.7361327645312596,"changesets":598,"mappers":22,"roads":1.52976158880248,"buildings":5381,"edits":5750,"latest":"2018-10-29T18:04:45.000Z"},"geometry":{"type":"Point","coordinates":[39.2210232072559,-6.83783297253043]}},{"type":"Feature","properties":{"id":5370,"title":"Pwani_METEOR","status":"PUBLISHED","created":"2018","lastUpdated":"2018","lastActive":"no","area":1.857301592423365,"changesets":150,"mappers":19,"roads":26.9283625898123,"buildings":740,"edits":1247,"latest":"2018-10-31T08:49:13.000Z"},"geometry":{"type":"Point","coordinates":[39.3251033855678,-6.98577812479199]}},{"type":"Feature","properties":{"id":5159,"title":"Mbeya","status":"PUBLISHED","created":"2018","lastUpdated":"2018","lastActive":"no","area":8.421146412497725,"changesets":887,"mappers":139,"roads":3.09824799104304,"buildings":6638,"edits":6994,"latest":"2018-09-07T08:19:25.000Z"},"geometry":{"type":"Point","coordinates":[33.4236752858494,-8.89458266134112]}},{"type":"Feature","properties":{"id":5148,"title":"Magomeni","status":"PUBLISHED","created":"2018","lastUpdated":"2018","lastActive":"no","area":1.0950286991089058,"changesets":537,"mappers":24,"roads":1.68967398993952,"buildings":4473,"edits":5416,"latest":"2018-11-02T07:59:40.000Z"},"geometry":{"type":"Point","coordinates":[39.2615816536214,-6.80400422217293]}},{"type":"Feature","properties":{"id":5166,"title":"Mbeya_mbalizi","status":"PUBLISHED","created":"2018","lastUpdated":"2018","lastActive":"no","area":4.490606172472349,"changesets":997,"mappers":124,"roads":7.51774112907024,"buildings":10937,"edits":11617,"latest":"2018-09-07T08:30:01.000Z"},"geometry":{"type":"Point","coordinates":[33.3401519377328,-8.93506614586956]}},{"type":"Feature","properties":{"id":5204,"title":"Makumbusho","status":"PUBLISHED","created":"2018","lastUpdated":"2018","lastActive":"no","area":1.7495807696096894,"changesets":1019,"mappers":20,"roads":5.8505806882872,"buildings":7506,"edits":9235,"latest":"2018-11-07T13:50:16.000Z"},"geometry":{"type":"Point","coordinates":[39.2508110711774,-6.78966677791311]}},{"type":"Feature","properties":{"id":5218,"title":"Vingunguti","status":"PUBLISHED","created":"2018","lastUpdated":"2018","lastActive":"no","area":4.5147969243730985,"changesets":1476,"mappers":25,"roads":5.76973550436219,"buildings":14462,"edits":17891,"latest":"2018-11-09T13:30:13.000Z"},"geometry":{"type":"Point","coordinates":[39.2283271509236,-6.845412414447]}},{"type":"Feature","properties":{"id":5194,"title":"Hananasifu","status":"PUBLISHED","created":"2018","lastUpdated":"2018","lastActive":"no","area":1.8382439011755702,"changesets":775,"mappers":19,"roads":3.34109193738526,"buildings":6357,"edits":7943,"latest":"2018-10-03T07:37:03.000Z"},"geometry":{"type":"Point","coordinates":[39.2696283358805,-6.79609178054355]}},{"type":"Feature","properties":{"id":5174,"title":"Mbeya_Mbalizi","status":"PUBLISHED","created":"2018","lastUpdated":"2018","lastActive":"no","area":0.31206553705644136,"changesets":208,"mappers":40,"roads":1.60956563124592,"buildings":951,"edits":970,"latest":"2018-09-07T11:27:13.000Z"},"geometry":{"type":"Point","coordinates":[33.35435503872,-8.94534240301126]}},{"type":"Feature","properties":{"id":5151,"title":"Sandali","status":"PUBLISHED","created":"2018","lastUpdated":"2018","lastActive":"no","area":2.754693570123113,"changesets":1143,"mappers":35,"roads":0.699111235055833,"buildings":7843,"edits":8260,"latest":"2018-09-18T13:58:19.000Z"},"geometry":{"type":"Point","coordinates":[39.2468576140869,-6.85541663438858]}},{"type":"Feature","properties":{"id":5155,"title":"Temeke","status":"PUBLISHED","created":"2018","lastUpdated":"2018","lastActive":"no","area":2.940691262220834,"changesets":949,"mappers":23,"roads":0.984664545466695,"buildings":7916,"edits":9508,"latest":"2018-10-08T14:01:02.000Z"},"geometry":{"type":"Point","coordinates":[39.2555695686437,-6.85004422213022]}},{"type":"Feature","properties":{"id":5021,"title":"Upanga_Mashariki","status":"PUBLISHED","created":"2018","lastUpdated":"2018","lastActive":"no","area":1.4528463303068069,"changesets":556,"mappers":36,"roads":0.210929800621173,"buildings":3591,"edits":3907,"latest":"2018-08-23T07:15:45.000Z"},"geometry":{"type":"Point","coordinates":[39.2817166819394,-6.80692717291293]}},{"type":"Feature","properties":{"id":3458,"title":"Tanzania Development Trust: Kahororo Community Mapping Project","status":"ARCHIVED","created":"2017","lastUpdated":"2018","lastActive":"no","area":15.218926174396286,"changesets":1023,"mappers":105,"roads":161.327485031549,"buildings":4806,"edits":10061,"latest":"2018-06-21T17:38:07.000Z"},"geometry":{"type":"Point","coordinates":[31.8368334027644,-1.30114812693389]}},{"type":"Feature","properties":{"id":5011,"title":"Jangwani","status":"PUBLISHED","created":"2018","lastUpdated":"2018","lastActive":"no","area":0.6459967593125133,"changesets":490,"mappers":40,"roads":0.568461679535798,"buildings":3198,"edits":3929,"latest":"2018-09-21T12:34:17.000Z"},"geometry":{"type":"Point","coordinates":[39.2733984600485,-6.81599868171233]}},{"type":"Feature","properties":{"id":5016,"title":"Kariakoo2","status":"PUBLISHED","created":"2018","lastUpdated":"2018","lastActive":"no","area":0.41684912948919983,"changesets":253,"mappers":36,"roads":0.0279580739560328,"buildings":1324,"edits":2341,"latest":"2018-10-03T16:17:27.000Z"},"geometry":{"type":"Point","coordinates":[39.2756281624855,-6.82026480265793]}},{"type":"Feature","properties":{"id":1999,"title":"MSD & JSI/USAID Tanzania Road Import - Singida region","status":"PUBLISHED","created":"2016","lastUpdated":"2016","lastActive":"no","area":26074.754451063287,"changesets":89,"mappers":10,"roads":4051.32827761662,"buildings":1,"edits":3084,"latest":"2016-08-23T09:44:36.000Z"},"geometry":{"type":"Point","coordinates":[34.7271332055842,-5.31860124964008]}},{"type":"Feature","properties":{"id":4802,"title":"Priority Villages, Lindi Region, Tanzania Mini Grids Project","status":"PUBLISHED","created":"2018","lastUpdated":"2018","lastActive":"no","area":616.0229189680824,"changesets":447,"mappers":18,"roads":0.198453497004405,"buildings":12715,"edits":12741,"latest":"2018-07-03T09:25:50.000Z"},"geometry":{"type":"Point","coordinates":[38.5089337611704,-10.1840429590014]}},{"type":"Feature","properties":{"id":3350,"title":"Missing Maps: Dar es Salaam - Ramani Huria 2.0 - 05","status":"ARCHIVED","created":"2017","lastUpdated":"2017","lastActive":"no","area":29.85364877294142,"changesets":996,"mappers":78,"roads":450.294722708768,"buildings":144,"edits":8756,"latest":"2017-08-18T08:31:52.000Z"},"geometry":{"type":"Point","coordinates":[39.0961258195299,-6.65933997212234]}},{"type":"Feature","properties":{"id":3368,"title":"Missing Maps: Dar es Salaam - Ramani Huria 2.0 - 13","status":"ARCHIVED","created":"2017","lastUpdated":"2017","lastActive":"no","area":48.99161431195106,"changesets":4070,"mappers":170,"roads":18.9213194873194,"buildings":32771,"edits":34946,"latest":"2018-03-05T14:07:36.000Z"},"geometry":{"type":"Point","coordinates":[39.1382076039561,-6.75845322372412]}},{"type":"Feature","properties":{"id":3427,"title":"Missing Maps: Dar es Salaam - Ramani Huria 2.0 - 30","status":"PUBLISHED","created":"2017","lastUpdated":"2018","lastActive":"no","area":324.58461584384474,"changesets":736,"mappers":55,"roads":997.252274559555,"buildings":82,"edits":5864,"latest":"2017-08-24T07:24:28.000Z"},"geometry":{"type":"Point","coordinates":[39.4586452875521,-7.09171770901867]}},{"type":"Feature","properties":{"id":4291,"title":"Mbozi, Mbeya, Tanzania Mini Grids Project 05","status":"PUBLISHED","created":"2018","lastUpdated":"2018","lastActive":"no","area":1217.253471872788,"changesets":1895,"mappers":76,"roads":1101.3632456932,"buildings":27172,"edits":29203,"latest":"2018-08-16T08:58:18.000Z"},"geometry":{"type":"Point","coordinates":[32.5592585558064,-8.77830015555549]}},{"type":"Feature","properties":{"id":3366,"title":"Missing Maps: Dar es Salaam - Ramani Huria 2.0 - 11","status":"ARCHIVED","created":"2017","lastUpdated":"2017","lastActive":"no","area":46.40941299737609,"changesets":744,"mappers":52,"roads":1.45858369529433,"buildings":4756,"edits":5152,"latest":"2017-08-01T12:47:45.000Z"},"geometry":{"type":"Point","coordinates":[39.0957516639887,-6.69596825590191]}},{"type":"Feature","properties":{"id":3372,"title":"Missing Maps: Dar es Salaam - Ramani Huria 2.0 - 17","status":"ARCHIVED","created":"2017","lastUpdated":"2017","lastActive":"no","area":69.65587897048133,"changesets":620,"mappers":59,"roads":326.07234769034,"buildings":735,"edits":5445,"latest":"2017-08-22T12:02:56.000Z"},"geometry":{"type":"Point","coordinates":[39.1283057323213,-6.89210398958084]}},{"type":"Feature","properties":{"id":3370,"title":"Missing Maps: Dar es Salaam - Ramani Huria 2.0 - 15","status":"ARCHIVED","created":"2017","lastUpdated":"2017","lastActive":"no","area":63.29172462574548,"changesets":1134,"mappers":57,"roads":8.02147770662194,"buildings":19173,"edits":19696,"latest":"2017-08-10T07:17:24.000Z"},"geometry":{"type":"Point","coordinates":[39.11766640955,-6.60449427493299]}},{"type":"Feature","properties":{"id":3375,"title":"Missing Maps: Dar es Salaam - Ramani Huria 2.0 - 18","status":"ARCHIVED","created":"2017","lastUpdated":"2017","lastActive":"no","area":59.53047699316665,"changesets":1623,"mappers":52,"roads":478.223132686343,"buildings":690,"edits":12675,"latest":"2017-08-16T08:11:07.000Z"},"geometry":{"type":"Point","coordinates":[39.0524394635221,-6.77490751585555]}},{"type":"Feature","properties":{"id":4637,"title":"Mkakatih Village, Tanzania Mini Grids Project","status":"PUBLISHED","created":"2018","lastUpdated":"2018","lastActive":"no","area":33.36735469325082,"changesets":73,"mappers":32,"roads":0.0531955537922062,"buildings":1062,"edits":1067,"latest":"2018-06-03T11:19:19.000Z"},"geometry":{"type":"Point","coordinates":[35.361299461125,-5.90004952122001]}},{"type":"Feature","properties":{"id":3387,"title":"Missing Maps: Dar es Salaam - Ramani Huria 2.0 - 20","status":"PUBLISHED","created":"2017","lastUpdated":"2018","lastActive":"no","area":92.06647987703117,"changesets":1407,"mappers":57,"roads":12.7576761938866,"buildings":34483,"edits":36868,"latest":"2017-08-15T08:33:29.000Z"},"geometry":{"type":"Point","coordinates":[39.107002934666,-6.82229799377065]}},{"type":"Feature","properties":{"id":3395,"title":"Missing Maps: Dar es Salaam - Ramani Huria 2.0 - 23","status":"PUBLISHED","created":"2017","lastUpdated":"2018","lastActive":"no","area":200.39044222285065,"changesets":11931,"mappers":207,"roads":6.40062292346281,"buildings":130739,"edits":132569,"latest":"2017-12-05T17:05:23.000Z"},"geometry":{"type":"Point","coordinates":[39.1952993835025,-6.91753429051324]}},{"type":"Feature","properties":{"id":3425,"title":"Missing Maps: Dar es Salaam - Ramani Huria 2.0 - 28","status":"PUBLISHED","created":"2017","lastUpdated":"2018","lastActive":"no","area":238.90307672725964,"changesets":3337,"mappers":175,"roads":1979.67874635539,"buildings":2573,"edits":35065,"latest":"2017-11-03T04:15:17.000Z"},"geometry":{"type":"Point","coordinates":[39.2720471954653,-6.94362511164942]}},{"type":"Feature","properties":{"id":3411,"title":"Missing Maps: Dar es Salaam - Ramani Huria 2.0 - 25","status":"PUBLISHED","created":"2017","lastUpdated":"2018","lastActive":"no","area":260.81879568766976,"changesets":1755,"mappers":99,"roads":3.25862217409201,"buildings":58641,"edits":59730,"latest":"2017-08-21T09:01:52.000Z"},"geometry":{"type":"Point","coordinates":[39.3808440193565,-6.94279344737865]}},{"type":"Feature","properties":{"id":3455,"title":"Missing Maps: Dar es Salaam - Ramani Huria 2.0 - 33","status":"PUBLISHED","created":"2017","lastUpdated":"2018","lastActive":"no","area":156.72153831900792,"changesets":2954,"mappers":102,"roads":579.977370621099,"buildings":21094,"edits":39085,"latest":"2017-10-29T15:21:56.000Z"},"geometry":{"type":"Point","coordinates":[39.1237350888545,-6.75759979671739]}},{"type":"Feature","properties":{"id":3452,"title":"Missing Maps: Dar es Salaam - Ramani Huria 2.0 - 31","status":"PUBLISHED","created":"2017","lastUpdated":"2018","lastActive":"no","area":122.32342510735991,"changesets":2509,"mappers":42,"roads":423.609994409642,"buildings":6830,"edits":24947,"latest":"2017-11-07T07:20:37.000Z"},"geometry":{"type":"Point","coordinates":[39.1193941639637,-6.62298853184651]}},{"type":"Feature","properties":{"id":4480,"title":"S. Monduli, Simanjiro, Tanzania Mini Grids - MapSwipe Project 04 - 01","status":"PUBLISHED","created":"2018","lastUpdated":"2018","lastActive":"no","area":133.48441769177396,"changesets":554,"mappers":60,"roads":0,"buildings":4661,"edits":4661,"latest":"2018-06-29T09:11:00.000Z"},"geometry":{"type":"Point","coordinates":[36.517118656702,-5.00585608461163]}},{"type":"Feature","properties":{"id":4724,"title":"Njombe Region, Tanzania Mini Grids Project 03","status":"PUBLISHED","created":"2018","lastUpdated":"2018","lastActive":"no","area":2136.028082871833,"changesets":1147,"mappers":62,"roads":0.108975939233081,"buildings":37781,"edits":37805,"latest":"2018-07-20T14:13:03.000Z"},"geometry":{"type":"Point","coordinates":[34.6733502170824,-9.09889819240757]}},{"type":"Feature","properties":{"id":3410,"title":"Missing Maps: Dar es Salaam - Ramani Huria 2.0 - 24","status":"PUBLISHED","created":"2017","lastUpdated":"2018","lastActive":"no","area":178.71077034656207,"changesets":1325,"mappers":49,"roads":0.0922744730575409,"buildings":7624,"edits":7650,"latest":"2017-08-16T00:47:29.000Z"},"geometry":{"type":"Point","coordinates":[39.4916315242413,-6.96378121588068]}},{"type":"Feature","properties":{"id":4236,"title":"Tanzania Development Trust: Mitwero, Lindi Community Mapping Project","status":"ARCHIVED","created":"2018","lastUpdated":"2018","lastActive":"no","area":80.77775171781835,"changesets":528,"mappers":67,"roads":468.376805254013,"buildings":2230,"edits":4918,"latest":"2018-06-22T20:06:01.000Z"},"geometry":{"type":"Point","coordinates":[39.7342788001324,-9.91500147746219]}},{"type":"Feature","properties":{"id":4166,"title":"Tanzania Development Trust: Shinyanga East community mapping project","status":"PUBLISHED","created":"2018","lastUpdated":"2018","lastActive":"no","area":1007.0589397559861,"changesets":4121,"mappers":502,"roads":2725.59303227508,"buildings":34155,"edits":47073,"latest":"2018-12-17T08:13:41.000Z"},"geometry":{"type":"Point","coordinates":[33.6837535541805,-3.51751040221294]}},{"type":"Feature","properties":{"id":4722,"title":"Njombe Region, Tanzania Mini Grids Project 01","status":"PUBLISHED","created":"2018","lastUpdated":"2018","lastActive":"no","area":1960.7678476372357,"changesets":1187,"mappers":61,"roads":1.07364951171986,"buildings":57724,"edits":57843,"latest":"2018-06-14T13:57:46.000Z"},"geometry":{"type":"Point","coordinates":[34.6300177951371,-8.83922964032332]}},{"type":"Feature","properties":{"id":4105,"title":"Kigoma_17","status":"PUBLISHED","created":"2018","lastUpdated":"2018","lastActive":"no","area":4.227050493859274,"changesets":84,"mappers":8,"roads":0.193564177598396,"buildings":1322,"edits":1325,"latest":"2018-02-22T12:12:21.000Z"},"geometry":{"type":"Point","coordinates":[29.9287252179311,-5.73757948308089]}},{"type":"Feature","properties":{"id":4102,"title":"Kigoma_15","status":"PUBLISHED","created":"2018","lastUpdated":"2018","lastActive":"no","area":1.4561334248441051,"changesets":36,"mappers":5,"roads":0.613262345810854,"buildings":921,"edits":929,"latest":"2018-02-06T11:58:55.000Z"},"geometry":{"type":"Point","coordinates":[29.7539727931363,-5.41871598951743]}},{"type":"Feature","properties":{"id":4090,"title":"Kigoma_9","status":"PUBLISHED","created":"2018","lastUpdated":"2018","lastActive":"no","area":1.722690665551124,"changesets":290,"mappers":6,"roads":0.249339693562493,"buildings":1929,"edits":1941,"latest":"2018-02-15T09:43:50.000Z"},"geometry":{"type":"Point","coordinates":[29.8251364406655,-6.00624785298935]}},{"type":"Feature","properties":{"id":4097,"title":"Kigoma_11","status":"PUBLISHED","created":"2018","lastUpdated":"2018","lastActive":"no","area":4.492849273495634,"changesets":215,"mappers":4,"roads":0,"buildings":5705,"edits":5705,"latest":"2018-02-09T07:23:31.000Z"},"geometry":{"type":"Point","coordinates":[29.8986551180688,-5.94544192098447]}},{"type":"Feature","properties":{"id":4099,"title":"Kigoma_13","status":"PUBLISHED","created":"2018","lastUpdated":"2018","lastActive":"no","area":2.897626588524291,"changesets":98,"mappers":5,"roads":0.000234970678110244,"buildings":1712,"edits":1719,"latest":"2018-02-12T06:40:16.000Z"},"geometry":{"type":"Point","coordinates":[29.6580900736946,-4.48594525532537]}},{"type":"Feature","properties":{"id":4082,"title":"Kigoma_1","status":"PUBLISHED","created":"2018","lastUpdated":"2018","lastActive":"no","area":3.220895758602432,"changesets":128,"mappers":5,"roads":0,"buildings":3113,"edits":3113,"latest":"2018-02-19T11:05:31.000Z"},"geometry":{"type":"Point","coordinates":[30.4406843233075,-6.82013200035033]}},{"type":"Feature","properties":{"id":4084,"title":"Kigoma_3","status":"PUBLISHED","created":"2018","lastUpdated":"2018","lastActive":"no","area":5.097450161720606,"changesets":288,"mappers":6,"roads":2.31764270978854,"buildings":6302,"edits":6359,"latest":"2018-02-08T07:46:42.000Z"},"geometry":{"type":"Point","coordinates":[30.4069129893841,-6.74299494501321]}},{"type":"Feature","properties":{"id":4088,"title":"Kigoma_7","status":"PUBLISHED","created":"2018","lastUpdated":"2018","lastActive":"no","area":2.1750746662810996,"changesets":64,"mappers":6,"roads":0,"buildings":770,"edits":770,"latest":"2018-02-14T06:35:46.000Z"},"geometry":{"type":"Point","coordinates":[29.747674177169,-6.02882798381811]}},{"type":"Feature","properties":{"id":2162,"title":"Earthquake in Uganda and Tanzania, 10/09/2016 - SE of Epicenter Buildings Mapping","status":"ARCHIVED","created":"2016","lastUpdated":"2016","lastActive":"no","area":44.69211015182962,"changesets":827,"mappers":36,"roads":48.6700209908821,"buildings":8145,"edits":8981,"latest":"2016-09-21T11:21:26.000Z"},"geometry":{"type":"Point","coordinates":[31.6571644592505,-1.21165352764446]}},{"type":"Feature","properties":{"id":4079,"title":"Kagera_Goziba","status":"PUBLISHED","created":"2018","lastUpdated":"2018","lastActive":"no","area":1.1395975392255964,"changesets":0,"mappers":0,"roads":0,"buildings":0,"edits":0,"latest":null},"geometry":{"type":"Point","coordinates":[32.6139907107105,-1.47123684237771]}},{"type":"Feature","properties":{"id":4086,"title":"Kigoma_5","status":"PUBLISHED","created":"2018","lastUpdated":"2018","lastActive":"no","area":3.7491092848574272,"changesets":156,"mappers":6,"roads":0.459783989828362,"buildings":1942,"edits":1948,"latest":"2018-02-07T11:29:30.000Z"},"geometry":{"type":"Point","coordinates":[30.0140478228083,-6.47067176048628]}},{"type":"Feature","properties":{"id":3204,"title":"PEPFAR Tanzania: Kyela (Coast)","status":"PUBLISHED","created":"2017","lastUpdated":"2019","lastActive":"no","area":267.9000890686287,"changesets":2219,"mappers":252,"roads":907.184597009088,"buildings":20183,"edits":30022,"latest":"2019-01-20T18:06:17.000Z"},"geometry":{"type":"Point","coordinates":[33.8624923854606,-9.60932245038593]}},{"type":"Feature","properties":{"id":3488,"title":"Missing Maps: Dar es Salaam - Ramani Huria 2.0 - 36","status":"PUBLISHED","created":"2017","lastUpdated":"2018","lastActive":"no","area":375.46340276958506,"changesets":3567,"mappers":92,"roads":484.778915813185,"buildings":27629,"edits":38950,"latest":"2017-09-08T11:51:25.000Z"},"geometry":{"type":"Point","coordinates":[39.3726002893632,-6.92392303696635]}},{"type":"Feature","properties":{"id":3505,"title":"Missing Maps: Dar es Salaam - Ramani Huria 2.0 - 39","status":"PUBLISHED","created":"2017","lastUpdated":"2018","lastActive":"no","area":96.83711970341507,"changesets":3897,"mappers":79,"roads":269.298159883004,"buildings":48923,"edits":63495,"latest":"2017-09-18T11:50:06.000Z"},"geometry":{"type":"Point","coordinates":[39.2911329352229,-6.85999146469818]}},{"type":"Feature","properties":{"id":2989,"title":"Tanzania Development Trust: Kulimi district community mapping project ","status":"ARCHIVED","created":"2017","lastUpdated":"2018","lastActive":"no","area":784.6955092821192,"changesets":3119,"mappers":217,"roads":4374.97116450955,"buildings":43569,"edits":81648,"latest":"2018-06-24T13:27:51.000Z"},"geometry":{"type":"Point","coordinates":[33.5876973557944,-3.17822476086651]}},{"type":"Feature","properties":{"id":3389,"title":"Tanzania Development Trust: Manyoni district mapping project part 2","status":"PUBLISHED","created":"2017","lastUpdated":"2019","lastActive":"no","area":7477.8484249126495,"changesets":22367,"mappers":1461,"roads":30688.3002940028,"buildings":335156,"edits":560560,"latest":"2019-01-27T13:41:35.000Z"},"geometry":{"type":"Point","coordinates":[35.3323430025322,-4.33553146038057]}},{"type":"Feature","properties":{"id":3523,"title":"Missing Maps: Dar es Salaam - Ramani Huria 2.0 - 40","status":"PUBLISHED","created":"2017","lastUpdated":"2018","lastActive":"no","area":44.58915788409798,"changesets":5364,"mappers":98,"roads":142.280090782385,"buildings":76616,"edits":90202,"latest":"2018-01-03T08:26:39.000Z"},"geometry":{"type":"Point","coordinates":[39.2182047504699,-6.76934977067932]}},{"type":"Feature","properties":{"id":4488,"title":"Lindi, Lindi, Tanzania Mini Grids Project 02","status":"PUBLISHED","created":"2018","lastUpdated":"2018","lastActive":"no","area":1271.4706951916876,"changesets":883,"mappers":66,"roads":0.580704859074677,"buildings":12370,"edits":12419,"latest":"2018-07-10T07:18:13.000Z"},"geometry":{"type":"Point","coordinates":[39.2495334937612,-9.77334993371643]}},{"type":"Feature","properties":{"id":4801,"title":"Priority Villages, Ruvuma Region, Tanzania Mini Grids Project","status":"PUBLISHED","created":"2018","lastUpdated":"2018","lastActive":"no","area":491.345226887175,"changesets":662,"mappers":36,"roads":3.61080322618974,"buildings":27808,"edits":27829,"latest":"2018-08-23T09:25:41.000Z"},"geometry":{"type":"Point","coordinates":[35.4477861752995,-10.8248962516213]}},{"type":"Feature","properties":{"id":5326,"title":"Gerezani 2","status":"PUBLISHED","created":"2018","lastUpdated":"2018","lastActive":"no","area":0.1378230000413372,"changesets":53,"mappers":16,"roads":0.00932165201596649,"buildings":205,"edits":254,"latest":"2018-10-05T10:46:52.000Z"},"geometry":{"type":"Point","coordinates":[39.2777012004308,-6.82897780332198]}},{"type":"Feature","properties":{"id":2096,"title":"Missing Maps: Dar es Salaam - Ramani Huria 6","status":"ARCHIVED","created":"2016","lastUpdated":"2016","lastActive":"no","area":15.749826830743899,"changesets":908,"mappers":68,"roads":1301.94233531873,"buildings":18208,"edits":21266,"latest":"2016-09-07T03:04:09.000Z"},"geometry":{"type":"Point","coordinates":[39.2003921033002,-6.87098917396666]}},{"type":"Feature","properties":{"id":3903,"title":"PEPFAR TANZANIA: GEITA DC","status":"PUBLISHED","created":"2017","lastUpdated":"2018","lastActive":"no","area":4738.968040349855,"changesets":5705,"mappers":275,"roads":3185.90199833963,"buildings":61057,"edits":85259,"latest":"2018-11-18T06:22:39.000Z"},"geometry":{"type":"Point","coordinates":[32.1742010245843,-2.86754820690531]}},{"type":"Feature","properties":{"id":4070,"title":"kagera_1","status":"PUBLISHED","created":"2018","lastUpdated":"2018","lastActive":"no","area":36.69351653109927,"changesets":104,"mappers":15,"roads":21.2106946154807,"buildings":1058,"edits":1199,"latest":"2018-11-16T15:00:56.000Z"},"geometry":{"type":"Point","coordinates":[31.8764181723125,-1.66503615309336]}},{"type":"Feature","properties":{"id":4528,"title":"Central Singida, Singida, Tanzania Mini Grids Project 04 South","status":"PUBLISHED","created":"2018","lastUpdated":"2018","lastActive":"no","area":2679.1732629690173,"changesets":1170,"mappers":63,"roads":0.0259764287875841,"buildings":20358,"edits":20362,"latest":"2018-05-17T13:46:29.000Z"},"geometry":{"type":"Point","coordinates":[34.7279889209458,-5.4378630362986]}},{"type":"Feature","properties":{"id":4076,"title":"Shinyanga_Tabora_Geita","status":"PUBLISHED","created":"2018","lastUpdated":"2018","lastActive":"no","area":3994.8430365253507,"changesets":50,"mappers":14,"roads":0.000161002645333808,"buildings":2248,"edits":2251,"latest":"2018-08-23T03:54:33.000Z"},"geometry":{"type":"Point","coordinates":[31.8409955510823,-4.30414913053918]}},{"type":"Feature","properties":{"id":4234,"title":"Tanzania Development Trust: Sigunga Kigoma Community Mapping Project","status":"ARCHIVED","created":"2018","lastUpdated":"2018","lastActive":"no","area":818.7157786819456,"changesets":1881,"mappers":148,"roads":845.753785159551,"buildings":5279,"edits":10353,"latest":"2018-04-11T09:53:47.000Z"},"geometry":{"type":"Point","coordinates":[30.0041057178603,-5.67930749441936]}},{"type":"Feature","properties":{"id":4211,"title":"Tanzania Development Trust: Kayanga Karagwe Community Mapping Project","status":"ARCHIVED","created":"2018","lastUpdated":"2018","lastActive":"no","area":9.817134429272661,"changesets":2030,"mappers":111,"roads":257.875156407586,"buildings":6739,"edits":9339,"latest":"2018-06-25T20:44:51.000Z"},"geometry":{"type":"Point","coordinates":[31.1517912801376,-1.53378723172487]}},{"type":"Feature","properties":{"id":3698,"title":"Missing Maps: Kyela - Data Zetu","status":"PUBLISHED","created":"2017","lastUpdated":"2018","lastActive":"no","area":251.55720854707542,"changesets":802,"mappers":12,"roads":5.58626698624379,"buildings":29269,"edits":29469,"latest":"2018-07-19T11:51:17.000Z"},