{"totalEdits":38769120,"totalBuildings":31741478,"totalRoads":829814.378355938,"mappersOnline":15,"totalTasksMapped":1524850,"totalMappers":127497,"totalProjects":1550,"Kenya":[{"type":"Feature","properties":{"title":"Mapping Bukira East Ward, Migori County","id":4395,"area":38.113991282680686,"year":"2018","lastUpdated":"2018-06-16T22:01:42.800398","changesets":49,"mappers":27,"roads":19.5314149793494,"buildings":717,"edits":807,"latest":"2018-06-16T22:01:44.000Z"},"geometry":{"type":"Point","coordinates":[34.61281463403942,-1.1913635729656766]}},{"type":"Feature","properties":{"title":"Missing Maps - Kenya - Mara region (buildings) with Mapbox","id":2544,"area":612.5201544848798,"year":"2018","lastUpdated":"2018-03-05T15:56:29.687619","changesets":23,"mappers":6,"roads":33.0290527633165,"buildings":86,"edits":168,"latest":"2017-02-20T09:36:55.000Z"},"geometry":{"type":"Point","coordinates":[35.60225416996566,-1.2375315646778384]}},{"type":"Feature","properties":{"title":"#WarwickUni - Mapping Slums in Nairobi to improve Access to Healthcare #LungaLungaViwandani","id":3713,"area":0.28606396364322456,"year":"2018","lastUpdated":"2018-01-11T18:24:19.204718","changesets":109,"mappers":21,"roads":20.3449978400581,"buildings":1079,"edits":1275,"latest":"2018-03-11T23:31:52.000Z"},"geometry":{"type":"Point","coordinates":[36.87199149927005,-1.312037181021897]}},{"type":"Feature","properties":{"title":"Missing Maps: Mapping informal settlements in Mombasa, Kenya to improve access to healthcare","id":3475,"area":5.044005256974101,"year":"2018","lastUpdated":"2018-07-06T21:20:45.467297","changesets":0,"mappers":0,"roads":0,"buildings":0,"edits":0,"latest":null},"geometry":{"type":"Point","coordinates":[39.63163106383532,-4.021639044787146]}},{"type":"Feature","properties":{"title":"Mapping Wote Ward, Makueni County","id":4275,"area":98.10610213655303,"year":"2018","lastUpdated":"2018-06-04T20:45:41.338170","changesets":2348,"mappers":59,"roads":822.516606544936,"buildings":8759,"edits":14622,"latest":"2018-06-04T21:24:25.000Z"},"geometry":{"type":"Point","coordinates":[37.6140855990625,-1.799661920221866]}},{"type":"Feature","properties":{"title":"Mapping Kabarnet Ward, Baringo County","id":4272,"area":160.31838656509228,"year":"2018","lastUpdated":"2018-06-27T12:47:32.851987","changesets":2678,"mappers":12,"roads":887.02099972485,"buildings":8529,"edits":13097,"latest":"2018-06-14T12:32:03.000Z"},"geometry":{"type":"Point","coordinates":[35.69189210237559,0.522327367406214]}},{"type":"Feature","properties":{"title":"PEPFAR Kenya: Siaya (South)","id":2727,"area":129.70780559217528,"year":"2017","lastUpdated":"2017-11-15T20:14:23.844803","changesets":1626,"mappers":110,"roads":1105.74674264104,"buildings":14656,"edits":30692,"latest":"2018-03-07T10:18:28.000Z"},"geometry":{"type":"Point","coordinates":[34.301948547363274,-0.3351954481235838]}},{"type":"Feature","properties":{"title":"Missing Maps - Kenya - Mara region","id":2532,"area":6238.482935384892,"year":"2018","lastUpdated":"2018-05-27T21:02:12.113768","changesets":2441,"mappers":90,"roads":15443.2570468866,"buildings":52900,"edits":105965,"latest":"2018-06-14T17:33:52.000Z"},"geometry":{"type":"Point","coordinates":[35.3724258785338,-1.3108951769778825]}},{"type":"Feature","properties":{"title":"Nyamira County, Kenya. Jumpstart County GIS","id":759,"area":903.2581044301878,"year":"2018","lastUpdated":"2018-01-17T14:36:21.832886","changesets":802,"mappers":77,"roads":1060.56902883166,"buildings":2501,"edits":6656,"latest":"2018-01-17T22:29:51.000Z"},"geometry":{"type":"Point","coordinates":[34.94925518812263,-0.6270269816091953]}},{"type":"Feature","properties":{"title":"Masai Mara National Reserve","id":1039,"area":1623.9067144751332,"year":"2016","lastUpdated":"2016-10-29T22:37:31.420371","changesets":0,"mappers":0,"roads":0,"buildings":0,"edits":0,"latest":null},"geometry":{"type":"Point","coordinates":[35.16530513763428,-1.464476755491816]}},{"type":"Feature","properties":{"title":"EUROSHA Kenya Kuresoi District, job 1: mapping along the main road (D315)","id":167,"area":11.333282511427113,"year":"2017","lastUpdated":"2017-10-10T09:49:59.185888","changesets":3,"mappers":1,"roads":0.517836403612155,"buildings":34,"edits":36,"latest":"2017-10-10T09:51:11.000Z"},"geometry":{"type":"Point","coordinates":[35.60393167083067,-0.296174262264124]}},{"type":"Feature","properties":{"title":"EUROSHA Kenya Mapping in Molo town","id":184,"area":12.357915057013763,"year":"2017","lastUpdated":"2017-10-10T09:33:02.444007","changesets":16,"mappers":4,"roads":5.2731059812041,"buildings":384,"edits":451,"latest":"2017-10-10T09:32:46.000Z"},"geometry":{"type":"Point","coordinates":[35.7252216289414,-0.24343225823147221]}},{"type":"Feature","properties":{"title":"Thika - Kenya","id":4195,"area":4.232094962485982,"year":"2018","lastUpdated":"2018-02-27T09:10:05.019661","changesets":456,"mappers":6,"roads":19.7830596921561,"buildings":3560,"edits":3762,"latest":"2018-02-27T09:22:23.000Z"},"geometry":{"type":"Point","coordinates":[37.11712764862,-1.0534824928399926]}}],"totalArea":5842975.325004645,"Tajikistan":[{"type":"Feature","properties":{"title":"Afghanistan Roads Inventory - Badakhshan Province","id":4383,"area":43447.969678524954,"year":"2018","lastUpdated":"2018-05-22T18:55:22.421497","changesets":3,"mappers":1,"roads":27.6802989557182,"buildings":1,"edits":22,"latest":"2018-05-22T18:55:12.000Z"},"geometry":{"type":"Point","coordinates":[71.57768013106761,36.92814991755027]}},{"type":"Feature","properties":{"title":"ARUP - Republic of Tajikistan - New Mappers - Buildings Only Mapping","id":2390,"area":35.83346061485949,"year":"2017","lastUpdated":"2017-11-15T05:23:31.862654","changesets":79,"mappers":19,"roads":2.0753336310704,"buildings":670,"edits":760,"latest":"2017-11-15T05:27:18.000Z"},"geometry":{"type":"Point","coordinates":[68.17375230888625,37.4235609365475]}}],"Tanzania":[{"type":"Feature","properties":{"title":"Urambo, Tabora, Tanzania Mini Grids Project 04","id":4366,"area":1540.7875686482291,"year":"2018","lastUpdated":"2018-04-23T12:46:20.979070","changesets":1920,"mappers":73,"roads":6.2619827819317,"buildings":42229,"edits":42283,"latest":"2018-04-23T12:45:52.000Z"},"geometry":{"type":"Point","coordinates":[31.8072741219125,-5.113293963680001]}},{"type":"Feature","properties":{"title":"Mbozi, Mbeya, Tanzania Mini Grids Project 07","id":4350,"area":908.5380955685306,"year":"2018","lastUpdated":"2018-06-29T06:38:11.249834","changesets":907,"mappers":61,"roads":663.399475561412,"buildings":30497,"edits":31563,"latest":"2018-04-11T09:11:04.000Z"},"geometry":{"type":"Point","coordinates":[32.511668384650065,-8.419049370379382]}},{"type":"Feature","properties":{"title":"Mbozi, Mbeya, Tanzania Mini Grids Project 05","id":4291,"area":1217.253471872788,"year":"2018","lastUpdated":"2018-06-28T18:33:30.349701","changesets":1051,"mappers":65,"roads":1098.18198535427,"buildings":16367,"edits":18267,"latest":"2018-04-11T10:37:22.000Z"},"geometry":{"type":"Point","coordinates":[32.832228251564956,-8.77762069709877]}},{"type":"Feature","properties":{"title":"Kigoma_12","id":4098,"area":3.729917625288736,"year":"2018","lastUpdated":"2018-02-12T06:54:13.338393","changesets":479,"mappers":6,"roads":0.434900266530263,"buildings":2941,"edits":2951,"latest":"2018-02-12T06:53:36.000Z"},"geometry":{"type":"Point","coordinates":[29.9389865678107,-5.924358173879355]}},{"type":"Feature","properties":{"title":"Missing Maps: Dar es Salaam - Ramani Huria 2.0 - 27","id":3424,"area":230.31173426208932,"year":"2018","lastUpdated":"2018-03-05T15:33:58.772352","changesets":2533,"mappers":79,"roads":1585.23523604963,"buildings":328,"edits":20922,"latest":"2017-08-31T08:30:39.000Z"},"geometry":{"type":"Point","coordinates":[39.10027660536416,-7.025038398924583]}},{"type":"Feature","properties":{"title":"Tanzania Development Trust: Manyoni district mapping project part 2","id":3389,"area":7477.8484249126495,"year":"2018","lastUpdated":"2018-07-07T15:53:33.549932","changesets":0,"mappers":0,"roads":0,"buildings":0,"edits":0,"latest":null},"geometry":{"type":"Point","coordinates":[35.27572631835939,-4.379171736396492]}},{"type":"Feature","properties":{"title":"Tanzania Development Trust: Muzye, Muhunga and Bugaga wards community mapping project ","id":3313,"area":467.01646755665894,"year":"2018","lastUpdated":"2018-06-25T20:57:28.962446","changesets":0,"mappers":0,"roads":0,"buildings":0,"edits":0,"latest":null},"geometry":{"type":"Point","coordinates":[29.996941569562726,-4.632042691063947]}},{"type":"Feature","properties":{"title":"Tanzania Development Trust: Kulimi district community mapping project ","id":2989,"area":784.6955092821192,"year":"2018","lastUpdated":"2018-06-24T13:27:59.480684","changesets":0,"mappers":0,"roads":0,"buildings":0,"edits":0,"latest":null},"geometry":{"type":"Point","coordinates":[33.59668499857451,-3.223029192039045]}},{"type":"Feature","properties":{"title":"Priority Villages, Kigoma Region, Tanzania Mini Grids Project","id":4779,"area":2340.2938543456194,"year":"2018","lastUpdated":"2018-06-27T23:26:21.748956","changesets":0,"mappers":0,"roads":0,"buildings":0,"edits":0,"latest":null},"geometry":{"type":"Point","coordinates":[30.81891173150636,-3.4042847246900707]}},{"type":"Feature","properties":{"title":"Priority Villages, Lindi Region, Tanzania Mini Grids Project","id":4802,"area":616.0229189680824,"year":"2018","lastUpdated":"2018-07-02T20:42:12.174538","changesets":0,"mappers":0,"roads":0,"buildings":0,"edits":0,"latest":null},"geometry":{"type":"Point","coordinates":[38.35241233283509,-10.284012504908642]}},{"type":"Feature","properties":{"title":"Tunduru, Ruvuma, Tanzania Mini Grids Project 06-07","id":4420,"area":2221.546325309108,"year":"2018","lastUpdated":"2018-06-26T09:46:42.343600","changesets":1985,"mappers":65,"roads":8.29642473632597,"buildings":30918,"edits":30981,"latest":"2018-06-14T11:13:23.000Z"},"geometry":{"type":"Point","coordinates":[37.34039799071685,-10.737231230373672]}},{"type":"Feature","properties":{"title":"Mbulu Center Village, Tanzania Mini Grids Project 01","id":4436,"area":12.606083526364179,"year":"2018","lastUpdated":"2018-04-19T11:23:53.908966","changesets":134,"mappers":33,"roads":0.0184481585815086,"buildings":1409,"edits":1446,"latest":"2018-04-20T09:10:43.000Z"},"geometry":{"type":"Point","coordinates":[33.0464779901525,-8.959391550342504]}},{"type":"Feature","properties":{"title":"Mbozi, Mbeya, Tanzania Mini Grids Project 02","id":4287,"area":1464.4147850208826,"year":"2018","lastUpdated":"2018-03-28T14:39:26.288008","changesets":3239,"mappers":63,"roads":3419.72220762667,"buildings":69891,"edits":79035,"latest":"2018-03-28T14:41:07.000Z"},"geometry":{"type":"Point","coordinates":[32.46601435345758,-9.102106023061891]}},{"type":"Feature","properties":{"title":"Igalula Ward, Kigoma, Tanzania Mini Grids Project 01","id":4386,"area":1169.7270185651328,"year":"2018","lastUpdated":"2018-04-17T14:00:20.573026","changesets":912,"mappers":37,"roads":0.00817977234302703,"buildings":9782,"edits":9783,"latest":"2018-04-17T14:00:26.000Z"},"geometry":{"type":"Point","coordinates":[30.054356569129087,-6.011588890040766]}},{"type":"Feature","properties":{"title":"Urambo, Tabora, Tanzania Mini Grids Project 01-02","id":4376,"area":2032.586550505636,"year":"2018","lastUpdated":"2018-06-19T08:37:57.167229","changesets":2151,"mappers":60,"roads":0.977625727876198,"buildings":26596,"edits":26638,"latest":"2018-06-14T12:20:32.000Z"},"geometry":{"type":"Point","coordinates":[31.762362863705164,-5.438836111127685]}},{"type":"Feature","properties":{"title":"Kigoma_14","id":4100,"area":0.8979043606940176,"year":"2018","lastUpdated":"2018-02-16T06:09:02.081829","changesets":179,"mappers":9,"roads":0,"buildings":906,"edits":906,"latest":"2018-02-16T06:08:51.000Z"},"geometry":{"type":"Point","coordinates":[29.64091800036702,-4.624237761570404]}},{"type":"Feature","properties":{"title":"Mbeya minigrids","id":4208,"area":381.3150730146897,"year":"2018","lastUpdated":"2018-04-11T07:15:52.458810","changesets":8229,"mappers":81,"roads":545.472150450804,"buildings":454625,"edits":458780,"latest":"2018-03-29T12:55:24.000Z"},"geometry":{"type":"Point","coordinates":[33.273085375143864,-8.927145320940063]}},{"type":"Feature","properties":{"title":"Rungwe, Mbeya, Tanzania Mini Grids Project 01","id":4392,"area":1330.3320402972577,"year":"2018","lastUpdated":"2018-05-30T05:59:04.640865","changesets":2885,"mappers":74,"roads":21.3821929149524,"buildings":119621,"edits":120470,"latest":"2018-05-30T06:51:18.000Z"},"geometry":{"type":"Point","coordinates":[33.5756407980469,-9.244759979750832]}},{"type":"Feature","properties":{"title":"Kigoma_10","id":4091,"area":4.460415768336148,"year":"2018","lastUpdated":"2018-02-08T09:50:21.431365","changesets":220,"mappers":5,"roads":0.0191951062871919,"buildings":3014,"edits":3016,"latest":"2018-02-08T09:50:17.000Z"},"geometry":{"type":"Point","coordinates":[29.852708915118153,-5.977798075388094]}},{"type":"Feature","properties":{"title":"Kigoma_16","id":4104,"area":7.541560145038916,"year":"2018","lastUpdated":"2018-02-15T12:46:38.375086","changesets":305,"mappers":9,"roads":1.4295542594309,"buildings":2851,"edits":2870,"latest":"2018-02-15T13:37:15.000Z"},"geometry":{"type":"Point","coordinates":[29.84589719532659,-5.5702642437272685]}},{"type":"Feature","properties":{"title":"Priority Villages, Ruvuma Region, Tanzania Mini Grids Project","id":4801,"area":491.345226887175,"year":"2018","lastUpdated":"2018-07-03T15:18:55.293383","changesets":0,"mappers":0,"roads":0,"buildings":0,"edits":0,"latest":null},"geometry":{"type":"Point","coordinates":[35.45485146842986,-10.678797947427933]}},{"type":"Feature","properties":{"title":"Ardhi University: Housing Development - Arusha City","id":3937,"area":28.84666648523269,"year":"2018","lastUpdated":"2018-03-15T09:06:53.133923","changesets":1278,"mappers":35,"roads":22.2386466845665,"buildings":3644,"edits":3818,"latest":"2018-05-11T01:10:09.000Z"},"geometry":{"type":"Point","coordinates":[36.790300973849895,-3.3836324243588614]}},{"type":"Feature","properties":{"title":"kagera_2","id":4071,"area":3.850874321865156,"year":"2018","lastUpdated":"2018-01-27T16:40:53.676551","changesets":0,"mappers":0,"roads":0,"buildings":0,"edits":0,"latest":null},"geometry":{"type":"Point","coordinates":[32.119615051499174,-1.4696475246974754]}},{"type":"Feature","properties":{"title":"Kagera_2","id":4080,"area":4.132236731942467,"year":"2018","lastUpdated":"2018-01-29T09:03:59.256755","changesets":0,"mappers":0,"roads":0,"buildings":0,"edits":0,"latest":null},"geometry":{"type":"Point","coordinates":[32.119223662470695,-1.4703780484724356]}},{"type":"Feature","properties":{"title":"TZ IFC Mini-grids house count test-2","id":4036,"area":481.70619678590833,"year":"2018","lastUpdated":"2018-02-15T13:20:01.029773","changesets":2181,"mappers":13,"roads":36.3868917119351,"buildings":181981,"edits":182647,"latest":"2018-02-23T15:15:42.000Z"},"geometry":{"type":"Point","coordinates":[34.581446410258884,-7.300716320272623]}},{"type":"Feature","properties":{"title":"Tanzania Development Trust: Simiyu South","id":4323,"area":3977.4740524717954,"year":"2018","lastUpdated":"2018-07-07T23:54:02.882559","changesets":2977,"mappers":314,"roads":1153.75916845133,"buildings":37589,"edits":41455,"latest":"2018-06-17T04:46:53.000Z"},"geometry":{"type":"Point","coordinates":[34.2659914121032,-3.1020947645146095]}},{"type":"Feature","properties":{"title":"Shinyanga_Tabora_Geita","id":4076,"area":3994.8430365253507,"year":"2018","lastUpdated":"2018-03-16T14:29:11.097041","changesets":47,"mappers":13,"roads":0.000161002645333808,"buildings":2061,"edits":2064,"latest":"2018-03-16T14:28:46.000Z"},"geometry":{"type":"Point","coordinates":[32.00242391521419,-4.080067283243879]}},{"type":"Feature","properties":{"title":"Tanzania Development Trust: Shinyanga East community mapping project","id":4166,"area":1007.0589397559861,"year":"2018","lastUpdated":"2018-07-04T12:47:46.906157","changesets":2304,"mappers":323,"roads":1359.78696359832,"buildings":23393,"edits":28852,"latest":"2018-06-16T04:35:02.000Z"},"geometry":{"type":"Point","coordinates":[33.66405700164086,-3.5303866913753184]}},{"type":"Feature","properties":{"title":"PEPFAR TANZANIA: GEITA DC","id":3903,"area":4738.968040349855,"year":"2018","lastUpdated":"2018-04-30T17:02:58.055569","changesets":5534,"mappers":266,"roads":3127.21453679912,"buildings":60035,"edits":83984,"latest":"2018-05-22T16:14:57.000Z"},"geometry":{"type":"Point","coordinates":[32.06279754752212,-2.682505789886702]}},{"type":"Feature","properties":{"title":"Tanzania Development Trust: Mbozi district community mapping project","id":3968,"area":270.15833206747897,"year":"2018","lastUpdated":"2018-07-06T14:55:52.733746","changesets":0,"mappers":0,"roads":0,"buildings":0,"edits":0,"latest":null},"geometry":{"type":"Point","coordinates":[32.76853833879746,-9.020802347567903]}},{"type":"Feature","properties":{"title":"Tanzania Development Trust: Mwanza West Community Mapping Project","id":4358,"area":1290.9455273129195,"year":"2018","lastUpdated":"2018-07-07T17:49:26.962450","changesets":8458,"mappers":673,"roads":5049.72480169838,"buildings":87020,"edits":118446,"latest":"2018-06-17T03:51:37.000Z"},"geometry":{"type":"Point","coordinates":[32.548552534014256,-2.6391112035937363]}},{"type":"Feature","properties":{"title":"Missing Maps: Dar es Salaam - Ramani Huria 2.0 - 06","id":3351,"area":42.09056201926153,"year":"2017","lastUpdated":"2017-09-18T13:32:44.404729","changesets":1060,"mappers":98,"roads":583.340797762564,"buildings":2543,"edits":21480,"latest":"2017-09-18T13:34:28.000Z"},"geometry":{"type":"Point","coordinates":[39.08745002746582,-6.700853885903787]}},{"type":"Feature","properties":{"title":"MSD & JSI/USAID Tanzania Road Import - Kagera region","id":2000,"area":20054.048144070715,"year":"2017","lastUpdated":"2017-08-17T15:35:09.385364","changesets":0,"mappers":0,"roads":0,"buildings":0,"edits":0,"latest":null},"geometry":{"type":"Point","coordinates":[31.041926812127926,-2.3254413013888326]}},{"type":"Feature","properties":{"title":"PEPFAR Tanzania: Mbeya CC","id":2556,"area":256.08947868821076,"year":"2018","lastUpdated":"2018-05-07T03:44:11.992952","changesets":3674,"mappers":263,"roads":1309.65000981764,"buildings":21914,"edits":54339,"latest":"2018-05-15T06:12:15.000Z"},"geometry":{"type":"Point","coordinates":[33.487846817016006,-8.911443046528687]}},{"type":"Feature","properties":{"title":"MSD & JSI/USAID Tanzania Road Import - West Ruvuma region","id":1256,"area":10512.14514732082,"year":"2016","lastUpdated":"2016-04-04T16:27:39.061397","changesets":0,"mappers":0,"roads":0,"buildings":0,"edits":0,"latest":null},"geometry":{"type":"Point","coordinates":[35.73071423073114,-10.644452430898227]}},{"type":"Feature","properties":{"title":"MSD & JSI/USAID Tanzania Road Import - Kigoma and Tabora regions","id":1233,"area":55716.44775664574,"year":"2017","lastUpdated":"2017-09-08T08:29:26.684641","changesets":89,"mappers":5,"roads":7164.0075520837,"buildings":137,"edits":14011,"latest":"2015-10-15T16:49:58.000Z"},"geometry":{"type":"Point","coordinates":[32.221144436424595,-4.716038295525221]}},{"type":"Feature","properties":{"title":"MSD & JSI/USAID Tanzania Road Import - Mara region","id":2095,"area":18583.120612545095,"year":"2016","lastUpdated":"2016-12-02T22:50:50.785436","changesets":0,"mappers":0,"roads":0,"buildings":0,"edits":0,"latest":null},"geometry":{"type":"Point","coordinates":[34.25431061911746,-1.7219985711602823]}},{"type":"Feature","properties":{"title":"MSD & JSI/USAID Tanzania Road Import - Iringa region","id":2157,"area":30284.59973311939,"year":"2016","lastUpdated":"2016-10-20T13:22:29.952382","changesets":85,"mappers":13,"roads":2909.39047680426,"buildings":712,"edits":3579,"latest":"2016-10-19T21:15:43.000Z"},"geometry":{"type":"Point","coordinates":[35.12966588259462,-8.90039717715023]}},{"type":"Feature","properties":{"title":"MSD & JSI/USAID Tanzania Road Import - Rukwa and Katavi regions","id":1462,"area":23601.174016426638,"year":"2016","lastUpdated":"2016-11-09T18:57:37.926429","changesets":0,"mappers":0,"roads":0,"buildings":0,"edits":0,"latest":null},"geometry":{"type":"Point","coordinates":[31.18854567490904,-7.033630568874043]}},{"type":"Feature","properties":{"title":"Tanzania Development Trust: Simiyu district mapping project part 1","id":2501,"area":6430.819090940454,"year":"2018","lastUpdated":"2018-01-24T12:18:11.755027","changesets":0,"mappers":0,"roads":0,"buildings":0,"edits":0,"latest":null},"geometry":{"type":"Point","coordinates":[33.963684082031236,-2.4816321015734735]}},{"type":"Feature","properties":{"title":"PEPFAR Tanzania: Shinyanga","id":2301,"area":565.5201463076456,"year":"2017","lastUpdated":"2017-11-16T23:33:37.890014","changesets":5198,"mappers":302,"roads":2277.42607148261,"buildings":46163,"edits":71621,"latest":"2017-11-16T23:33:01.000Z"},"geometry":{"type":"Point","coordinates":[33.44573190915658,-3.633071239733379]}},{"type":"Feature","properties":{"title":"MSD & JSI/USAID Tanzania Road Import - Kilimanjaro region","id":1972,"area":11317.826802773296,"year":"2016","lastUpdated":"2016-08-31T08:40:56.222091","changesets":0,"mappers":0,"roads":0,"buildings":0,"edits":0,"latest":null},"geometry":{"type":"Point","coordinates":[37.47095374471149,-3.5857099932097873]}},{"type":"Feature","properties":{"title":"Tanzania Development Trust: Maswa district mapping project part 1","id":2578,"area":159.57894576974346,"year":"2017","lastUpdated":"2017-10-19T10:37:48.653512","changesets":0,"mappers":0,"roads":0,"buildings":0,"edits":0,"latest":null},"geometry":{"type":"Point","coordinates":[33.817882557580745,-3.2813052403453997]}},{"type":"Feature","properties":{"title":"MSD & JSI/USAID Tanzania Road Import - Singida region","id":1999,"area":26074.754451063287,"year":"2016","lastUpdated":"2016-09-25T10:42:24.947931","changesets":0,"mappers":0,"roads":0,"buildings":0,"edits":0,"latest":null},"geometry":{"type":"Point","coordinates":[34.50140704015796,-5.676229952710943]}},{"type":"Feature","properties":{"title":"Ngorongoro Conservation Area","id":1040,"area":8640.922363295951,"year":"2017","lastUpdated":"2017-04-25T12:38:43.230359","changesets":0,"mappers":0,"roads":0,"buildings":0,"edits":0,"latest":null},"geometry":{"type":"Point","coordinates":[35.421957288469606,-3.139810074677604]}},{"type":"Feature","properties":{"title":"MSD & JSI/USAID Tanzania Road Import - Dodoma region","id":2012,"area":30070.63156173727,"year":"2016","lastUpdated":"2016-09-16T13:16:37.526872","changesets":0,"mappers":0,"roads":0,"buildings":0,"edits":0,"latest":null},"geometry":{"type":"Point","coordinates":[35.84633163505444,-5.8241716175440175]}},{"type":"Feature","properties":{"title":"MSD & JSI/USAID Tanzania Road Import - Mtwara & Lindi Regions + Tunduru District","id":1194,"area":59075.33727007736,"year":"2016","lastUpdated":"2016-05-20T14:26:58.661670","changesets":0,"mappers":0,"roads":0,"buildings":0,"edits":0,"latest":null},"geometry":{"type":"Point","coordinates":[38.17747568450677,-10.184904231832341]}},{"type":"Feature","properties":{"title":"Missing Maps: Dar es Salaam - Ramani Huria 7","id":2125,"area":15.59172030179052,"year":"2017","lastUpdated":"2017-12-11T17:19:29.232404","changesets":681,"mappers":54,"roads":23.3546858581493,"buildings":15759,"edits":16703,"latest":"2017-12-11T17:19:19.000Z"},"geometry":{"type":"Point","coordinates":[39.22768489444798,-6.724982791087041]}},{"type":"Feature","properties":{"title":"Serengeti National Park","id":834,"area":13370.038280033767,"year":"2017","lastUpdated":"2017-07-05T09:52:49.480984","changesets":0,"mappers":0,"roads":0,"buildings":0,"edits":0,"latest":null},"geometry":{"type":"Point","coordinates":[34.71995007142858,-1.969435597802197]}},{"type":"Feature","properties":{"title":"Njombe Region, Tanzania Mini Grids Project 07","id":4753,"area":2035.3854283933017,"year":"2018","lastUpdated":"2018-07-02T08:04:40.510728","changesets":0,"mappers":0,"roads":0,"buildings":0,"edits":0,"latest":null},"geometry":{"type":"Point","coordinates":[34.51311154966009,-9.51145731750423]}},{"type":"Feature","properties":{"title":"Songea Rural, Ruvuma, Tanzania Mini Grids Project 06","id":4720,"area":2093.4548563322423,"year":"2018","lastUpdated":"2018-06-12T12:04:57.521919","changesets":1018,"mappers":50,"roads":0.363088632082872,"buildings":13579,"edits":13606,"latest":"2018-06-12T11:03:12.000Z"},"geometry":{"type":"Point","coordinates":[35.31103412395969,-11.03686797344467]}},{"type":"Feature","properties":{"title":"Njombe Region, Tanzania Mini Grids Project 01","id":4722,"area":1960.7678476372357,"year":"2018","lastUpdated":"2018-06-14T10:35:06.317220","changesets":1187,"mappers":61,"roads":1.07364951171986,"buildings":57724,"edits":57843,"latest":"2018-06-14T13:57:46.000Z"},"geometry":{"type":"Point","coordinates":[34.581247317489954,-8.801178149192559]}},{"type":"Feature","properties":{"title":"Manyoni, Singida, Tanzania Mini Grids Project 05","id":4555,"area":2172.2334385231957,"year":"2018","lastUpdated":"2018-05-24T13:47:51.718614","changesets":1476,"mappers":57,"roads":0.354646008845444,"buildings":32058,"edits":32104,"latest":"2018-05-24T13:46:32.000Z"},"geometry":{"type":"Point","coordinates":[34.89457414391987,-6.337178718154652]}},{"type":"Feature","properties":{"title":"Tabora, Tabora, Tanzania Mini Grids Project 01","id":4583,"area":1907.1663208860407,"year":"2018","lastUpdated":"2018-06-21T06:39:06.778869","changesets":1626,"mappers":57,"roads":1.70427097121436,"buildings":34594,"edits":34897,"latest":"2018-06-14T09:38:30.000Z"},"geometry":{"type":"Point","coordinates":[32.59170617851557,-4.606714194976095]}},{"type":"Feature","properties":{"title":"Unkuku, Tanzania Mini Grids Project","id":4715,"area":61.28019264301011,"year":"2018","lastUpdated":"2018-06-11T10:35:32.819747","changesets":97,"mappers":36,"roads":0.0672879206278469,"buildings":5732,"edits":5741,"latest":"2018-06-11T07:40:02.000Z"},"geometry":{"type":"Point","coordinates":[35.81881696929818,-4.8916621717699]}},{"type":"Feature","properties":{"title":"Central Singida, Singida, Tanzania Mini Grids Project 00 North","id":4508,"area":2138.0235797080213,"year":"2018","lastUpdated":"2018-06-29T06:38:01.506131","changesets":2083,"mappers":64,"roads":1.80693813624998,"buildings":83421,"edits":83643,"latest":"2018-05-15T14:47:17.000Z"},"geometry":{"type":"Point","coordinates":[34.85630752643853,-4.7195257307215375]}},{"type":"Feature","properties":{"title":"Ivugula Village, Tanzania Mini Grids Project 01","id":4435,"area":12.603608518468686,"year":"2018","lastUpdated":"2018-04-19T11:25:13.979143","changesets":270,"mappers":44,"roads":23.4950636574225,"buildings":1686,"edits":2161,"latest":"2018-06-13T18:16:09.000Z"},"geometry":{"type":"Point","coordinates":[33.072913842202496,-8.994998857575]}},{"type":"Feature","properties":{"title":"S. Monduli, Simanjiro, Tanzania Mini Grids - MapSwipe Project 04 - 01","id":4480,"area":133.48441769177396,"year":"2018","lastUpdated":"2018-06-29T10:36:33.994267","changesets":391,"mappers":60,"roads":0,"buildings":4266,"edits":4266,"latest":"2018-05-04T13:40:19.000Z"},"geometry":{"type":"Point","coordinates":[36.51598942107269,-5.009138210253439]}},{"type":"Feature","properties":{"title":"Tunduru, Ruvuma, Tanzania Mini Grids Project 03","id":4378,"area":1369.2568876847938,"year":"2018","lastUpdated":"2018-05-03T12:58:11.041494","changesets":1018,"mappers":60,"roads":0.263537837490913,"buildings":23394,"edits":23430,"latest":"2018-05-03T13:14:28.000Z"},"geometry":{"type":"Point","coordinates":[37.28765739124834,-11.152541317436667]}},{"type":"Feature","properties":{"title":"Heru Shingo Ward, Kigoma, Tanzania Mini Grids Project 01","id":4387,"area":789.0955168862893,"year":"2018","lastUpdated":"2018-06-27T06:10:33.707732","changesets":1455,"mappers":37,"roads":4.58334806253399,"buildings":33003,"edits":33301,"latest":"2018-06-01T13:26:31.000Z"},"geometry":{"type":"Point","coordinates":[30.310435947907735,-4.113678655615293]}},{"type":"Feature","properties":{"title":"Kigoma_9","id":4090,"area":1.722690665551124,"year":"2018","lastUpdated":"2018-02-15T09:43:57.762973","changesets":290,"mappers":6,"roads":0.249339693562493,"buildings":1929,"edits":1941,"latest":"2018-02-15T09:43:50.000Z"},"geometry":{"type":"Point","coordinates":[29.825238216387262,-6.003663870933533]}},{"type":"Feature","properties":{"title":"Songea Rural, Ruvuma, Tanzania Mini Grids Project 02","id":4700,"area":2220.7880799927716,"year":"2018","lastUpdated":"2018-06-11T10:36:01.898341","changesets":626,"mappers":55,"roads":0.0918395441376388,"buildings":12459,"edits":12476,"latest":"2018-06-11T08:13:36.000Z"},"geometry":{"type":"Point","coordinates":[35.427622249790986,-9.775460334204324]}},{"type":"Feature","properties":{"title":"Rufiji, Pwani, Tanzania Mini Grids Project 04","id":4624,"area":1796.0668599205555,"year":"2018","lastUpdated":"2018-06-26T06:14:51.811334","changesets":299,"mappers":39,"roads":0.0542000845535752,"buildings":7308,"edits":7317,"latest":"2018-06-03T06:32:11.000Z"},"geometry":{"type":"Point","coordinates":[38.53147573879938,-7.800372604775588]}},{"type":"Feature","properties":{"title":"Urambo, Tabora, Tanzania Mini Grids Project 09-10","id":4377,"area":1677.5206088742302,"year":"2018","lastUpdated":"2018-05-21T13:20:07.112179","changesets":1703,"mappers":67,"roads":0.363745706229784,"buildings":26610,"edits":26624,"latest":"2018-05-21T13:49:44.000Z"},"geometry":{"type":"Point","coordinates":[32.006976077428725,-4.486466132072692]}},{"type":"Feature","properties":{"title":"Manyoni, Singida, Tanzania Mini Grids Project 01","id":4531,"area":1326.5528682624965,"year":"2018","lastUpdated":"2018-05-19T20:47:16.371655","changesets":589,"mappers":58,"roads":0.134107026616461,"buildings":7569,"edits":7586,"latest":"2018-05-18T10:04:10.000Z"},"geometry":{"type":"Point","coordinates":[34.5086017651493,-5.53508090379479]}},{"type":"Feature","properties":{"title":"Urambo, Tabora, Tanzania Mini Grids Project 07","id":4354,"area":1417.644733786158,"year":"2018","lastUpdated":"2018-07-02T08:16:09.808700","changesets":1280,"mappers":66,"roads":0.235986987394966,"buildings":39644,"edits":39659,"latest":"2018-04-11T09:46:25.000Z"},"geometry":{"type":"Point","coordinates":[31.960650180526155,-4.799811038966155]}},{"type":"Feature","properties":{"title":"Kigoma_15","id":4102,"area":1.4561334248441051,"year":"2018","lastUpdated":"2018-02-07T07:32:02.125048","changesets":36,"mappers":5,"roads":0.613262345810854,"buildings":921,"edits":929,"latest":"2018-02-06T11:58:55.000Z"},"geometry":{"type":"Point","coordinates":[29.751054238259393,-5.416786723007887]}},{"type":"Feature","properties":{"title":"Mbozi, Mbeya, Tanzania Mini Grids Project 03","id":4289,"area":1303.883290131881,"year":"2018","lastUpdated":"2018-06-29T13:16:07.336988","changesets":2369,"mappers":71,"roads":1709.1223406615,"buildings":56972,"edits":61831,"latest":"2018-04-04T13:53:11.000Z"},"geometry":{"type":"Point","coordinates":[32.660369621525334,-8.981003005244997]}},{"type":"Feature","properties":{"title":"Manyoni, Singida, Tanzania Mini Grids Project 06","id":4556,"area":3110.180831968628,"year":"2018","lastUpdated":"2018-06-30T09:39:39.396017","changesets":1473,"mappers":64,"roads":0.0988541090635963,"buildings":31503,"edits":31542,"latest":"2018-06-14T12:27:57.000Z"},"geometry":{"type":"Point","coordinates":[34.04246656080447,-6.8440179852491845]}},{"type":"Feature","properties":{"title":"Mivumoni Village, Pangani District, Tanzania Mini Grids Project","id":4699,"area":0.818188879689272,"year":"2018","lastUpdated":"2018-06-07T14:22:25.703646","changesets":78,"mappers":17,"roads":0.0276900086096642,"buildings":366,"edits":370,"latest":"2018-06-07T14:01:00.000Z"},"geometry":{"type":"Point","coordinates":[38.903763126037596,-5.307186790941633]}},{"type":"Feature","properties":{"title":"Kigoma_6","id":4087,"area":3.103362564009721,"year":"2018","lastUpdated":"2018-02-15T12:32:16.947516","changesets":201,"mappers":8,"roads":0.0059086431357116,"buildings":3802,"edits":3802,"latest":"2018-02-13T11:37:26.000Z"},"geometry":{"type":"Point","coordinates":[29.957718322358744,-6.483041975356721]}},{"type":"Feature","properties":{"title":"Lindi, Lindi, Tanzania Mini Grids Project 05","id":4499,"area":1350.3603655694978,"year":"2018","lastUpdated":"2018-06-29T06:38:06.752377","changesets":976,"mappers":65,"roads":1.10597043189381,"buildings":27788,"edits":27937,"latest":"2018-05-14T05:44:36.000Z"},"geometry":{"type":"Point","coordinates":[39.68909574499,-9.801786594046861]}},{"type":"Feature","properties":{"title":"Kasulu, Kasulu, Tanzania Mini Grids Project 04","id":4571,"area":2136.1760422465886,"year":"2018","lastUpdated":"2018-07-05T08:15:31.433486","changesets":1525,"mappers":62,"roads":11.2025461927747,"buildings":47481,"edits":48101,"latest":"2018-06-14T13:59:15.000Z"},"geometry":{"type":"Point","coordinates":[29.98247064013143,-4.6984841931908]}},{"type":"Feature","properties":{"title":"Urambo, Tabora, Tanzania Mini Grids Project 05","id":4352,"area":1522.3866868404682,"year":"2018","lastUpdated":"2018-06-29T06:39:44.799826","changesets":1420,"mappers":63,"roads":47.0933047252912,"buildings":58498,"edits":58580,"latest":"2018-04-11T09:35:31.000Z"},"geometry":{"type":"Point","coordinates":[31.750896252665452,-5.017669822392724]}},{"type":"Feature","properties":{"title":"Missing Maps: Temeke - Data Zetu","id":3699,"area":14.051390146474496,"year":"2018","lastUpdated":"2018-03-04T22:52:17.712834","changesets":931,"mappers":30,"roads":58.5254100191776,"buildings":29137,"edits":33372,"latest":"2018-03-09T20:29:21.000Z"},"geometry":{"type":"Point","coordinates":[39.26423919262868,-6.891846441400092]}},{"type":"Feature","properties":{"title":"Chemba and Bahi Districts, Tanzania Mini Grids Project 06","id":4657,"area":1954.498784623165,"year":"2018","lastUpdated":"2018-06-14T09:15:54.656575","changesets":1739,"mappers":67,"roads":0.0871877791220345,"buildings":23455,"edits":23473,"latest":"2018-06-15T19:15:22.000Z"},"geometry":{"type":"Point","coordinates":[35.518366503705884,-5.7085387258819065]}},{"type":"Feature","properties":{"title":"Missing Maps: Dar es Salaam - Ramani Huria 2.0 - 28","id":3425,"area":238.90307672725964,"year":"2018","lastUpdated":"2018-03-05T15:33:37.319997","changesets":3337,"mappers":175,"roads":1979.67874635539,"buildings":2573,"edits":35065,"latest":"2017-11-03T04:15:17.000Z"},"geometry":{"type":"Point","coordinates":[39.23760432535289,-6.936433155607072]}},{"type":"Feature","properties":{"title":"Kigoma_13","id":4099,"area":2.897626588524291,"year":"2018","lastUpdated":"2018-02-12T06:41:14.209893","changesets":98,"mappers":5,"roads":0.000234970678110244,"buildings":1712,"edits":1719,"latest":"2018-02-12T06:40:16.000Z"},"geometry":{"type":"Point","coordinates":[29.658303477039862,-4.485456020104669]}},{"type":"Feature","properties":{"title":"Missing Maps: Dar es Salaam - Ramani Huria 2.0 - 25","id":3411,"area":260.81879568766976,"year":"2018","lastUpdated":"2018-03-05T15:34:52.492149","changesets":1755,"mappers":99,"roads":3.25862217409201,"buildings":58641,"edits":59730,"latest":"2017-08-21T09:01:52.000Z"},"geometry":{"type":"Point","coordinates":[39.37092792533908,-6.938791309484072]}},{"type":"Feature","properties":{"title":"Lindi - Mini Grids","id":4260,"area":235.67207484051517,"year":"2018","lastUpdated":"2018-04-18T21:53:41.412313","changesets":133,"mappers":23,"roads":23.0772557724216,"buildings":2266,"edits":2684,"latest":"2018-04-18T21:53:28.000Z"},"geometry":{"type":"Point","coordinates":[39.305670260454285,-10.707404745317382]}},{"type":"Feature","properties":{"title":"Kigoma_3","id":4084,"area":5.097450161720606,"year":"2018","lastUpdated":"2018-02-01T07:42:27.258246","changesets":288,"mappers":6,"roads":2.31764270978854,"buildings":6302,"edits":6359,"latest":"2018-02-08T07:46:42.000Z"},"geometry":{"type":"Point","coordinates":[30.406732561710204,-6.745298521099169]}},{"type":"Feature","properties":{"title":"Mwanza","id":4074,"area":121.88924319716057,"year":"2018","lastUpdated":"2018-03-27T15:42:41.221237","changesets":6,"mappers":3,"roads":0.470326699343026,"buildings":24,"edits":42,"latest":"2018-03-27T15:44:50.000Z"},"geometry":{"type":"Point","coordinates":[33.126132567191135,-1.9238324242353735]}},{"type":"Feature","properties":{"title":"Kalobe-Data Zetu","id":4242,"area":5.581452341462152,"year":"2018","lastUpdated":"2018-03-07T09:09:27.180898","changesets":531,"mappers":5,"roads":0.0106237188235286,"buildings":6096,"edits":6109,"latest":"2018-03-07T09:02:49.000Z"},"geometry":{"type":"Point","coordinates":[33.4084716088529,-8.914847386034923]}},{"type":"Feature","properties":{"title":"Zanzibar Roads - Unguja Island - 02","id":3666,"area":467.0999763333136,"year":"2017","lastUpdated":"2017-10-02T18:35:16.494476","changesets":182,"mappers":13,"roads":1127.1061948184,"buildings":5,"edits":6570,"latest":"2017-10-04T08:29:26.000Z"},"geometry":{"type":"Point","coordinates":[39.26414174907967,-5.856335474346869]}},{"type":"Feature","properties":{"title":"Missing Maps: Dar es Salaam - Ramani Huria 2.0 - 24","id":3410,"area":178.71077034656207,"year":"2018","lastUpdated":"2018-03-05T15:35:12.366029","changesets":1325,"mappers":49,"roads":0.0922744730575409,"buildings":7624,"edits":7650,"latest":"2017-08-16T00:47:29.000Z"},"geometry":{"type":"Point","coordinates":[39.49870437090148,-6.9536467580624555]}},{"type":"Feature","properties":{"title":"Tanzania Development Trust and Institute for Rural Development Planning: Mvomero district student mapping project ","id":3319,"area":1439.4586268120136,"year":"2018","lastUpdated":"2018-03-30T09:46:27.084556","changesets":0,"mappers":0,"roads":0,"buildings":0,"edits":0,"latest":null},"geometry":{"type":"Point","coordinates":[37.51997811453685,-6.44864147483987]}},{"type":"Feature","properties":{"title":"Missing Maps: Iringa - OpenStreetMap Tanzania","id":3431,"area":13.946474979484007,"year":"2018","lastUpdated":"2018-07-05T09:26:14.304238","changesets":607,"mappers":56,"roads":14.6089667908956,"buildings":3492,"edits":4272,"latest":"2018-06-16T13:59:57.000Z"},"geometry":{"type":"Point","coordinates":[35.70870872020667,-7.758966359486665]}},{"type":"Feature","properties":{"title":"Missing Maps: Dar es Salaam - Ramani Huria 2.0 - 26","id":3412,"area":264.77964572508387,"year":"2018","lastUpdated":"2018-03-05T15:34:27.981696","changesets":362,"mappers":52,"roads":2.21303831070795,"buildings":4558,"edits":4620,"latest":"2017-08-16T10:11:16.000Z"},"geometry":{"type":"Point","coordinates":[39.452851686025426,-7.123357238474153]}},{"type":"Feature","properties":{"title":"Ramani Huria 2.0 Session 01","id":3329,"area":31.68859428995046,"year":"2017","lastUpdated":"2017-08-10T21:07:17.738097","changesets":257,"mappers":67,"roads":32.0605720986966,"buildings":1717,"edits":2201,"latest":"2017-08-10T21:06:16.000Z"},"geometry":{"type":"Point","coordinates":[36.046382904052734,-7.679825943888342]}},{"type":"Feature","properties":{"title":"Urambo, Tabora, Tanzania Mini Grids Project 06","id":4353,"area":1555.7313427834936,"year":"2018","lastUpdated":"2018-06-29T06:38:02.088669","changesets":1535,"mappers":66,"roads":0.0331344994875119,"buildings":54533,"edits":54541,"latest":"2018-04-11T10:57:57.000Z"},"geometry":{"type":"Point","coordinates":[31.85480028894,-4.912515247337495]}},{"type":"Feature","properties":{"title":"Ikuna Ward Mapping Project","id":3203,"area":224.51296025612464,"year":"2018","lastUpdated":"2018-03-05T15:47:24.873442","changesets":335,"mappers":7,"roads":742.813559438956,"buildings":4401,"edits":9943,"latest":"2017-10-31T12:28:59.000Z"},"geometry":{"type":"Point","coordinates":[34.9328327178955,-9.190730246414187]}},{"type":"Feature","properties":{"title":"Tanzania Development Trust: Msisi ward community mapping project ","id":3160,"area":81.67279767012198,"year":"2018","lastUpdated":"2018-04-26T00:17:28.085993","changesets":0,"mappers":0,"roads":0,"buildings":0,"edits":0,"latest":null},"geometry":{"type":"Point","coordinates":[34.66563340576518,-4.623019740570436]}},{"type":"Feature","properties":{"title":"Missing Maps: Dar es Salaam - Ramani Huria 2.0 - 23","id":3395,"area":200.39044222285065,"year":"2018","lastUpdated":"2018-03-05T15:37:23.174798","changesets":11931,"mappers":207,"roads":6.40062292346281,"buildings":130739,"edits":132569,"latest":"2017-12-05T17:05:23.000Z"},"geometry":{"type":"Point","coordinates":[39.17679213744439,-6.900453055307525]}},{"type":"Feature","properties":{"title":"Missing Maps: Dar es Salaam - Ramani Huria 2.0 - 22","id":3394,"area":193.3069912960159,"year":"2018","lastUpdated":"2018-03-05T15:37:43.885692","changesets":1930,"mappers":58,"roads":1.39294643325465,"buildings":23844,"edits":24048,"latest":"2017-08-13T19:03:52.000Z"},"geometry":{"type":"Point","coordinates":[39.08408207500271,-7.020948492257043]}},{"type":"Feature","properties":{"title":"Missing Maps: Dar es Salaam - Ramani Huria 2.0 - 29","id":3426,"area":297.76980439882516,"year":"2018","lastUpdated":"2018-03-05T15:32:07.612903","changesets":627,"mappers":46,"roads":1351.44697865554,"buildings":91,"edits":10344,"latest":"2017-09-06T11:56:12.000Z"},"geometry":{"type":"Point","coordinates":[39.45915654892912,-6.919374059784676]}},{"type":"Feature","properties":{"title":"Missing Maps: Mbeya - Data Zetu","id":3697,"area":39.48024643275634,"year":"2018","lastUpdated":"2018-03-05T06:16:20.685049","changesets":2340,"mappers":21,"roads":8.22290546014696,"buildings":79467,"edits":79938,"latest":"2018-03-05T10:02:12.000Z"},"geometry":{"type":"Point","coordinates":[33.45143106176986,-8.924156507539553]}},{"type":"Feature","properties":{"title":"Bankolo Village, Tanzania Mini Grids Project","id":4649,"area":2.655569135969413,"year":"2018","lastUpdated":"2018-06-03T23:07:59.384606","changesets":23,"mappers":10,"roads":0,"buildings":35,"edits":35,"latest":"2018-06-02T09:43:11.000Z"},"geometry":{"type":"Point","coordinates":[35.452022531029996,-5.83740181330499]}},{"type":"Feature","properties":{"title":"kagera_3","id":4072,"area":5.425110699350517,"year":"2018","lastUpdated":"2018-01-29T13:51:44.560135","changesets":66,"mappers":4,"roads":0,"buildings":1436,"edits":1436,"latest":"2018-01-30T06:14:28.000Z"},"geometry":{"type":"Point","coordinates":[31.78296036744672,-1.9859577129840518]}},{"type":"Feature","properties":{"title":"Kigoma_7","id":4088,"area":2.1750746662810996,"year":"2018","lastUpdated":"2018-02-14T06:34:17.900163","changesets":64,"mappers":6,"roads":0,"buildings":770,"edits":770,"latest":"2018-02-14T06:35:46.000Z"},"geometry":{"type":"Point","coordinates":[29.747221030052973,-6.0249577041517295]}},{"type":"Feature","properties":{"title":"Urambo, Tabora, Tanzania Mini Grids Project 03","id":4365,"area":1398.7624508238905,"year":"2018","lastUpdated":"2018-07-04T09:14:48.213836","changesets":1186,"mappers":64,"roads":0.0350233998501786,"buildings":32670,"edits":32678,"latest":"2018-04-13T13:08:47.000Z"},"geometry":{"type":"Point","coordinates":[31.89778350716778,-5.22060588533778]}},{"type":"Feature","properties":{"title":"Missing Maps: Dar es Salaam - Ramani Huria 2.0 - 34","id":3456,"area":196.89167630800463,"year":"2018","lastUpdated":"2018-03-05T15:30:13.278824","changesets":3676,"mappers":139,"roads":587.388974612295,"buildings":20987,"edits":38292,"latest":"2017-11-13T11:24:48.000Z"},"geometry":{"type":"Point","coordinates":[39.100288211273984,-6.877221494935376]}},{"type":"Feature","properties":{"title":"Missing Maps: Dar es Salaam - Ramani Huria 2.0 - 36","id":3488,"area":375.46340276958506,"year":"2018","lastUpdated":"2018-03-05T15:28:01.583533","changesets":3567,"mappers":92,"roads":484.778915813184,"buildings":27629,"edits":38950,"latest":"2017-09-08T11:51:25.000Z"},"geometry":{"type":"Point","coordinates":[39.342418323976254,-6.900416957671596]}},{"type":"Feature","properties":{"title":"Kigoma_11","id":4097,"area":4.492849273495634,"year":"2018","lastUpdated":"2018-02-09T07:33:00.557116","changesets":215,"mappers":4,"roads":0,"buildings":5705,"edits":5705,"latest":"2018-02-09T07:23:31.000Z"},"geometry":{"type":"Point","coordinates":[29.899492785288036,-5.944963869712221]}},{"type":"Feature","properties":{"title":"Kigoma_17","id":4105,"area":4.227050493859274,"year":"2018","lastUpdated":"2018-02-15T09:58:31.382396","changesets":84,"mappers":8,"roads":0.193564177598396,"buildings":1322,"edits":1325,"latest":"2018-02-22T12:12:21.000Z"},"geometry":{"type":"Point","coordinates":[29.924467030509287,-5.732861759308482]}},{"type":"Feature","properties":{"title":"Mbozi, Mbeya, Tanzania Mini Grids Project 06","id":4349,"area":1339.4689946738515,"year":"2018","lastUpdated":"2018-06-29T09:45:45.880967","changesets":847,"mappers":62,"roads":741.067165124288,"buildings":16598,"edits":17935,"latest":"2018-04-11T08:43:29.000Z"},"geometry":{"type":"Point","coordinates":[32.47751628437078,-8.583821597525402]}},{"type":"Feature","properties":{"title":"Mbozi, Mbeya, Tanzania Mini Grids Project 01","id":4286,"area":1427.754247465411,"year":"2018","lastUpdated":"2018-06-07T08:27:39.601646","changesets":3571,"mappers":68,"roads":3017.76610954661,"buildings":84064,"edits":91962,"latest":"2018-06-14T11:11:25.000Z"},"geometry":{"type":"Point","coordinates":[32.815140600291976,-9.28818806240448]}},{"type":"Feature","properties":{"title":"Tanzania Development Trust: Tabora district mapping project","id":2361,"area":11331.719987775972,"year":"2018","lastUpdated":"2018-06-29T13:15:53.251740","changesets":11628,"mappers":420,"roads":28491.8019961001,"buildings":316261,"edits":517513,"latest":"2018-06-13T09:15:01.000Z"},"geometry":{"type":"Point","coordinates":[32.92552601207387,-4.978413388219568]}}],"Botswana":[{"type":"Feature","properties":{"title":"Botswana, Motopi Village - National Malaria Programme","id":4338,"area":13.131378829193364,"year":"2018","lastUpdated":"2018-05-04T15:39:57.857560","changesets":167,"mappers":32,"roads":94.5419408108963,"buildings":964,"edits":1503,"latest":"2018-05-03T22:32:17.000Z"},"geometry":{"type":"Point","coordinates":[24.115712164009352,-20.23742594346273]}},{"type":"Feature","properties":{"title":"Peace Corps Botswana - Molepolole II","id":1034,"area":18.17702226776811,"year":"2017","lastUpdated":"2017-02-24T08:33:54.972147","changesets":1115,"mappers":72,"roads":43.6190988347351,"buildings":9155,"edits":10457,"latest":"2017-02-24T08:28:42.000Z"},"geometry":{"type":"Point","coordinates":[25.53331232070923,-24.38367093057388]}},{"type":"Feature","properties":{"title":"Botswana, Chobe District - National Malaria Programme","id":4317,"area":2422.6655366125387,"year":"2018","lastUpdated":"2018-05-04T19:38:57.981887","changesets":1401,"mappers":158,"roads":1981.40636245231,"buildings":5944,"edits":11864,"latest":"2018-04-22T20:13:03.000Z"},"geometry":{"type":"Point","coordinates":[25.171173150295072,-18.0834268952089]}},{"type":"Feature","properties":{"title":"Botswana, Tsau Village - National Malaria Programme","id":4341,"area":105.35375908446986,"year":"2018","lastUpdated":"2018-05-04T15:40:21.411921","changesets":216,"mappers":43,"roads":145.819076871357,"buildings":884,"edits":1597,"latest":"2018-04-25T17:01:18.000Z"},"geometry":{"type":"Point","coordinates":[22.397900206073455,-20.149402404545274]}},{"type":"Feature","properties":{"title":"Botswana, Gumare Village - National Malaria Programme","id":4339,"area":62.94267106863238,"year":"2018","lastUpdated":"2018-05-04T19:40:12.331089","changesets":408,"mappers":51,"roads":114.364259908699,"buildings":2711,"edits":3636,"latest":"2018-04-18T10:29:18.000Z"},"geometry":{"type":"Point","coordinates":[22.18267293596798,-19.359871131002357]}},{"type":"Feature","properties":{"title":"Peace Corps -- Botswana","id":2152,"area":399.9650587062993,"year":"2018","lastUpdated":"2018-05-03T19:36:53.527994","changesets":3449,"mappers":362,"roads":3636.47181024405,"buildings":84120,"edits":111196,"latest":"2018-05-03T19:49:38.000Z"},"geometry":{"type":"Point","coordinates":[25.235665722897178,-23.056316073781915]}},{"type":"Feature","properties":{"title":"Peace Corps Botswana - Mochudi","id":1515,"area":55.63006078479333,"year":"2018","lastUpdated":"2018-01-18T21:04:31.595591","changesets":1002,"mappers":74,"roads":254.358048449744,"buildings":23626,"edits":33566,"latest":"2018-02-06T20:54:55.000Z"},"geometry":{"type":"Point","coordinates":[26.151640113893446,-24.385703587704437]}},{"type":"Feature","properties":{"title":"Peace Corps Botswana -- Kang","id":1803,"area":28.34379858272266,"year":"2018","lastUpdated":"2018-03-13T19:53:56.822503","changesets":227,"mappers":17,"roads":197.59128660123,"buildings":4564,"edits":7204,"latest":"2018-03-13T19:53:20.000Z"},"geometry":{"type":"Point","coordinates":[22.79578481401715,-23.67143286902051]}},{"type":"Feature","properties":{"title":"Peace Corps Botswana - Molepolole IV","id":1036,"area":12.72823325148611,"year":"2017","lastUpdated":"2017-02-24T08:55:52.960292","changesets":255,"mappers":26,"roads":55.8420030486039,"buildings":3952,"edits":5662,"latest":"2017-02-24T08:28:49.000Z"},"geometry":{"type":"Point","coordinates":[25.53034732216284,-24.415434665052377]}},{"type":"Feature","properties":{"title":"Peace Corps Botswana - Thamaga V","id":953,"area":3.0178235475173096,"year":"2015","lastUpdated":"2015-05-21T11:47:26.245023","changesets":5,"mappers":2,"roads":0,"buildings":33,"edits":33,"latest":"2015-04-22T18:48:51.000Z"},"geometry":{"type":"Point","coordinates":[25.538025498390205,-24.684724591707454]}},{"type":"Feature","properties":{"title":"Peace Corps Botswana- Rakops","id":824,"area":13.302450582189476,"year":"2017","lastUpdated":"2017-09-08T18:05:09.130135","changesets":189,"mappers":11,"roads":183.979487286314,"buildings":3243,"edits":5850,"latest":"2017-09-08T18:04:25.000Z"},"geometry":{"type":"Point","coordinates":[24.399808645248413,-21.035069114679253]}},{"type":"Feature","properties":{"title":"Peace Corps Botswana - Molepolole V","id":1037,"area":16.31817162737985,"year":"2017","lastUpdated":"2017-02-24T11:24:55.506120","changesets":1051,"mappers":90,"roads":230.955311071122,"buildings":8536,"edits":11426,"latest":"2017-02-24T11:38:02.000Z"},"geometry":{"type":"Point","coordinates":[25.475939512252808,-24.40643361725961]}},{"type":"Feature","properties":{"title":"Peace Corps Botswana - Molepolole I","id":1022,"area":8.587554796204715,"year":"2015","lastUpdated":"2015-10-08T16:25:32.038745","changesets":748,"mappers":26,"roads":25.5928898708746,"buildings":2488,"edits":3244,"latest":"2015-09-12T21:01:44.000Z"},"geometry":{"type":"Point","coordinates":[25.584703683853153,-24.40124723053909]}},{"type":"Feature","properties":{"title":"Botswana, Nata Village (re-do) - National Malaria Programme","id":4382,"area":434.7624185220041,"year":"2018","lastUpdated":"2018-04-18T13:15:59.093918","changesets":662,"mappers":110,"roads":697.130695316268,"buildings":3508,"edits":6902,"latest":"2018-04-14T08:01:09.000Z"},"geometry":{"type":"Point","coordinates":[26.23310153948304,-20.431940518587243]}}],"Greenland":[{"type":"Feature","properties":{"title":"Message All Contributors Test Project Only","id":4312,"area":17333.865494475114,"year":"2018","lastUpdated":"2018-04-27T14:36:14.156965","changesets":1,"mappers":1,"roads":0,"buildings":0,"edits":0,"latest":"2018-04-27T14:37:56.000Z"},"geometry":{"type":"Point","coordinates":[-49.779848766955,79.09307376191651]}}],"Nepal":[{"type":"Feature","properties":{"title":"Missing Maps - Prevent children trafficking (Part 2)","id":4285,"area":314.83322760781954,"year":"2018","lastUpdated":"2018-06-29T12:13:55.373350","changesets":60,"mappers":19,"roads":63.6446533960621,"buildings":855,"edits":1080,"latest":"2018-06-11T09:05:21.000Z"},"geometry":{"type":"Point","coordinates":[81.87636773135003,29.59283899387187]}},{"type":"Feature","properties":{"title":"Mapping Flood Affected Community in Nepal (Morang District, Biratnagar)","id":3403,"area":1830.0915357323506,"year":"2017","lastUpdated":"2017-10-19T00:32:51.281462","changesets":0,"mappers":0,"roads":0,"buildings":0,"edits":0,"latest":null},"geometry":{"type":"Point","coordinates":[87.41436987053658,26.652046649252412]}},{"type":"Feature","properties":{"title":"Mapping Flood Affected Community in Nepal (Bank of East Rapti River)","id":3405,"area":814.4121243749338,"year":"2018","lastUpdated":"2018-07-07T14:26:15.122049","changesets":0,"mappers":0,"roads":0,"buildings":0,"edits":0,"latest":null},"geometry":{"type":"Point","coordinates":[84.77587980382584,27.517333661235245]}},{"type":"Feature","properties":{"title":"Mapping Flood Affected Community in Nepal (Morang District, Biratnagar)","id":3473,"area":1830.0915357323506,"year":"2018","lastUpdated":"2018-07-05T19:13:28.719752","changesets":0,"mappers":0,"roads":0,"buildings":0,"edits":0,"latest":null},"geometry":{"type":"Point","coordinates":[87.41436987053658,26.652046649252412]}},{"type":"Feature","properties":{"title":"Sentinel Asia Mini-Project: West Rapti river basin, Nepal ","id":1372,"area":6391.502318061466,"year":"2018","lastUpdated":"2018-07-07T06:37:00.579778","changesets":1628,"mappers":43,"roads":319.291884862865,"buildings":15444,"edits":18629,"latest":"2018-06-16T17:52:13.000Z"},"geometry":{"type":"Point","coordinates":[82.39560001793716,28.10648477420485]}},{"type":"Feature","properties":{"title":"Open Data Day Nepal 2017 - Rajapur Mapping","id":2614,"area":240.9449448084045,"year":"2018","lastUpdated":"2018-04-25T01:46:45.905920","changesets":96757,"mappers":3621,"roads":29392.4094332058,"buildings":1709775,"edits":2140791,"latest":"2018-06-17T11:13:31.000Z"},"geometry":{"type":"Point","coordinates":[81.15835880373676,28.43001877737917]}},{"type":"Feature","properties":{"title":"Kathmandu University Mapping","id":452,"area":49.876618909115656,"year":"2017","lastUpdated":"2017-08-14T04:44:01.324186","changesets":0,"mappers":0,"roads":0,"buildings":0,"edits":0,"latest":null},"geometry":{"type":"Point","coordinates":[85.53715752260757,27.600252829001303]}},{"type":"Feature","properties":{"title":"Missing Maps: Kaule, Nuwakot, Nepal","id":1540,"area":65.719858585551,"year":"2017","lastUpdated":"2017-10-18T21:58:46.189273","changesets":0,"mappers":0,"roads":0,"buildings":0,"edits":0,"latest":null},"geometry":{"type":"Point","coordinates":[85.1400089263916,28.002808997963548]}},{"type":"Feature","properties":{"title":" Nepal Earthquake, 2015, IDP camps in Banepa area","id":1010,"area":338.41199215971403,"year":"2016","lastUpdated":"2016-03-10T11:24:27.552357","changesets":96,"mappers":36,"roads":35.0002570613446,"buildings":881,"edits":1641,"latest":"2015-12-11T04:27:16.000Z"},"geometry":{"type":"Point","coordinates":[85.47511009489847,27.6793909390766]}},{"type":"Feature","properties":{"title":"OSM Patrol in Kathmandu","id":451,"area":39.123235135575364,"year":"2015","lastUpdated":"2015-05-19T01:37:16.471886","changesets":6,"mappers":2,"roads":0.590492741863659,"buildings":257,"edits":337,"latest":"2017-09-26T03:44:38.000Z"},"geometry":{"type":"Point","coordinates":[85.32945505855874,27.700963340015523]}},{"type":"Feature","properties":{"title":"Tulane Class Task - Chitwan, Nepal","id":330,"area":76.57562998336209,"year":"2017","lastUpdated":"2017-09-13T12:18:29.132121","changesets":46,"mappers":3,"roads":0.91219562613606,"buildings":148,"edits":172,"latest":"2018-06-10T04:04:12.000Z"},"geometry":{"type":"Point","coordinates":[84.42185996787454,27.680614969844527]}},{"type":"Feature","properties":{"title":"Nepal Earthquake Mapping - Dhunche Rasuwa  ( Highly Effected Area ) ","id":1015,"area":70.19968393404724,"year":"2017","lastUpdated":"2017-04-05T13:14:47.016282","changesets":154,"mappers":40,"roads":16.4630165268003,"buildings":310,"edits":447,"latest":"2015-04-29T08:04:30.000Z"},"geometry":{"type":"Point","coordinates":[85.34239549990058,28.07104877189357]}},{"type":"Feature","properties":{"title":"Kathmandu - GWU Mapping Exercise (Area 1)","id":327,"area":52.65568249665954,"year":"2016","lastUpdated":"2016-11-11T17:14:07.552782","changesets":55,"mappers":7,"roads":3.43224416941323,"buildings":990,"edits":1197,"latest":"2018-06-08T11:32:49.000Z"},"geometry":{"type":"Point","coordinates":[85.28682745699977,27.69516375230199]}},{"type":"Feature","properties":{"title":"Mapping Flooding Areas in Koshi Basin","id":337,"area":76.55912060172346,"year":"2017","lastUpdated":"2017-08-15T21:22:26.833349","changesets":179,"mappers":20,"roads":54.9738023166765,"buildings":2652,"edits":3490,"latest":"2017-08-06T15:58:24.000Z"},"geometry":{"type":"Point","coordinates":[86.93582073789841,26.545448624347145]}},{"type":"Feature","properties":{"title":"Kaligandaki Landslide - Parbat (High Alert District)","id":1072,"area":543.5713729336358,"year":"2017","lastUpdated":"2017-10-13T13:24:48.689299","changesets":2330,"mappers":115,"roads":341.655648203167,"buildings":21959,"edits":25631,"latest":"2018-02-18T05:29:25.000Z"},"geometry":{"type":"Point","coordinates":[83.67426392611337,28.197317179511586]}},{"type":"Feature","properties":{"title":"Tanahu Mapping","id":2009,"area":1577.9339889134376,"year":"2017","lastUpdated":"2017-04-02T23:31:16.919181","changesets":0,"mappers":0,"roads":0,"buildings":0,"edits":0,"latest":null},"geometry":{"type":"Point","coordinates":[84.18261352582412,27.950608816405012]}},{"type":"Feature","properties":{"title":"Parbat Mapping - Sceondary Cities Nepal Project","id":2010,"area":543.4138559388664,"year":"2017","lastUpdated":"2017-08-21T11:03:58.689255","changesets":0,"mappers":0,"roads":0,"buildings":0,"edits":0,"latest":null},"geometry":{"type":"Point","coordinates":[83.6845495639123,28.225737075042147]}},{"type":"Feature","properties":{"title":"HFH Nepal Salme Building Mapping","id":1960,"area":25.428903761790345,"year":"2016","lastUpdated":"2016-10-05T06:20:18.134643","changesets":119,"mappers":4,"roads":8.67148771528527,"buildings":260,"edits":496,"latest":"2016-07-29T08:18:05.000Z"},"geometry":{"type":"Point","coordinates":[85.08953581820668,28.041125719063658]}},{"type":"Feature","properties":{"title":"Missing Maps: Dhangadi, Kailali, Nepal 1","id":3675,"area":232.0368296734693,"year":"2018","lastUpdated":"2018-02-07T17:03:55.902567","changesets":2863,"mappers":214,"roads":481.127489375325,"buildings":26947,"edits":33911,"latest":"2018-02-27T19:18:03.000Z"},"geometry":{"type":"Point","coordinates":[80.67164254188538,28.68466503752603]}},{"type":"Feature","properties":{"title":"Mapping Flood Affected Community in Nepal (Jhapa District, Bank of KankaiMai River)","id":3406,"area":1610.1168785147927,"year":"2018","lastUpdated":"2018-07-03T15:11:12.381879","changesets":0,"mappers":0,"roads":0,"buildings":0,"edits":0,"latest":null},"geometry":{"type":"Point","coordinates":[87.97951066038503,26.57537728133027]}},{"type":"Feature","properties":{"title":"Kohalpur Mapping","id":2806,"area":169.77397692416412,"year":"2017","lastUpdated":"2017-11-15T08:38:50.729927","changesets":850,"mappers":30,"roads":266.386981090196,"buildings":13685,"edits":16645,"latest":"2018-01-19T10:08:31.000Z"},"geometry":{"type":"Point","coordinates":[81.71838528469945,28.206692833879785]}},{"type":"Feature","properties":{"title":" Nepal Earthquake, 2015, ( Additional affected districts )","id":1090,"area":2561.440040938251,"year":"2018","lastUpdated":"2018-06-28T17:30:05.717299","changesets":7429,"mappers":747,"roads":4554.02840273072,"buildings":86042,"edits":135420,"latest":"2018-01-24T22:42:05.000Z"},"geometry":{"type":"Point","coordinates":[86.26567083114226,27.177909185060102]}},{"type":"Feature","properties":{"title":"Kaligandaki Landslide - Baglung (High Alert District)","id":1071,"area":1842.7067486524927,"year":"2017","lastUpdated":"2017-11-02T19:22:45.094788","changesets":2639,"mappers":122,"roads":676.815600565175,"buildings":23227,"edits":28035,"latest":"2018-03-20T17:01:26.000Z"},"geometry":{"type":"Point","coordinates":[83.27352828809576,28.3391278698078]}},{"type":"Feature","properties":{"title":" Nepal Earthquake, 2015, Solukhumbu ( Additional affected district )","id":1043,"area":3367.522654837291,"year":"2018","lastUpdated":"2018-06-07T08:58:00.498382","changesets":2203,"mappers":141,"roads":797.264493316282,"buildings":37667,"edits":43730,"latest":"2018-06-07T08:56:39.000Z"},"geometry":{"type":"Point","coordinates":[86.6990663192365,27.753414127864893]}},{"type":"Feature","properties":{"title":"Kaligandaki Landslide - Myagdi (High Alert District)","id":1070,"area":2293.8704385608917,"year":"2018","lastUpdated":"2018-04-04T09:46:42.458317","changesets":1129,"mappers":82,"roads":544.625252164751,"buildings":20426,"edits":25083,"latest":"2018-04-21T23:26:33.000Z"},"geometry":{"type":"Point","coordinates":[83.47527503967287,28.528092649794132]}},{"type":"Feature","properties":{"title":"Kathmandu Living Labs: Pokhara, Nepal (Extended)  Mapping for Resiliency and Emergency Planning","id":2734,"area":427.5206799187036,"year":"2017","lastUpdated":"2017-08-30T14:33:06.596886","changesets":2594,"mappers":32,"roads":580.553483012276,"buildings":41384,"edits":54204,"latest":"2017-11-15T10:14:39.000Z"},"geometry":{"type":"Point","coordinates":[83.98499502441072,28.235686624880366]}},{"type":"Feature","properties":{"title":"Kathmandu urban area (inside the Ring Road), Nepal - OSM data patrol and validation","id":3047,"area":43.016884533416324,"year":"2018","lastUpdated":"2018-07-01T11:09:43.398487","changesets":1451,"mappers":25,"roads":12.9063854477437,"buildings":24308,"edits":31900,"latest":"2018-06-15T14:40:59.000Z"},"geometry":{"type":"Point","coordinates":[85.32579613228638,27.701711697854677]}}],"Ghana":[{"type":"Feature","properties":{"title":"Tarkwa, Ghana - Yemaapi Ghana - Amenities","id":4249,"area":28.659723787299637,"year":"2018","lastUpdated":"2018-03-02T04:25:17.686752","changesets":5,"mappers":2,"roads":0,"buildings":54,"edits":54,"latest":"2018-06-07T16:19:32.000Z"},"geometry":{"type":"Point","coordinates":[-1.9910479955371894,5.294347901167613]}},{"type":"Feature","properties":{"title":"Accra University, Ghana - Yemaapi Ghana - Amenities","id":4247,"area":42.09203843894026,"year":"2018","lastUpdated":"2018-03-02T04:26:07.923336","changesets":0,"mappers":0,"roads":0,"buildings":0,"edits":0,"latest":null},"geometry":{"type":"Point","coordinates":[-0.20821913207630852,5.639828746175439]}},{"type":"Feature","properties":{"title":"Missing Maps: Ghana, Volta River, Kpong Area 2 Floodplain","id":3857,"area":148.00935440911226,"year":"2018","lastUpdated":"2018-07-06T11:02:12.613424","changesets":111,"mappers":10,"roads":59.480465478557,"buildings":1247,"edits":1396,"latest":"2018-06-04T14:49:12.000Z"},"geometry":{"type":"Point","coordinates":[0.2825742689190391,6.045989206473212]}},{"type":"Feature","properties":{"title":"Missing Maps:  Ghana, Volta River, Kpong Dam Area 1","id":3840,"area":105.40279453196466,"year":"2018","lastUpdated":"2018-05-13T01:37:38.653649","changesets":0,"mappers":0,"roads":0,"buildings":0,"edits":0,"latest":null},"geometry":{"type":"Point","coordinates":[0.1898750841541567,6.1118474489259595]}},{"type":"Feature","properties":{"title":"Missing Maps: Ghana, Volta River, Akosombo Area Floodplain","id":3839,"area":116.42032409621953,"year":"2018","lastUpdated":"2018-01-23T06:34:43.770225","changesets":1871,"mappers":231,"roads":100.161240790988,"buildings":24504,"edits":26130,"latest":"2018-01-23T06:24:10.000Z"},"geometry":{"type":"Point","coordinates":[0.09867759840172491,6.206696903361253]}},{"type":"Feature","properties":{"title":"OpenStreetMap-Workshop-2015 #AccraFloods","id":1100,"area":0.41042591015655777,"year":"2017","lastUpdated":"2017-07-08T21:54:55.572942","changesets":487,"mappers":52,"roads":506.826280483439,"buildings":1957,"edits":4419,"latest":"2018-03-08T02:10:29.000Z"},"geometry":{"type":"Point","coordinates":[-0.21522581577301003,5.568234795153613]}},{"type":"Feature","properties":{"title":"Kumasi, Ghana","id":4767,"area":505.4883488037384,"year":"2018","lastUpdated":"2018-06-28T16:34:25.561216","changesets":0,"mappers":0,"roads":0,"buildings":0,"edits":0,"latest":null},"geometry":{"type":"Point","coordinates":[-1.612772001818897,6.69798614251772]}},{"type":"Feature","properties":{"title":"Accra Central, Ghana - Yemaapi Ghana - Amenities","id":4246,"area":22.885056272610363,"year":"2018","lastUpdated":"2018-04-24T21:34:40.893170","changesets":14,"mappers":2,"roads":2.05465144407666,"buildings":27,"edits":62,"latest":"2018-04-24T21:33:24.000Z"},"geometry":{"type":"Point","coordinates":[-0.20225953831790586,5.555422659876964]}},{"type":"Feature","properties":{"title":"Colleges of Education  (Ghana) - learn about relations and how to validate them","id":3296,"area":270.8033752270311,"year":"2018","lastUpdated":"2018-01-24T19:23:18.869564","changesets":212,"mappers":19,"roads":82.1060465896964,"buildings":2818,"edits":4591,"latest":"2018-01-24T19:39:28.000Z"},"geometry":{"type":"Point","coordinates":[-0.9084750055668072,7.18968153921742]}},{"type":"Feature","properties":{"title":"Dunkwa-on-Offin, Ghana","id":3859,"area":9.82966895727083,"year":"2018","lastUpdated":"2018-05-15T14:32:41.468253","changesets":0,"mappers":0,"roads":0,"buildings":0,"edits":0,"latest":null},"geometry":{"type":"Point","coordinates":[-1.7871362954800785,5.9625174505322835]}}],"Vietnam":[{"type":"Feature","properties":{"title":"Missing Maps: Viet Nam, Can Tho, Bhin Thuy 5","id":4233,"area":13.25552440463144,"year":"2018","lastUpdated":"2018-06-11T19:34:48.785877","changesets":318,"mappers":60,"roads":0.586709011599009,"buildings":3757,"edits":3787,"latest":"2018-06-11T18:45:15.000Z"},"geometry":{"type":"Point","coordinates":[105.72195515586915,10.023206899068182]}},{"type":"Feature","properties":{"title":"Missing Maps: Viet Nam, Can Tho, Bhin Thuy 1","id":4229,"area":17.220255872830155,"year":"2018","lastUpdated":"2018-06-14T17:24:00.797542","changesets":365,"mappers":37,"roads":0.731634843022613,"buildings":1882,"edits":1939,"latest":"2018-06-14T17:30:17.000Z"},"geometry":{"type":"Point","coordinates":[105.7478608999426,10.065514099191459]}},{"type":"Feature","properties":{"title":"Missing Maps: Hoa Nhon, Da Nang, Viet Nam","id":4595,"area":32.75607542042544,"year":"2018","lastUpdated":"2018-07-04T10:14:05.075018","changesets":494,"mappers":128,"roads":158.992831191405,"buildings":4548,"edits":5741,"latest":"2018-06-16T22:00:51.000Z"},"geometry":{"type":"Point","coordinates":[108.11778095392042,16.016404351515657]}},{"type":"Feature","properties":{"title":"Missing Maps: Tam Ky, Vietnam 1","id":3867,"area":29.782527531875047,"year":"2018","lastUpdated":"2018-06-22T01:25:23.040362","changesets":5128,"mappers":45,"roads":62.7615273619727,"buildings":17386,"edits":18803,"latest":"2018-05-26T12:02:35.000Z"},"geometry":{"type":"Point","coordinates":[108.47375611872688,15.555141490567896]}},{"type":"Feature","properties":{"title":"Sentinel Asia Mini-Project: Vu Gia Thu Bon river basin, Vietnam","id":1374,"area":9200.467345858582,"year":"2017","lastUpdated":"2017-11-26T11:02:50.399046","changesets":152,"mappers":19,"roads":5766.02757826086,"buildings":4232,"edits":42236,"latest":"2017-11-28T15:12:17.000Z"},"geometry":{"type":"Point","coordinates":[107.90731716815813,15.569732746626746]}},{"type":"Feature","properties":{"title":"Missing Maps: Hoa Phong, Da Nang, Viet Nam","id":4596,"area":18.72213133977016,"year":"2018","lastUpdated":"2018-06-13T22:44:13.163188","changesets":623,"mappers":68,"roads":28.3910106662269,"buildings":4644,"edits":4871,"latest":"2018-06-13T23:54:59.000Z"},"geometry":{"type":"Point","coordinates":[108.12719193824998,15.989098513575062]}},{"type":"Feature","properties":{"title":"Missing Maps: Qung Ngi, Vietnam - Part 4","id":2011,"area":93.89389183480233,"year":"2018","lastUpdated":"2018-06-12T19:56:09.285513","changesets":3262,"mappers":296,"roads":447.164801235593,"buildings":22415,"edits":28764,"latest":"2018-06-07T03:34:01.000Z"},"geometry":{"type":"Point","coordinates":[108.77939058546613,15.169048555569235]}},{"type":"Feature","properties":{"title":"Missing Maps: Qung Ngi, Vietnam - Part 2","id":1995,"area":20.98746861836616,"year":"2017","lastUpdated":"2017-10-18T21:49:47.082952","changesets":950,"mappers":86,"roads":69.2180856413933,"buildings":9740,"edits":10252,"latest":"2017-01-18T00:31:35.000Z"},"geometry":{"type":"Point","coordinates":[108.7574973938356,15.119685034025203]}},{"type":"Feature","properties":{"title":"Missing Maps: Viet Nam, Can Tho, Bhin Thuy 2","id":4230,"area":10.207076955580114,"year":"2018","lastUpdated":"2018-06-14T17:28:39.204430","changesets":535,"mappers":20,"roads":0.00105022403918742,"buildings":1045,"edits":1084,"latest":"2018-06-14T17:29:13.000Z"},"geometry":{"type":"Point","coordinates":[105.71058748956719,10.087919204625848]}},{"type":"Feature","properties":{"title":"Can Tho Mapathon -- City Core and Suburbs","id":2108,"area":294.958921938187,"year":"2018","lastUpdated":"2018-03-29T22:52:34.091024","changesets":338,"mappers":49,"roads":73.9079235683632,"buildings":2852,"edits":4087,"latest":"2018-04-25T05:45:32.000Z"},"geometry":{"type":"Point","coordinates":[105.71113586425776,10.045890378538727]}},{"type":"Feature","properties":{"title":"Missing Maps: Qung Ngi, Vietnam - Part 3","id":1998,"area":17.756724749019295,"year":"2017","lastUpdated":"2017-10-18T21:48:36.937691","changesets":7761,"mappers":511,"roads":1235.74299776547,"buildings":52246,"edits":69270,"latest":"2018-06-13T20:52:21.000Z"},"geometry":{"type":"Point","coordinates":[108.84596013228418,15.116729021802916]}},{"type":"Feature","properties":{"title":"CanThoExample","id":3896,"area":1309.2214800852612,"year":"2017","lastUpdated":"2017-11-28T08:18:44.057457","changesets":0,"mappers":0,"roads":0,"buildings":0,"edits":0,"latest":null},"geometry":{"type":"Point","coordinates":[105.57141788801466,10.046282108716097]}},{"type":"Feature","properties":{"title":"Can Tho University Remote Mapping Practice Area","id":2339,"area":69.61877116393372,"year":"2017","lastUpdated":"2017-12-11T23:44:21.796762","changesets":12,"mappers":1,"roads":2.04284144571777,"buildings":2,"edits":28,"latest":"2017-12-11T23:44:06.000Z"},"geometry":{"type":"Point","coordinates":[105.63869476318351,10.10973805624225]}},{"type":"Feature","properties":{"title":"Missing Maps: Hoi An, Vietnam 1","id":3869,"area":18.63771684487168,"year":"2018","lastUpdated":"2018-06-27T14:00:30.808636","changesets":2203,"mappers":69,"roads":30.7656183172966,"buildings":15434,"edits":17391,"latest":"2018-06-15T16:56:02.000Z"},"geometry":{"type":"Point","coordinates":[108.33962329540384,15.877352770637094]}}],"Philippines":[{"type":"Feature","properties":{"title":"Cagayan Valley, PH - Missing Roads","id":4219,"area":2.940942559638417,"year":"2018","lastUpdated":"2018-07-06T06:27:32.983505","changesets":16941512,"mappers":778190,"roads":11029202.6294279,"buildings":272493430,"edits":351602460,"latest":"2018-06-17T11:30:54.000Z"},"geometry":{"type":"Point","coordinates":[121.68249184541031,17.195568942139595]}},{"type":"Feature","properties":{"title":"CRS-UP NOAH Building Footprints Mapping - Cainta, Rizal","id":4185,"area":21.097166623656076,"year":"2018","lastUpdated":"2018-07-07T13:11:08.376941","changesets":299,"mappers":13,"roads":2.62318970578196,"buildings":723,"edits":976,"latest":"2018-06-13T05:42:12.000Z"},"geometry":{"type":"Point","coordinates":[121.11694341377957,14.595807431682541]}},{"type":"Feature","properties":{"title":"Cavite, PH - Missing Roads","id":4165,"area":8.147770355865646,"year":"2018","lastUpdated":"2018-07-06T06:26:38.435860","changesets":16941512,"mappers":778190,"roads":11029202.6294279,"buildings":272493430,"edits":351602460,"latest":"2018-06-17T11:30:54.000Z"},"geometry":{"type":"Point","coordinates":[120.95492038001697,14.294231916684815]}},{"type":"Feature","properties":{"title":"UP-NOAH Mapping Campuses (UP Diliman Extension Programs in Olongapo)","id":3435,"area":4.840046682537817,"year":"2017","lastUpdated":"2017-12-12T09:04:26.153739","changesets":0,"mappers":0,"roads":0,"buildings":0,"edits":0,"latest":null},"geometry":{"type":"Point","coordinates":[120.28256200974987,14.827260483926251]}},{"type":"Feature","properties":{"title":"Bohol Island, Philippines OpenRoad project, Part I -- MapGive","id":768,"area":457.54507236444925,"year":"2017","lastUpdated":"2017-12-23T20:17:30.223354","changesets":0,"mappers":0,"roads":0,"buildings":0,"edits":0,"latest":null},"geometry":{"type":"Point","coordinates":[124.34127807617182,9.80611072723312]}},{"type":"Feature","properties":{"title":"Bohol Island, Philippines OpenRoad project, Part III -- MapGive","id":1055,"area":167.18586226424708,"year":"2017","lastUpdated":"2017-09-25T18:13:41.155784","changesets":0,"mappers":0,"roads":0,"buildings":0,"edits":0,"latest":null},"geometry":{"type":"Point","coordinates":[124.06711940467797,9.665902699165224]}},{"type":"Feature","properties":{"title":"Soccsksargen, PH - Missing Roads","id":4227,"area":3.1029043042642748,"year":"2018","lastUpdated":"2018-07-06T06:29:12.343135","changesets":16941512,"mappers":778190,"roads":11029202.6294279,"buildings":272493430,"edits":351602460,"latest":"2018-06-17T11:30:54.000Z"},"geometry":{"type":"Point","coordinates":[124.99650831963473,6.287009318987416]}},{"type":"Feature","properties":{"title":"Western Visayas, PH - Missing Roads","id":4224,"area":7.047203961449363,"year":"2018","lastUpdated":"2018-07-06T06:28:20.714832","changesets":16941512,"mappers":778190,"roads":11029202.6294279,"buildings":272493430,"edits":351602460,"latest":"2018-06-17T11:30:54.000Z"},"geometry":{"type":"Point","coordinates":[122.6953061950292,10.934054961778411]}},{"type":"Feature","properties":{"title":"Mayon Volcano USAID & USGS","id":4202,"area":23.191221545963582,"year":"2018","lastUpdated":"2018-06-28T08:11:52.717080","changesets":440,"mappers":92,"roads":30.0360065595488,"buildings":7728,"edits":8051,"latest":"2018-06-14T08:09:46.000Z"},"geometry":{"type":"Point","coordinates":[123.708816541763,13.271475957593504]}},{"type":"Feature","properties":{"title":"Quezon, PH - Missing Roads","id":4013,"area":1.3650857673810763,"year":"2018","lastUpdated":"2018-07-06T06:19:16.080886","changesets":16941512,"mappers":778190,"roads":11029202.6294279,"buildings":272493430,"edits":351602460,"latest":"2018-06-17T11:30:54.000Z"},"geometry":{"type":"Point","coordinates":[121.73070282142338,14.026298771339512]}},{"type":"Feature","properties":{"title":"Barangay Talisay, Mayorga, Leyte - Missing Maps","id":3829,"area":2.270534722569991,"year":"2018","lastUpdated":"2018-01-25T15:59:08.065074","changesets":61,"mappers":13,"roads":3.70690145632449,"buildings":738,"edits":928,"latest":"2017-12-24T15:19:57.000Z"},"geometry":{"type":"Point","coordinates":[124.9775838851929,10.91758102492891]}},{"type":"Feature","properties":{"title":"DOST-Project NOAH (ISAIAH) Structures Map Up Zambales","id":1966,"area":4983.089272993,"year":"2017","lastUpdated":"2017-06-29T07:11:51.796592","changesets":0,"mappers":0,"roads":0,"buildings":0,"edits":0,"latest":null},"geometry":{"type":"Point","coordinates":[120.14176535981657,15.274302892442977]}},{"type":"Feature","properties":{"title":"DOST-Project NOAH (ISAIAH) Structures Map Up Cavite","id":1636,"area":1236.7930267854183,"year":"2017","lastUpdated":"2017-01-06T03:53:24.366033","changesets":0,"mappers":0,"roads":0,"buildings":0,"edits":0,"latest":null},"geometry":{"type":"Point","coordinates":[120.89029621315147,14.296354336510534]}},{"type":"Feature","properties":{"title":"Northern Cebu Risk Mapping Project - Daanbantayan and Medellin","id":1509,"area":165.4687088247908,"year":"2018","lastUpdated":"2018-05-27T16:30:44.519125","changesets":0,"mappers":0,"roads":0,"buildings":0,"edits":0,"latest":null},"geometry":{"type":"Point","coordinates":[124.00373259912789,11.183437208381003]}},{"type":"Feature","properties":{"title":"Davao City, Philippines","id":505,"area":62.25155048812598,"year":"2017","lastUpdated":"2017-10-05T13:51:10.431250","changesets":480,"mappers":31,"roads":9.3712143789472,"buildings":13535,"edits":14727,"latest":"2018-03-03T13:33:33.000Z"},"geometry":{"type":"Point","coordinates":[125.60980864846091,7.080802619888849]}},{"type":"Feature","properties":{"title":"Mapping in Taal volcano, Philippines","id":387,"area":71.85336636220062,"year":"2016","lastUpdated":"2016-07-04T02:41:53.554278","changesets":6,"mappers":4,"roads":0,"buildings":42,"edits":42,"latest":"2016-07-04T02:41:31.000Z"},"geometry":{"type":"Point","coordinates":[120.995006544419,14.0074435256194]}},{"type":"Feature","properties":{"title":"General Santos City, Philippines","id":504,"area":41.853759664341574,"year":"2017","lastUpdated":"2017-07-08T15:36:20.240838","changesets":481,"mappers":30,"roads":10.7887344161379,"buildings":6340,"edits":6581,"latest":"2017-10-09T10:12:54.000Z"},"geometry":{"type":"Point","coordinates":[125.16863199233184,6.1257869184930644]}},{"type":"Feature","properties":{"title":"Mapping in Cavite, Philippines - SA activities","id":378,"area":347.85007544928436,"year":"2018","lastUpdated":"2018-01-31T02:41:47.484533","changesets":1184,"mappers":74,"roads":37.6705904876275,"buildings":9795,"edits":11838,"latest":"2018-05-17T21:48:06.000Z"},"geometry":{"type":"Point","coordinates":[120.95298071824062,14.44782100733958]}},{"type":"Feature","properties":{"title":"Guagua, Pampanga DRR mapping ","id":331,"area":49.709960372922495,"year":"2018","lastUpdated":"2018-05-23T21:11:41.473091","changesets":868,"mappers":28,"roads":393.734449978973,"buildings":6737,"edits":13386,"latest":"2018-05-23T21:11:48.000Z"},"geometry":{"type":"Point","coordinates":[120.60140365476289,14.985235844913458]}},{"type":"Feature","properties":{"title":"Mapping in San Nicolas, Philippines - SA activities","id":377,"area":23.251952235661427,"year":"2017","lastUpdated":"2017-12-23T20:14:32.123469","changesets":147,"mappers":30,"roads":8.00673556380537,"buildings":742,"edits":883,"latest":"2017-10-23T15:09:57.000Z"},"geometry":{"type":"Point","coordinates":[120.93719344501008,13.934947033770133]}},{"type":"Feature","properties":{"title":"DOST-Project NOAH (ISAIAH) Structures Map Up Abra","id":1884,"area":3947.985752759589,"year":"2017","lastUpdated":"2017-03-11T04:23:01.141132","changesets":0,"mappers":0,"roads":0,"buildings":0,"edits":0,"latest":null},"geometry":{"type":"Point","coordinates":[120.76902355100542,17.533678149542986]}},{"type":"Feature","properties":{"title":"Philippines: Silvinos Lobos","id":1157,"area":6.207303897148626,"year":"2017","lastUpdated":"2017-07-21T03:12:42.356484","changesets":292,"mappers":16,"roads":26.35312779277,"buildings":544,"edits":804,"latest":"2015-12-16T07:22:58.000Z"},"geometry":{"type":"Point","coordinates":[124.8381827034895,12.32730317863355]}},{"type":"Feature","properties":{"title":"DOST-Project NOAH (ISAIAH) Structures Map Up Ilocos Norte","id":1996,"area":5561.793445652042,"year":"2017","lastUpdated":"2017-01-09T04:19:56.530728","changesets":0,"mappers":0,"roads":0,"buildings":0,"edits":0,"latest":null},"geometry":{"type":"Point","coordinates":[120.7548661820388,18.106512497087376]}},{"type":"Feature","properties":{"title":"DOST-Project NOAH (ISAIAH) Structures Map Up Marikina City","id":2206,"area":22.821861973817175,"year":"2017","lastUpdated":"2017-02-28T09:40:08.651582","changesets":0,"mappers":0,"roads":0,"buildings":0,"edits":0,"latest":null},"geometry":{"type":"Point","coordinates":[121.10758893181819,14.64671691233766]}},{"type":"Feature","properties":{"title":"CRS-UP NOAH Building Footprints Mapping - Malabon City (Free for All)","id":4306,"area":0.8869727357098613,"year":"2018","lastUpdated":"2018-03-16T08:07:15.295915","changesets":11,"mappers":2,"roads":0,"buildings":86,"edits":86,"latest":"2018-03-18T13:04:12.000Z"},"geometry":{"type":"Point","coordinates":[120.96156142151258,14.659111625361861]}},{"type":"Feature","properties":{"title":"CRS-UP NOAH Building Footprints Mapping - Taytay, Rizal","id":4614,"area":28.563349406234973,"year":"2018","lastUpdated":"2018-07-07T02:17:33.928397","changesets":4,"mappers":2,"roads":0.0110480704256366,"buildings":7,"edits":11,"latest":"2018-06-13T09:21:50.000Z"},"geometry":{"type":"Point","coordinates":[121.12940906356323,14.548432535816845]}},{"type":"Feature","properties":{"title":"DOST-Project NOAH (ISAIAH) Structures Map Up Misamis Oriental","id":2006,"area":3651.9980002426037,"year":"2017","lastUpdated":"2017-02-27T09:03:13.187468","changesets":0,"mappers":0,"roads":0,"buildings":0,"edits":0,"latest":null},"geometry":{"type":"Point","coordinates":[124.72481164382773,8.558389462115018]}},{"type":"Feature","properties":{"title":"DOST-Project NOAH (ISAIAH) Structures Map Up Batangas","id":1886,"area":6798.780760709117,"year":"2017","lastUpdated":"2017-02-28T03:13:35.622830","changesets":0,"mappers":0,"roads":0,"buildings":0,"edits":0,"latest":null},"geometry":{"type":"Point","coordinates":[121.12339725679243,13.989166806792454]}},{"type":"Feature","properties":{"title":"ADB Padre Burgos Base Mapping Workshop","id":2144,"area":209.76542400018755,"year":"2016","lastUpdated":"2016-10-15T16:40:48.147100","changesets":0,"mappers":0,"roads":0,"buildings":0,"edits":0,"latest":null},"geometry":{"type":"Point","coordinates":[121.84800397684072,13.962676352778573]}},{"type":"Feature","properties":{"title":"DOST-Project NOAH (ISAIAH) Structures Map Up Ilocos Sur","id":2008,"area":4406.481445663697,"year":"2017","lastUpdated":"2017-02-17T02:28:23.354580","changesets":0,"mappers":0,"roads":0,"buildings":0,"edits":0,"latest":null},"geometry":{"type":"Point","coordinates":[120.58246795429858,17.199380731674214]}},{"type":"Feature","properties":{"title":"DOST-Project NOAH (ISAIAH) Structures Map Up La Union","id":1885,"area":2912.909394539788,"year":"2018","lastUpdated":"2018-04-16T21:25:19.930509","changesets":0,"mappers":0,"roads":0,"buildings":0,"edits":0,"latest":null},"geometry":{"type":"Point","coordinates":[120.45269986810342,16.621796748275862]}},{"type":"Feature","properties":{"title":"UP-NOAH Mapping Campuses (UP Manila School of Health Sciences in Leyte) ","id":3472,"area":1.400988753814339,"year":"2018","lastUpdated":"2018-06-27T04:56:51.430180","changesets":0,"mappers":0,"roads":0,"buildings":0,"edits":0,"latest":null},"geometry":{"type":"Point","coordinates":[124.99088051332731,11.157825800825774]}},{"type":"Feature","properties":{"title":"Batangas, PH - Missing Roads","id":4014,"area":8.747103651711436,"year":"2018","lastUpdated":"2018-07-06T06:20:12.810010","changesets":16941512,"mappers":778190,"roads":11029202.6294279,"buildings":272493430,"edits":351602460,"latest":"2018-06-17T11:30:54.000Z"},"geometry":{"type":"Point","coordinates":[121.11775070085193,13.89842882206987]}},{"type":"Feature","properties":{"title":"UP-NOAH Mapping Campuses (UP Manila School of Health Sciences, South Cotabato)","id":3792,"area":4.3460409669323505,"year":"2017","lastUpdated":"2017-11-25T04:42:36.696361","changesets":0,"mappers":0,"roads":0,"buildings":0,"edits":0,"latest":null},"geometry":{"type":"Point","coordinates":[124.88243261589301,6.447533405730095]}},{"type":"Feature","properties":{"title":"UP-NOAH Mapping Campuses (UP Visayas Miag-ao) ","id":3470,"area":12.578176573343839,"year":"2017","lastUpdated":"2017-11-25T07:02:40.744442","changesets":0,"mappers":0,"roads":0,"buildings":0,"edits":0,"latest":null},"geometry":{"type":"Point","coordinates":[122.21696706918563,10.652970828749863]}},{"type":"Feature","properties":{"title":"Ilocos, PH - Missing Roads","id":4218,"area":3.351577108453254,"year":"2018","lastUpdated":"2018-07-06T06:27:21.343267","changesets":16941512,"mappers":778190,"roads":11029202.6294279,"buildings":272493430,"edits":351602460,"latest":"2018-06-17T11:30:54.000Z"},"geometry":{"type":"Point","coordinates":[120.46469931330267,17.425280842293475]}},{"type":"Feature","properties":{"title":"Eastern Visayas, PH - Missing Roads","id":4225,"area":0.9011879212974336,"year":"2018","lastUpdated":"2018-07-06T06:28:56.119206","changesets":16941512,"mappers":778190,"roads":11029202.6294279,"buildings":272493430,"edits":351602460,"latest":"2018-06-17T11:30:54.000Z"},"geometry":{"type":"Point","coordinates":[124.82231154030616,11.386736510106921]}},{"type":"Feature","properties":{"title":"UP-NOAH Mapping Campuses (UP Manila)","id":3438,"area":1.6100307695151406,"year":"2017","lastUpdated":"2017-11-25T06:16:14.442768","changesets":0,"mappers":0,"roads":0,"buildings":0,"edits":0,"latest":null},"geometry":{"type":"Point","coordinates":[120.98574694465175,14.581946535582672]}},{"type":"Feature","properties":{"title":"NOAH-UNICEF: Mapping Itogon, Benguet","id":2723,"area":438.98478316533635,"year":"2017","lastUpdated":"2017-04-10T08:54:49.667811","changesets":103,"mappers":2,"roads":63.3932891394836,"buildings":11494,"edits":11971,"latest":"2017-04-10T08:40:08.000Z"},"geometry":{"type":"Point","coordinates":[120.67333595353101,16.399841203673162]}},{"type":"Feature","properties":{"title":"UP-NOAH Mapping Campuses (UP Alabang)","id":3793,"area":2.6954788018399616,"year":"2017","lastUpdated":"2017-11-25T07:02:10.874687","changesets":0,"mappers":0,"roads":0,"buildings":0,"edits":0,"latest":null},"geometry":{"type":"Point","coordinates":[121.012331082343,14.376960362577975]}},{"type":"Feature","properties":{"title":"Pampanga, PH - Missing Roads","id":4018,"area":7.393817777829668,"year":"2018","lastUpdated":"2018-07-06T06:22:22.732956","changesets":16941512,"mappers":778190,"roads":11029202.6294279,"buildings":272493430,"edits":351602460,"latest":"2018-06-17T11:30:54.000Z"},"geometry":{"type":"Point","coordinates":[120.60901479206947,15.12644299857575]}},{"type":"Feature","properties":{"title":"Bicol, PH - Missing Roads","id":4222,"area":1.7672697508978923,"year":"2018","lastUpdated":"2018-07-06T06:22:30.742937","changesets":16941512,"mappers":778190,"roads":11029202.6294279,"buildings":272493430,"edits":351602460,"latest":"2018-06-17T11:30:54.000Z"},"geometry":{"type":"Point","coordinates":[123.39593163594877,13.44488249297075]}},{"type":"Feature","properties":{"title":"UP-NOAH Mapping Campuses (UP Bonifacio Global City)","id":3437,"area":0.5192619410537112,"year":"2017","lastUpdated":"2017-11-25T07:36:04.585128","changesets":0,"mappers":0,"roads":0,"buildings":0,"edits":0,"latest":null},"geometry":{"type":"Point","coordinates":[121.06018819307005,14.55389432235206]}},{"type":"Feature","properties":{"title":"NOAH-UNICEF: Mapping Mapanas, Northern Samar","id":2724,"area":132.45656122565023,"year":"2017","lastUpdated":"2017-04-11T05:01:07.136767","changesets":36,"mappers":2,"roads":0.547703860688767,"buildings":1607,"edits":1629,"latest":"2017-04-11T03:23:10.000Z"},"geometry":{"type":"Point","coordinates":[125.26437313867976,12.485027118499048]}},{"type":"Feature","properties":{"title":"UP-NOAH Mapping Campuses (UP Mindanao)","id":3791,"area":3.6910639697608496,"year":"2017","lastUpdated":"2017-11-29T16:06:57.989146","changesets":0,"mappers":0,"roads":0,"buildings":0,"edits":0,"latest":null},"geometry":{"type":"Point","coordinates":[125.48628379471575,7.085765528020958]}},{"type":"Feature","properties":{"title":"Missing Maps: Antique, Panay Island, Philippines","id":2464,"area":14.104153175400437,"year":"2018","lastUpdated":"2018-05-03T01:33:25.883023","changesets":1274,"mappers":41,"roads":27.014408546842,"buildings":3586,"edits":4237,"latest":"2018-05-28T02:51:00.000Z"},"geometry":{"type":"Point","coordinates":[121.97024703025825,10.831840611569888]}},{"type":"Feature","properties":{"title":"UP-NOAH Mapping Campuses (UP Baguio)","id":3795,"area":1.7552341733864982,"year":"2018","lastUpdated":"2018-06-19T18:12:49.458950","changesets":0,"mappers":0,"roads":0,"buildings":0,"edits":0,"latest":null},"geometry":{"type":"Point","coordinates":[120.59778999174375,16.405859913831677]}},{"type":"Feature","properties":{"title":"Missing Maps: San Jose, Panay Island, Philippines","id":2449,"area":92.17194200794256,"year":"2018","lastUpdated":"2018-03-08T02:22:03.657473","changesets":7079,"mappers":210,"roads":144.04700009821,"buildings":23700,"edits":26904,"latest":"2018-03-08T02:15:30.000Z"},"geometry":{"type":"Point","coordinates":[121.95624289313717,10.761148689531957]}},{"type":"Feature","properties":{"title":"Danao, Bohol Island, Philippines OpenRoad project, Part IIII -- MapGive","id":1056,"area":187.61116003075477,"year":"2017","lastUpdated":"2017-10-29T00:50:25.079341","changesets":0,"mappers":0,"roads":0,"buildings":0,"edits":0,"latest":null},"geometry":{"type":"Point","coordinates":[124.20165233660025,9.943714169953921]}},{"type":"Feature","properties":{"title":"Missing Maps: Barangay Santiago, Alang Alang, Leyte, Philippines","id":3771,"area":0.8479729148703923,"year":"2018","lastUpdated":"2018-07-02T20:59:29.790626","changesets":14,"mappers":4,"roads":5.85505912721407,"buildings":335,"edits":456,"latest":"2017-11-04T23:35:40.000Z"},"geometry":{"type":"Point","coordinates":[124.80951261520379,11.198883343411826]}}],"Turkey":[{"type":"Feature","properties":{"title":"Bagcilar District of Istanbul, Turkey","id":4206,"area":22.508587182359726,"year":"2018","lastUpdated":"2018-07-05T08:47:43.115931","changesets":2689,"mappers":236,"roads":14.0637239571961,"buildings":20880,"edits":22484,"latest":"2018-05-01T09:20:51.000Z"},"geometry":{"type":"Point","coordinates":[28.843514820000006,41.040043294117645]}},{"type":"Feature","properties":{"title":"Beyolu District of Istanbul, Turkey","id":4207,"area":8.976916187097956,"year":"2018","lastUpdated":"2018-03-23T14:44:44.253666","changesets":302,"mappers":34,"roads":1.67434867197883,"buildings":5117,"edits":5807,"latest":"2018-05-02T21:24:22.000Z"},"geometry":{"type":"Point","coordinates":[28.963020104785894,41.03966862443326]}},{"type":"Feature","properties":{"title":"Umraniye District of Istanbul, Turkey","id":4204,"area":45.19262439294055,"year":"2018","lastUpdated":"2018-04-03T16:12:23.391664","changesets":2014,"mappers":153,"roads":9.47377010799213,"buildings":25745,"edits":27492,"latest":"2018-04-15T20:13:00.000Z"},"geometry":{"type":"Point","coordinates":[29.11382552358276,41.03750872222221]}},{"type":"Feature","properties":{"title":"Sancaktepe District of Istanbul, Turkey","id":4205,"area":64.45740506563554,"year":"2018","lastUpdated":"2018-04-03T16:12:45.267358","changesets":1286,"mappers":143,"roads":46.7127395732424,"buildings":17146,"edits":18657,"latest":"2018-04-18T23:01:07.000Z"},"geometry":{"type":"Point","coordinates":[29.25523324685865,40.99946527670155]}},{"type":"Feature","properties":{"title":"Istanbul, TR - Missing Roads","id":4520,"area":117.69928123734232,"year":"2018","lastUpdated":"2018-07-02T19:41:10.550354","changesets":0,"mappers":0,"roads":0,"buildings":0,"edits":0,"latest":null},"geometry":{"type":"Point","coordinates":[28.956042650483134,41.117615423675694]}},{"type":"Feature","properties":{"title":"Sakarya, TR - Missing Roads","id":4676,"area":31.29814102497075,"year":"2018","lastUpdated":"2018-06-17T20:11:44.351506","changesets":0,"mappers":0,"roads":0,"buildings":0,"edits":0,"latest":null},"geometry":{"type":"Point","coordinates":[30.62291196055852,40.79660636427097]}},{"type":"Feature","properties":{"title":"Afyon, TR - Missing Roads","id":4659,"area":44.84300972755489,"year":"2018","lastUpdated":"2018-07-05T08:50:10.630284","changesets":0,"mappers":0,"roads":0,"buildings":0,"edits":0,"latest":null},"geometry":{"type":"Point","coordinates":[30.618333295671313,38.63542691040201]}},{"type":"Feature","properties":{"title":"Eskiehir, TR - Missing Roads","id":4669,"area":64.98133666550791,"year":"2018","lastUpdated":"2018-06-05T04:34:09.061861","changesets":0,"mappers":0,"roads":0,"buildings":0,"edits":0,"latest":null},"geometry":{"type":"Point","coordinates":[30.79114605305074,39.653712907908556]}},{"type":"Feature","properties":{"title":"Edirne, TR - Missing Roads","id":4668,"area":21.74202599403713,"year":"2018","lastUpdated":"2018-06-27T10:24:30.295992","changesets":0,"mappers":0,"roads":0,"buildings":0,"edits":0,"latest":null},"geometry":{"type":"Point","coordinates":[26.592802323145175,41.24028162867392]}},{"type":"Feature","properties":{"title":"Kocaeli, TR - Missing Roads","id":4672,"area":113.8116471611437,"year":"2018","lastUpdated":"2018-06-05T04:44:09.814309","changesets":0,"mappers":0,"roads":0,"buildings":0,"edits":0,"latest":null},"geometry":{"type":"Point","coordinates":[29.766853800723556,40.799700959537496]}}],"Brazil":[{"type":"Feature","properties":{"title":"Missing Maps: Leticia, Colombia","id":3390,"area":4.156413427207009,"year":"2018","lastUpdated":"2018-03-16T21:47:16.619000","changesets":0,"mappers":0,"roads":0,"buildings":0,"edits":0,"latest":null},"geometry":{"type":"Point","coordinates":[-69.93731391139147,-4.206797872531377]}},{"type":"Feature","properties":{"title":"Mapazonia - Brazil - Xingu Basin","id":827,"area":4028.3221603634315,"year":"2018","lastUpdated":"2018-05-22T11:07:46.317903","changesets":677,"mappers":91,"roads":3939.21433754818,"buildings":815,"edits":7669,"latest":"2018-03-22T14:48:55.000Z"},"geometry":{"type":"Point","coordinates":[-53.85758678466332,-14.564810933436812]}},{"type":"Feature","properties":{"title":"2015 Mariana Dam Collapse, Brazil","id":1317,"area":65.03774250871469,"year":"2017","lastUpdated":"2017-08-14T20:41:57.279585","changesets":241,"mappers":21,"roads":363.874070687637,"buildings":802,"edits":3088,"latest":"2018-04-27T10:22:35.000Z"},"geometry":{"type":"Point","coordinates":[-43.44238674418605,-20.224734581395346]}},{"type":"Feature","properties":{"title":"Mapping Xanxer","id":990,"area":15.930616682925308,"year":"2018","lastUpdated":"2018-03-28T20:01:37.822033","changesets":26,"mappers":10,"roads":2.48380146493025,"buildings":908,"edits":987,"latest":"2018-03-28T20:01:14.000Z"},"geometry":{"type":"Point","coordinates":[-52.40525960922241,-26.87397124420378]}}],"Myanmar":[{"type":"Feature","properties":{"title":"Missing Maps: Kyalkiat, Myanmar","id":3344,"area":719.0284110402209,"year":"2018","lastUpdated":"2018-07-06T19:59:34.187686","changesets":0,"mappers":0,"roads":0,"buildings":0,"edits":0,"latest":null},"geometry":{"type":"Point","coordinates":[95.58422576249544,16.495173469835887]}},{"type":"Feature","properties":{"title":"Missing Maps: Pyapon, Myanmar #4","id":3338,"area":271.4046468499522,"year":"2018","lastUpdated":"2018-03-22T05:50:37.835394","changesets":0,"mappers":0,"roads":0,"buildings":0,"edits":0,"latest":null},"geometry":{"type":"Point","coordinates":[95.69678220927732,16.237405099739362]}},{"type":"Feature","properties":{"title":"Missing Maps: Pyapon, Myanmar #1","id":3335,"area":704.0196862171777,"year":"2018","lastUpdated":"2018-07-06T15:57:50.231245","changesets":0,"mappers":0,"roads":0,"buildings":0,"edits":0,"latest":null},"geometry":{"type":"Point","coordinates":[95.35416484539562,15.788094481146144]}},{"type":"Feature","properties":{"title":"Missing Maps: Kangyidaunt, Myanmar","id":2894,"area":475.9514420988058,"year":"2018","lastUpdated":"2018-07-03T12:10:24.568033","changesets":0,"mappers":0,"roads":0,"buildings":0,"edits":0,"latest":null},"geometry":{"type":"Point","coordinates":[94.7856125179502,16.760181641325154]}},{"type":"Feature","properties":{"title":"Missing Maps: Einme, Myanmar (urban)","id":3800,"area":49.63739406582481,"year":"2018","lastUpdated":"2018-05-30T06:48:58.084536","changesets":1141,"mappers":141,"roads":79.1530580417847,"buildings":10884,"edits":11602,"latest":"2018-05-30T06:49:00.000Z"},"geometry":{"type":"Point","coordinates":[95.17556002525589,16.880881723448706]}},{"type":"Feature","properties":{"title":"Solidarit International, refugees crisis, Bandarban (Bengladesh)","id":4331,"area":145.63066042938559,"year":"2018","lastUpdated":"2018-07-05T20:55:28.170268","changesets":786,"mappers":101,"roads":505.010522482213,"buildings":11634,"edits":14256,"latest":"2018-06-14T10:12:50.000Z"},"geometry":{"type":"Point","coordinates":[92.2341151572248,21.37998345996593]}},{"type":"Feature","properties":{"title":"Missing Maps: Kangyidaunt, Myanmar 2","id":4159,"area":476.7682230265321,"year":"2018","lastUpdated":"2018-06-28T15:27:56.875637","changesets":2150,"mappers":187,"roads":212.794433456735,"buildings":20248,"edits":21353,"latest":"2018-06-14T18:46:00.000Z"},"geometry":{"type":"Point","coordinates":[94.94212214042263,16.85376643586638]}},{"type":"Feature","properties":{"title":"Missing Maps: Pathein, Myanmar 4","id":4158,"area":488.4174815874417,"year":"2018","lastUpdated":"2018-06-28T05:10:48.650647","changesets":1247,"mappers":106,"roads":212.107440266524,"buildings":11954,"edits":12888,"latest":"2018-06-08T22:16:03.000Z"},"geometry":{"type":"Point","coordinates":[94.49767830247966,16.957356319418096]}},{"type":"Feature","properties":{"title":"Missing Maps: Thabaung, Myanmar 4","id":4162,"area":588.283853174881,"year":"2018","lastUpdated":"2018-07-02T15:31:09.817964","changesets":813,"mappers":99,"roads":181.174123651405,"buildings":5671,"edits":6196,"latest":"2018-06-14T19:24:09.000Z"},"geometry":{"type":"Point","coordinates":[94.62374782942722,17.19714219739823]}},{"type":"Feature","properties":{"title":"Missing Maps: Ngapudaw, Myanmar 5","id":3809,"area":353.1244695270536,"year":"2018","lastUpdated":"2018-07-05T13:47:24.190451","changesets":1043,"mappers":102,"roads":108.48745395899,"buildings":11319,"edits":12051,"latest":"2018-06-15T19:54:10.000Z"},"geometry":{"type":"Point","coordinates":[94.50893752881959,16.40576127362447]}},{"type":"Feature","properties":{"title":"Missing Maps: Ngapudaw, Myanmar 3","id":3807,"area":439.83707595362574,"year":"2018","lastUpdated":"2018-07-05T14:43:35.420259","changesets":1683,"mappers":181,"roads":138.439066380885,"buildings":25445,"edits":27252,"latest":"2018-06-16T00:14:06.000Z"},"geometry":{"type":"Point","coordinates":[94.59767165733061,16.392480203982295]}},{"type":"Feature","properties":{"title":"Missing Maps: Labutta, Myanmar 5","id":3745,"area":937.7812067205886,"year":"2018","lastUpdated":"2018-07-03T08:09:04.299025","changesets":0,"mappers":0,"roads":0,"buildings":0,"edits":0,"latest":null},"geometry":{"type":"Point","coordinates":[94.93456852285155,15.900524187804264]}},{"type":"Feature","properties":{"title":"Missing Maps: Labutta, Myanmar 6","id":3746,"area":644.8385307654016,"year":"2018","lastUpdated":"2018-07-07T10:33:38.127202","changesets":0,"mappers":0,"roads":0,"buildings":0,"edits":0,"latest":null},"geometry":{"type":"Point","coordinates":[94.95503384677184,16.230090840628222]}},{"type":"Feature","properties":{"title":"Missing Maps: Ngapudaw, Myanmar","id":2895,"area":236.3694164765761,"year":"2018","lastUpdated":"2018-07-03T11:49:47.700607","changesets":0,"mappers":0,"roads":0,"buildings":0,"edits":0,"latest":null},"geometry":{"type":"Point","coordinates":[94.70663942662026,16.51722917938823]}},{"type":"Feature","properties":{"title":"Mapping in Mandalay, Myanmar - SA activities","id":386,"area":342.69813863808344,"year":"2018","lastUpdated":"2018-03-08T17:52:08.361810","changesets":43,"mappers":11,"roads":44.7436254667677,"buildings":228,"edits":379,"latest":"2018-03-08T17:42:52.000Z"},"geometry":{"type":"Point","coordinates":[96.04057501409119,21.96248481654954]}},{"type":"Feature","properties":{"title":"Missing Maps: Dedaye, Myanmar 1","id":2706,"area":809.9455898992657,"year":"2018","lastUpdated":"2018-05-18T10:39:50.568810","changesets":4192,"mappers":356,"roads":1176.27399986251,"buildings":43738,"edits":54201,"latest":"2018-05-18T10:39:26.000Z"},"geometry":{"type":"Point","coordinates":[95.8048121552763,16.27192844353421]}},{"type":"Feature","properties":{"title":"Missing Maps: Bogale, Myanmar #2","id":3340,"area":709.6142290636596,"year":"2018","lastUpdated":"2018-07-06T15:23:27.641183","changesets":0,"mappers":0,"roads":0,"buildings":0,"edits":0,"latest":null},"geometry":{"type":"Point","coordinates":[95.43931844121025,15.984105089679879]}},