{"totalEdits":39442383,"totalBuildings":32348911,"totalRoads":842520.743744568,"mappersOnline":29,"totalTasksMapped":1543980,"totalMappers":128509,"totalProjects":1578,"Malawi":[{"type":"Feature","properties":{"title":"Urban Ark Project: Karonga, Malawi mapping","id":1641,"area":262.8010231037238,"year":"2017","lastUpdated":"2017-12-22T11:07:05.513167","changesets":1211,"mappers":40,"roads":973.547027361357,"buildings":33855,"edits":44020,"latest":"2017-12-21T12:09:27.000Z"},"geometry":{"type":"Point","coordinates":[33.88200759887695,-9.9322735]}},{"type":"Feature","properties":{"title":"Peace Corps Malawi - Maganga ","id":1239,"area":8.960200923489982,"year":"2017","lastUpdated":"2017-02-17T23:31:09.736047","changesets":153,"mappers":6,"roads":198.658706120738,"buildings":2664,"edits":3860,"latest":"2017-02-17T23:25:44.000Z"},"geometry":{"type":"Point","coordinates":[34.54831123352048,-13.84508009537365]}},{"type":"Feature","properties":{"title":"Missing Maps - Malawi - Nsanje South","id":3628,"area":66.18672691836431,"year":"2018","lastUpdated":"2018-01-31T00:01:17.095453","changesets":242,"mappers":25,"roads":199.681188672184,"buildings":5544,"edits":7837,"latest":"2018-01-31T00:01:13.000Z"},"geometry":{"type":"Point","coordinates":[35.25486946105957,-16.9723286413173]}},{"type":"Feature","properties":{"title":"Missing Maps: Lilongwe (central west), Lilongwe District, Central Region, Malawi","id":2154,"area":24.33752882768842,"year":"2017","lastUpdated":"2017-10-24T01:04:48.074526","changesets":1261,"mappers":83,"roads":13.4031339772427,"buildings":7922,"edits":8208,"latest":"2017-10-24T01:04:35.000Z"},"geometry":{"type":"Point","coordinates":[33.7562482180348,-13.972521579713488]}},{"type":"Feature","properties":{"title":"Missing Maps - Malawi - Southeast","id":3629,"area":155.3693048178326,"year":"2018","lastUpdated":"2018-04-24T19:38:12.722089","changesets":603,"mappers":79,"roads":284.109908705379,"buildings":12316,"edits":19615,"latest":"2018-04-24T19:38:08.000Z"},"geometry":{"type":"Point","coordinates":[35.269203186035156,-17.063810965862945]}},{"type":"Feature","properties":{"title":"Missing Maps - Malawi - Thyolo - Blantyre (roads)","id":2471,"area":260.21162645851905,"year":"2017","lastUpdated":"2017-12-10T00:18:10.218421","changesets":1511,"mappers":193,"roads":3117.55276893705,"buildings":32887,"edits":78192,"latest":"2018-03-21T16:03:26.000Z"},"geometry":{"type":"Point","coordinates":[35.180671276779776,-15.966715971022984]}},{"type":"Feature","properties":{"title":"Peace Corps Malawi -- Chikwina","id":1847,"area":15.30237627828821,"year":"2017","lastUpdated":"2017-01-05T02:48:44.896301","changesets":262,"mappers":30,"roads":106.043879397822,"buildings":1138,"edits":2155,"latest":"2016-11-25T19:55:33.000Z"},"geometry":{"type":"Point","coordinates":[34.17408943176268,-11.395309126629073]}},{"type":"Feature","properties":{"title":"Malawi, Lower Shire Community Mapping, baseline data in flood prone areas","id":644,"area":6125.0729969100885,"year":"2017","lastUpdated":"2017-09-18T21:17:55.671597","changesets":0,"mappers":0,"roads":0,"buildings":0,"edits":0,"latest":null},"geometry":{"type":"Point","coordinates":[34.75555722358052,-16.26481306095839]}},{"type":"Feature","properties":{"title":"Missing Maps: Mwambo (east), Zomba District, Southern Region, Malawi (buildings)","id":3241,"area":337.6375730637035,"year":"2018","lastUpdated":"2018-03-16T21:18:25.901851","changesets":1791,"mappers":89,"roads":55.5260817304889,"buildings":10543,"edits":11437,"latest":"2017-10-04T17:30:21.000Z"},"geometry":{"type":"Point","coordinates":[35.550407887804674,-15.45507341736443]}},{"type":"Feature","properties":{"title":"Missing Maps - Malawi - TA Ndamena","id":2965,"area":189.65797622132658,"year":"2018","lastUpdated":"2018-03-05T15:51:01.041248","changesets":271,"mappers":46,"roads":168.635932273369,"buildings":7615,"edits":9988,"latest":"2018-01-27T18:07:32.000Z"},"geometry":{"type":"Point","coordinates":[35.14833757683088,-17.061735743568352]}},{"type":"Feature","properties":{"title":"Missing Maps - Malawi - Makhwira","id":2973,"area":46.7676404349674,"year":"2018","lastUpdated":"2018-07-06T20:53:33.113499","changesets":918,"mappers":169,"roads":576.760566665602,"buildings":17749,"edits":25882,"latest":"2018-02-08T06:55:27.000Z"},"geometry":{"type":"Point","coordinates":[35.00830929221931,-16.261211572153787]}},{"type":"Feature","properties":{"title":"Missing Maps: Limbe, Blantyre District, Southern Region, Malawi 9","id":2411,"area":42.420019399262095,"year":"2018","lastUpdated":"2018-03-16T21:49:21.123861","changesets":1443,"mappers":140,"roads":29.0304743131398,"buildings":26790,"edits":27657,"latest":"2018-03-21T06:15:32.000Z"},"geometry":{"type":"Point","coordinates":[35.06316485355639,-15.832862217318514]}},{"type":"Feature","properties":{"title":"Missing Maps: Mangochi, Mangochi District, Southern Region, Malawi","id":2466,"area":115.28957364477883,"year":"2018","lastUpdated":"2018-05-03T01:33:45.434229","changesets":2150,"mappers":217,"roads":208.252746205028,"buildings":17192,"edits":20786,"latest":"2017-06-02T20:11:17.000Z"},"geometry":{"type":"Point","coordinates":[35.25506122116547,-14.438048960564611]}},{"type":"Feature","properties":{"title":"Missing Maps: Kwethemule, Thyolo District, Southern Region, Malawi","id":3210,"area":204.96310439022818,"year":"2018","lastUpdated":"2018-03-16T21:25:59.513797","changesets":0,"mappers":0,"roads":0,"buildings":0,"edits":0,"latest":null},"geometry":{"type":"Point","coordinates":[35.09033229767738,-16.178898523752686]}}],"totalArea":5859096.24586808,"Mozambique":[{"type":"Feature","properties":{"title":"Derre District, Mozambique -- Africa Indoor Residual Spraying Campaign","id":1497,"area":4773.448219459599,"year":"2017","lastUpdated":"2017-09-14T06:28:28.325652","changesets":2076,"mappers":147,"roads":5763.00032053968,"buildings":54151,"edits":82127,"latest":"2016-07-11T13:55:10.000Z"},"geometry":{"type":"Point","coordinates":[36.14773487005291,-17.03036672968099]}},{"type":"Feature","properties":{"title":"Missing Maps : Tsangano District (East of Tete Province), Mozambique","id":1466,"area":3645.489673643055,"year":"2018","lastUpdated":"2018-03-22T20:27:41.814649","changesets":0,"mappers":0,"roads":0,"buildings":0,"edits":0,"latest":null},"geometry":{"type":"Point","coordinates":[34.50413161681597,-15.072760413124092]}},{"type":"Feature","properties":{"title":"Peace Corps Mozambique -- Mocuba","id":1128,"area":11.286867685232004,"year":"2017","lastUpdated":"2017-01-30T07:53:52.950506","changesets":931,"mappers":97,"roads":122.739009601984,"buildings":12364,"edits":15747,"latest":"2016-12-11T06:08:22.000Z"},"geometry":{"type":"Point","coordinates":[36.98053056543523,-16.845264255357417]}},{"type":"Feature","properties":{"title":"Vilankulo, Mozambique - Vilankulo Bed Net Surveillance Program","id":4746,"area":53.51720956101426,"year":"2018","lastUpdated":"2018-07-19T13:27:41.454423","changesets":3513,"mappers":183,"roads":4.22945086838588,"buildings":24994,"edits":25168,"latest":"2018-07-19T13:27:28.000Z"},"geometry":{"type":"Point","coordinates":[35.30021009270875,-21.982771993262052]}},{"type":"Feature","properties":{"title":"Missing Maps: Maputo - Ramani Huria 15","id":2454,"area":40.90204583523918,"year":"2018","lastUpdated":"2018-04-19T23:58:50.312043","changesets":1614,"mappers":14,"roads":34.1677593758107,"buildings":122454,"edits":127157,"latest":"2018-04-19T23:58:12.000Z"},"geometry":{"type":"Point","coordinates":[32.582861900012425,-25.944692967193202]}},{"type":"Feature","properties":{"title":"Peace Corps - Namaacha, Mozambique","id":1096,"area":10.111859218432892,"year":"2018","lastUpdated":"2018-03-09T20:59:33.846106","changesets":206,"mappers":28,"roads":115.654707207851,"buildings":3090,"edits":4451,"latest":"2018-03-09T21:43:49.000Z"},"geometry":{"type":"Point","coordinates":[32.02022838592529,-25.9829294032005]}},{"type":"Feature","properties":{"title":"Inhasorro, Mozambique - Vilankulo Bed Net Surveillance Program","id":4762,"area":17.757313858773237,"year":"2018","lastUpdated":"2018-07-17T16:27:02.685442","changesets":440,"mappers":53,"roads":30.9381695760225,"buildings":6138,"edits":6328,"latest":"2018-07-17T16:26:20.000Z"},"geometry":{"type":"Point","coordinates":[35.201667817598114,-21.552648817006038]}}],"Uganda":[{"type":"Feature","properties":{"title":"MapUganda - Phase 1: Mbale (Pallisa, Kaliro, Kibuku and Budaka)","id":1436,"area":2884.303189069722,"year":"2018","lastUpdated":"2018-06-12T12:17:49.895807","changesets":1016,"mappers":108,"roads":738.351789746933,"buildings":9969,"edits":14499,"latest":"2018-06-12T12:16:12.000Z"},"geometry":{"type":"Point","coordinates":[33.791325042282985,1.121642906759647]}},{"type":"Feature","properties":{"title":"Uganda Crowdsourcing Non-Camp Refugee Data, Rwamwanja Refugee Settlement, Kamwenge District","id":4798,"area":343.59803817321034,"year":"2018","lastUpdated":"2018-07-20T05:59:05.771390","changesets":1551,"mappers":149,"roads":168.954200629482,"buildings":21890,"edits":23516,"latest":"2018-07-20T05:30:31.000Z"},"geometry":{"type":"Point","coordinates":[30.67052946158785,0.3056601787846434]}},{"type":"Feature","properties":{"title":"Uganda Crowdsourcing Non-Camp Refugee Data (Urban Mapping) Kampala Nakawa Division Part 1","id":4371,"area":27.407181548683663,"year":"2018","lastUpdated":"2018-07-19T07:49:03.875884","changesets":2470,"mappers":388,"roads":68.5025709019844,"buildings":57349,"edits":58631,"latest":"2018-07-19T07:48:40.000Z"},"geometry":{"type":"Point","coordinates":[32.64702688918785,0.3114578744389416]}},{"type":"Feature","properties":{"title":"Camp mapping HCR - Kiryandongo - Ouganda","id":4857,"area":1.1402716815376035,"year":"2018","lastUpdated":"2018-07-13T09:09:36.664046","changesets":126,"mappers":22,"roads":29.2359959229702,"buildings":1130,"edits":1407,"latest":"2018-07-16T11:29:31.000Z"},"geometry":{"type":"Point","coordinates":[32.16817791697557,1.9412349152392125]}},{"type":"Feature","properties":{"title":"MapUganda - Phase 2: Tororo (Butaleja, Namutumba, Bugiri, Namiyango and Busia)","id":1437,"area":5529.26414171349,"year":"2018","lastUpdated":"2018-05-21T15:50:07.552229","changesets":462,"mappers":96,"roads":798.507032670048,"buildings":8011,"edits":12424,"latest":"2018-06-19T13:11:03.000Z"},"geometry":{"type":"Point","coordinates":[33.95315401570563,0.6248404540072142]}},{"type":"Feature","properties":{"title":"Salesforce, Uganda Crowd-Sourcing Non-Camp Refugee Data (Urban Mapping) Rubaga Division Part 3 Kampala District","id":4330,"area":13.01779996853652,"year":"2018","lastUpdated":"2018-04-11T11:58:50.107806","changesets":1272,"mappers":120,"roads":16.3060620637681,"buildings":13776,"edits":14085,"latest":"2018-05-18T12:59:22.000Z"},"geometry":{"type":"Point","coordinates":[32.52909745736579,0.2890472003472374]}},{"type":"Feature","properties":{"title":"Salesforce, Uganda Crowd-Sourcing Non-Camp Refugee Data (Urban Mapping) Rubaga Division Part 1, Kampala District","id":4327,"area":8.40126840870032,"year":"2018","lastUpdated":"2018-07-05T08:54:53.734362","changesets":3092,"mappers":186,"roads":3.07718105487872,"buildings":18589,"edits":18686,"latest":"2018-07-05T08:54:41.000Z"},"geometry":{"type":"Point","coordinates":[32.54524653779347,0.3421427883853258]}},{"type":"Feature","properties":{"title":"Uganda Crowd-sourcing Non-Camp Refugee Data, Offaka, Anyiribu Subcounty, Arua District Base Mapping","id":4314,"area":292.26457151971164,"year":"2018","lastUpdated":"2018-04-03T16:10:44.554351","changesets":1614,"mappers":182,"roads":169.132518589228,"buildings":11036,"edits":12198,"latest":"2018-03-29T15:15:29.000Z"},"geometry":{"type":"Point","coordinates":[31.089419945984925,2.6427265966896725]}},{"type":"Feature","properties":{"title":"Uganda Crowd-sourcing Non-Camp Refugee Data, Rwebisengo, Kahondo, Makondo Villages, Ntoroko District Base Mapping","id":4295,"area":162.10041758428503,"year":"2018","lastUpdated":"2018-05-25T05:31:04.061957","changesets":1286,"mappers":54,"roads":10.4920207350625,"buildings":3532,"edits":3557,"latest":"2018-04-04T00:30:34.000Z"},"geometry":{"type":"Point","coordinates":[30.27564502638289,1.0482015863826952]}},{"type":"Feature","properties":{"title":"Uganda Crowd-sourcing Non-Camp Refugee Data - Roads (GPX Tracks) Mapping Arua District","id":4701,"area":4395.597295670786,"year":"2018","lastUpdated":"2018-07-19T18:41:56.795882","changesets":322,"mappers":40,"roads":2746.05680925435,"buildings":3466,"edits":11209,"latest":"2018-07-19T21:08:23.000Z"},"geometry":{"type":"Point","coordinates":[31.074578862085442,2.9228176868678046]}},{"type":"Feature","properties":{"title":"Uganda Crowd-Sourcing Non-Camp Refugee Data,Bunagana, Bwanjebe,Nkanda Villages, Kisoro District","id":4296,"area":75.2889012665682,"year":"2018","lastUpdated":"2018-04-03T16:11:20.829940","changesets":841,"mappers":83,"roads":60.2114211103457,"buildings":12618,"edits":12986,"latest":"2018-03-22T04:32:52.000Z"},"geometry":{"type":"Point","coordinates":[29.623110965844802,-1.3338247671419492]}},{"type":"Feature","properties":{"title":"Uganda Crowdsourcing Non-Camp Refugee Data, Paludar, Padwar Villages, Lamwo District","id":4267,"area":64.49965935741052,"year":"2018","lastUpdated":"2018-03-18T22:47:09.770063","changesets":387,"mappers":46,"roads":200.562108394955,"buildings":15053,"edits":15640,"latest":"2018-04-10T03:36:42.000Z"},"geometry":{"type":"Point","coordinates":[32.47096378217274,3.3937796017558117]}},{"type":"Feature","properties":{"title":"Uganda Crowd-sourcing Non-Camp Refugee Data Nyakabande, Kagoma,Mutolere Villages, Kisoro District Base Mapping","id":4288,"area":49.58167859253421,"year":"2018","lastUpdated":"2018-03-27T18:21:23.444372","changesets":539,"mappers":42,"roads":7.95023042536063,"buildings":6741,"edits":6803,"latest":"2018-03-27T19:25:55.000Z"},"geometry":{"type":"Point","coordinates":[29.747966832204348,-1.3098261507978273]}},{"type":"Feature","properties":{"title":"Salesforce, Uganda Crowd-Sourcing Non-Camp Refugee Data (Urban Mapping), Rubaga Division Part 2, Kampala District","id":4328,"area":10.441771719335271,"year":"2018","lastUpdated":"2018-04-03T16:09:44.121669","changesets":2540,"mappers":106,"roads":12.5259851096213,"buildings":12470,"edits":12759,"latest":"2018-03-30T13:26:57.000Z"},"geometry":{"type":"Point","coordinates":[32.532463481935196,0.31771719846770996]}},{"type":"Feature","properties":{"title":"Uganda Crowdsourcing Non-Camp Refugee Data, Oruchinga, Isingiro District","id":4829,"area":362.6687747467698,"year":"2018","lastUpdated":"2018-07-12T14:15:58.656823","changesets":173,"mappers":25,"roads":0.0777759222024043,"buildings":2500,"edits":2515,"latest":"2018-07-15T00:27:31.000Z"},"geometry":{"type":"Point","coordinates":[30.65006556725022,-0.936229954514776]}},{"type":"Feature","properties":{"title":"Maji Refugee Settlements, Adjumani Area","id":3187,"area":13.620559082078705,"year":"2017","lastUpdated":"2017-09-11T11:18:07.032226","changesets":492,"mappers":43,"roads":135.22450885648,"buildings":8791,"edits":12095,"latest":"2017-09-25T08:43:59.000Z"},"geometry":{"type":"Point","coordinates":[31.656158617762284,3.204269803158863]}},{"type":"Feature","properties":{"title":"Bwaise Tracing","id":99,"area":0.8424582471365009,"year":"2016","lastUpdated":"2016-03-02T12:08:00.918169","changesets":3,"mappers":1,"roads":0.0924258716863386,"buildings":0,"edits":3,"latest":"2014-12-16T08:53:26.000Z"},"geometry":{"type":"Point","coordinates":[32.55938243412958,0.3497321340591482]}},{"type":"Feature","properties":{"title":"Uganda Crowd-sourcing Non-Camp Refugee Data- Arua Town Urban Mapping","id":370,"area":44.12170916687399,"year":"2018","lastUpdated":"2018-05-24T21:16:55.977333","changesets":1030,"mappers":180,"roads":112.942480705611,"buildings":16117,"edits":17224,"latest":"2018-05-23T21:33:27.000Z"},"geometry":{"type":"Point","coordinates":[30.89424132870814,3.0302632370707423]}},{"type":"Feature","properties":{"title":"Uganda Crowd-sourcing Non-Camp Refugee Data,Vurra Subcounty, Arua","id":4686,"area":125.97781211607399,"year":"2018","lastUpdated":"2018-07-17T10:41:00.842184","changesets":1056,"mappers":194,"roads":41.1723258780625,"buildings":8648,"edits":8965,"latest":"2018-07-19T09:47:05.000Z"},"geometry":{"type":"Point","coordinates":[30.908277625357083,2.891373568463031]}}],"Indonesia":[{"type":"Feature","properties":{"title":"Indonesian Fires 2015 | South Kalimantan - Bahaur","id":1339,"area":5440.689877501984,"year":"2017","lastUpdated":"2017-12-18T16:27:17.374621","changesets":476,"mappers":59,"roads":244.667077033554,"buildings":1578,"edits":2529,"latest":"2018-03-01T22:41:21.000Z"},"geometry":{"type":"Point","coordinates":[113.93609617099693,-3.045595136632177]}},{"type":"Feature","properties":{"title":"Sentinel Asia Mini-Project: Tarogong, Garut, Indonesia","id":1378,"area":0.6008014497431968,"year":"2017","lastUpdated":"2017-11-29T19:42:32.121650","changesets":41,"mappers":9,"roads":26.8721401721233,"buildings":615,"edits":812,"latest":"2018-01-20T04:30:59.000Z"},"geometry":{"type":"Point","coordinates":[107.87681363157894,-7.194415578947369]}},{"type":"Feature","properties":{"title":"Scan for buildings not digitized - Aceh","id":301,"area":3375.758806919696,"year":"2016","lastUpdated":"2016-11-06T07:40:05.589909","changesets":36,"mappers":11,"roads":0,"buildings":61,"edits":62,"latest":"2016-11-10T08:59:19.000Z"},"geometry":{"type":"Point","coordinates":[96.70882087453181,4.722070342013595]}},{"type":"Feature","properties":{"title":"Aceh Project Area 1","id":295,"area":9.138886115765386,"year":"2014","lastUpdated":"2014-02-10T00:13:55.590445","changesets":0,"mappers":0,"roads":0,"buildings":0,"edits":0,"latest":null},"geometry":{"type":"Point","coordinates":[96.75236462199615,4.720937317109335]}},{"type":"Feature","properties":{"title":"Latihan Digitasi Jeneponto","id":270,"area":777.2106709731412,"year":"2016","lastUpdated":"2016-10-04T01:45:32.354652","changesets":1,"mappers":1,"roads":0,"buildings":0,"edits":0,"latest":"2016-10-04T01:44:34.000Z"},"geometry":{"type":"Point","coordinates":[119.66534204179281,-5.597032725136906]}},{"type":"Feature","properties":{"title":"Latihan Digitasi Kabupaten Bantaeng","id":257,"area":344.63955532746286,"year":"2017","lastUpdated":"2017-07-28T15:48:12.414454","changesets":173,"mappers":22,"roads":79.5374852011001,"buildings":330,"edits":1285,"latest":"2017-07-28T15:45:56.000Z"},"geometry":{"type":"Point","coordinates":[119.89062603564251,-5.556373098324156]}},{"type":"Feature","properties":{"title":"Missing Maps: Ngaliyan Sub Districts #PDC Semarang","id":4051,"area":44.8476968659584,"year":"2018","lastUpdated":"2018-07-11T11:59:02.645986","changesets":230,"mappers":10,"roads":43.5755128872692,"buildings":25145,"edits":25820,"latest":"2018-07-20T04:26:11.000Z"},"geometry":{"type":"Point","coordinates":[110.3218925230059,-6.999948654879286]}},{"type":"Feature","properties":{"title":"Missing Maps: Gajah Mungkur Sub Districts #PDC Semarang","id":4046,"area":9.7825467368316,"year":"2018","lastUpdated":"2018-06-26T09:46:48.038319","changesets":119,"mappers":3,"roads":24.996948716469,"buildings":6160,"edits":7312,"latest":"2018-06-26T09:46:00.000Z"},"geometry":{"type":"Point","coordinates":[110.40541227519552,-7.010449927251178]}},{"type":"Feature","properties":{"title":"Data Preparedness Activity in Kabupaten Sampang, East Java, Indonesia","id":864,"area":1233.9947430769478,"year":"2017","lastUpdated":"2017-08-07T01:01:31.179379","changesets":51,"mappers":18,"roads":21.219693482163,"buildings":1416,"edits":1570,"latest":"2018-07-02T15:44:18.000Z"},"geometry":{"type":"Point","coordinates":[113.23486225654037,-7.074234002607051]}},{"type":"Feature","properties":{"title":"Exposure Mapping Raung Volcano, East Java","id":1150,"area":2699.759445094531,"year":"2018","lastUpdated":"2018-02-15T21:02:54.849031","changesets":1896,"mappers":201,"roads":584.272666864601,"buildings":36863,"edits":42034,"latest":"2018-03-02T02:30:31.000Z"},"geometry":{"type":"Point","coordinates":[114.0118408203125,-8.140367946296045]}},{"type":"Feature","properties":{"title":"Slamet Volcano (Level 3 Alert) - Data Preparedness for Slamet Volcano","id":657,"area":207.68726125337642,"year":"2017","lastUpdated":"2017-09-27T08:46:50.350017","changesets":67,"mappers":9,"roads":21.3452473119089,"buildings":140,"edits":223,"latest":"2017-09-16T03:24:56.000Z"},"geometry":{"type":"Point","coordinates":[109.27358150023801,-7.2688629599229255]}},{"type":"Feature","properties":{"title":"Training BPBD Lembata","id":557,"area":24.269262834900626,"year":"2014","lastUpdated":"2014-06-08T13:04:36.368893","changesets":2,"mappers":1,"roads":3.8918661867317,"buildings":0,"edits":44,"latest":"2017-12-02T22:22:44.000Z"},"geometry":{"type":"Point","coordinates":[123.433456403716,-8.370876244965109]}},{"type":"Feature","properties":{"title":"Help digitize buildings & roads for better emergency response in Mt. Slamet ","id":454,"area":6.940715703178464,"year":"2017","lastUpdated":"2017-04-20T08:27:25.433288","changesets":0,"mappers":0,"roads":0,"buildings":0,"edits":0,"latest":null},"geometry":{"type":"Point","coordinates":[109.2160835114136,-7.243312629003557]}},{"type":"Feature","properties":{"title":"SA Mini-Project","id":646,"area":7.43912469192682,"year":"2016","lastUpdated":"2016-10-06T05:48:08.036263","changesets":181,"mappers":14,"roads":140.074893209577,"buildings":7059,"edits":7513,"latest":"2018-04-29T08:34:04.000Z"},"geometry":{"type":"Point","coordinates":[124.85313279288144,1.4895341125474886]}},{"type":"Feature","properties":{"title":"Mount Sinabung USAID/OFDA & VDAP (New 2016 Imagery)","id":750,"area":170.26266065591648,"year":"2018","lastUpdated":"2018-07-03T07:55:03.314458","changesets":1446,"mappers":183,"roads":511.96897979068,"buildings":14336,"edits":21195,"latest":"2018-07-03T07:54:40.000Z"},"geometry":{"type":"Point","coordinates":[98.4939422607422,3.151757325034956]}},{"type":"Feature","properties":{"title":"Bukittinggi","id":561,"area":22.79253327213511,"year":"2018","lastUpdated":"2018-05-24T04:21:21.478995","changesets":144,"mappers":15,"roads":2.5745083230407,"buildings":2871,"edits":2902,"latest":"2018-05-24T05:43:54.000Z"},"geometry":{"type":"Point","coordinates":[100.36787174500279,-0.2991184507048943]}},{"type":"Feature","properties":{"title":"Pesisir Selatan - Landuse and infrastructure digitation ","id":707,"area":1043.4121305079773,"year":"2017","lastUpdated":"2017-09-14T06:46:26.295160","changesets":39,"mappers":10,"roads":17.7384625381326,"buildings":129,"edits":201,"latest":"2017-12-21T06:19:14.000Z"},"geometry":{"type":"Point","coordinates":[100.2155194963728,-0.5975655163029528]}},{"type":"Feature","properties":{"title":"Aktivitas Pengumpulan Data di Kabupaten Timor Tengah Utara (TTU)","id":1031,"area":2631.88847539912,"year":"2015","lastUpdated":"2015-06-15T06:35:31.269787","changesets":9,"mappers":2,"roads":1.51273446172416,"buildings":70,"edits":150,"latest":"2015-05-11T10:23:20.000Z"},"geometry":{"type":"Point","coordinates":[124.5221661307698,-9.397753251018983]}},{"type":"Feature","properties":{"title":"Mapping Bengkulu","id":305,"area":10.304714027034251,"year":"2016","lastUpdated":"2016-06-15T11:24:58.157319","changesets":0,"mappers":0,"roads":0,"buildings":0,"edits":0,"latest":null},"geometry":{"type":"Point","coordinates":[102.26665590767763,-3.792052116710844]}},{"type":"Feature","properties":{"title":"Aceh Project Area 3","id":298,"area":6.038222593149481,"year":"2014","lastUpdated":"2014-02-10T00:13:56.577213","changesets":220,"mappers":15,"roads":180.530277037065,"buildings":1451,"edits":3788,"latest":"2017-04-03T22:58:32.000Z"},"geometry":{"type":"Point","coordinates":[96.7408725058942,4.679586947311554]}},{"type":"Feature","properties":{"title":"Data Preparedness Activity in Kabupaten Malang, East Java, Indonesia","id":877,"area":3608.974911525084,"year":"2017","lastUpdated":"2017-09-13T09:40:09.513007","changesets":323,"mappers":29,"roads":96.0386433508552,"buildings":4919,"edits":6130,"latest":"2017-03-08T12:35:23.000Z"},"geometry":{"type":"Point","coordinates":[112.62696664877575,-8.1452933519069]}},{"type":"Feature","properties":{"title":"Yogyakarta Mapathon","id":466,"area":142.75935044863726,"year":"2017","lastUpdated":"2017-08-20T15:41:38.998049","changesets":185,"mappers":53,"roads":20.2551717504881,"buildings":626,"edits":1440,"latest":"2017-12-28T16:13:51.000Z"},"geometry":{"type":"Point","coordinates":[110.37517546071051,-7.794673968152397]}},{"type":"Feature","properties":{"title":"Aceh Project Area 4","id":299,"area":26.996912641232914,"year":"2016","lastUpdated":"2016-11-06T08:14:30.610114","changesets":0,"mappers":0,"roads":0,"buildings":0,"edits":0,"latest":null},"geometry":{"type":"Point","coordinates":[96.83228586757305,4.624431665685236]}},{"type":"Feature","properties":{"title":"Earthquake Response Kecamatan Ketol in Aceh","id":272,"area":495.55191652131555,"year":"2016","lastUpdated":"2016-11-06T07:45:51.730434","changesets":33,"mappers":1,"roads":15.4670984211259,"buildings":626,"edits":728,"latest":"2013-07-24T02:23:01.000Z"},"geometry":{"type":"Point","coordinates":[96.65088530348979,4.755831249820112]}},{"type":"Feature","properties":{"title":"INSIST II ( Integrated Services for Infrastructure and Sanitation Technology ) II - Kelurahan Penjaringan","id":781,"area":23.838971811308195,"year":"2016","lastUpdated":"2016-05-13T06:39:44.793613","changesets":7,"mappers":5,"roads":1.94467321112018,"buildings":69,"edits":116,"latest":"2018-03-20T04:52:40.000Z"},"geometry":{"type":"Point","coordinates":[106.7956066131595,-6.117938977838495]}},{"type":"Feature","properties":{"title":"Aktivitas Pengumpulan Data di DAS Jeneberang","id":1011,"area":2353.106322075065,"year":"2015","lastUpdated":"2015-08-12T05:03:07.408034","changesets":83,"mappers":3,"roads":18.9318585168149,"buildings":1318,"edits":2128,"latest":"2015-08-12T05:02:39.000Z"},"geometry":{"type":"Point","coordinates":[119.64719559385553,-5.252323773489938]}},{"type":"Feature","properties":{"title":"Mapping Selayar Island Indonesia for Preparedness","id":135,"area":718.4990620335725,"year":"2018","lastUpdated":"2018-07-02T15:38:21.491175","changesets":491,"mappers":15,"roads":636.051965853487,"buildings":11415,"edits":16506,"latest":"2018-07-02T15:37:14.000Z"},"geometry":{"type":"Point","coordinates":[120.4981207914487,-6.187275687490874]}},{"type":"Feature","properties":{"title":"The entire extent of July 2 earthquake zone (Above MMI5)","id":300,"area":2961.7402540220824,"year":"2017","lastUpdated":"2017-02-10T15:04:24.106276","changesets":0,"mappers":0,"roads":0,"buildings":0,"edits":0,"latest":null},"geometry":{"type":"Point","coordinates":[96.68815611447091,4.717837241689422]}},{"type":"Feature","properties":{"title":"Indonesian Red Cross Flood Risk Mapping (Kedoya Utara & Kedoya Selatan)","id":576,"area":9.572161893358784,"year":"2017","lastUpdated":"2017-02-24T07:44:22.407544","changesets":59,"mappers":2,"roads":22.6293584517575,"buildings":1959,"edits":2049,"latest":"2017-02-24T07:43:42.000Z"},"geometry":{"type":"Point","coordinates":[106.75943509387957,-6.167587868325415]}},{"type":"Feature","properties":{"title":"Let's fix Makassar!","id":160,"area":78.44017500255143,"year":"2014","lastUpdated":"2014-09-16T03:22:21.096065","changesets":264,"mappers":4,"roads":1.41987988599116,"buildings":188,"edits":443,"latest":"2016-03-25T08:46:55.000Z"},"geometry":{"type":"Point","coordinates":[119.42298887497651,-5.155344160142781]}},{"type":"Feature","properties":{"title":"Data Preparedness Activity in Kabupaten Trenggalek, East Java, Indonesia","id":876,"area":1255.0878808500752,"year":"2015","lastUpdated":"2015-05-10T14:29:04.169571","changesets":7,"mappers":2,"roads":2.21069754399156,"buildings":33,"edits":43,"latest":"2017-10-19T08:57:19.000Z"},"geometry":{"type":"Point","coordinates":[111.62574405583699,-8.164920591189842]}}],"Tanzania":[{"type":"Feature","properties":{"title":"S. Monduli, Simanjiro, Tanzania Mini Grids - MapSwipe Project 04 - 03","id":4478,"area":166.70877071205354,"year":"2018","lastUpdated":"2018-05-07T07:19:53.188978","changesets":123,"mappers":47,"roads":0,"buildings":1480,"edits":1480,"latest":"2018-05-04T09:16:49.000Z"},"geometry":{"type":"Point","coordinates":[37.56197930444573,-5.003146663344777]}},{"type":"Feature","properties":{"title":"Ivugula Village, Tanzania Mini Grids Project 01","id":4435,"area":12.603608518468686,"year":"2018","lastUpdated":"2018-04-19T11:25:13.979143","changesets":270,"mappers":44,"roads":23.4950636574225,"buildings":1686,"edits":2161,"latest":"2018-06-13T18:16:09.000Z"},"geometry":{"type":"Point","coordinates":[33.072913842202496,-8.994998857575]}},{"type":"Feature","properties":{"title":"Mpwapwa, Dodoma, Tanzania Mini Grids Project 06","id":4419,"area":1290.5067497887903,"year":"2018","lastUpdated":"2018-06-30T10:06:16.399635","changesets":2176,"mappers":91,"roads":10.7518575631284,"buildings":54733,"edits":54794,"latest":"2018-06-30T12:14:33.000Z"},"geometry":{"type":"Point","coordinates":[36.618562445229166,-6.32822085806907]}},{"type":"Feature","properties":{"title":"Rungwe, Mbeya, Tanzania Mini Grids Project 02","id":4393,"area":1149.0351365244592,"year":"2018","lastUpdated":"2018-04-30T01:32:30.188814","changesets":2056,"mappers":60,"roads":12.5724590121885,"buildings":72408,"edits":72612,"latest":"2018-04-27T14:03:47.000Z"},"geometry":{"type":"Point","coordinates":[33.85995773044913,-9.28097728849757]}},{"type":"Feature","properties":{"title":"Missing Maps: Mbeya - Data Zetu","id":3697,"area":39.48024643275634,"year":"2018","lastUpdated":"2018-03-05T06:16:20.685049","changesets":2340,"mappers":21,"roads":8.22290546014696,"buildings":79467,"edits":79938,"latest":"2018-03-05T10:02:12.000Z"},"geometry":{"type":"Point","coordinates":[33.45143106176986,-8.924156507539553]}},{"type":"Feature","properties":{"title":"Zanzibar Roads - Unguja Island - 03","id":3670,"area":891.0473088683418,"year":"2017","lastUpdated":"2017-10-05T10:03:33.314686","changesets":411,"mappers":17,"roads":2063.39671273259,"buildings":162,"edits":11431,"latest":"2018-06-18T12:26:16.000Z"},"geometry":{"type":"Point","coordinates":[39.43088050601065,-6.258244508731397]}},{"type":"Feature","properties":{"title":"Missing Maps: Dar es Salaam - Ramani Huria 2.0 - 38","id":3496,"area":41.1920610625183,"year":"2018","lastUpdated":"2018-03-05T15:25:20.531310","changesets":5472,"mappers":73,"roads":78.4353169552312,"buildings":94858,"edits":120253,"latest":"2017-11-10T12:46:09.000Z"},"geometry":{"type":"Point","coordinates":[39.246766265484496,-6.7942247570358445]}},{"type":"Feature","properties":{"title":"Missing Maps: Dar es Salaam - Ramani Huria 2.0 - 35","id":3479,"area":278.2939060927899,"year":"2018","lastUpdated":"2018-03-05T15:29:18.639586","changesets":2410,"mappers":124,"roads":330.96957804182,"buildings":13540,"edits":24252,"latest":"2017-09-14T20:28:36.000Z"},"geometry":{"type":"Point","coordinates":[39.12088847308327,-7.024730678705793]}},{"type":"Feature","properties":{"title":"Missing Maps: Dar es Salaam - Ramani Huria 2.0 - 31","id":3452,"area":122.32342510735991,"year":"2018","lastUpdated":"2018-03-05T15:31:01.812805","changesets":2509,"mappers":42,"roads":423.609994409643,"buildings":6830,"edits":24947,"latest":"2017-11-07T07:20:37.000Z"},"geometry":{"type":"Point","coordinates":[39.138780106334046,-6.615628277176966]}},{"type":"Feature","properties":{"title":"Missing Maps: Iringa - OpenStreetMap Tanzania","id":3431,"area":13.946474979484007,"year":"2018","lastUpdated":"2018-07-19T19:34:57.172282","changesets":636,"mappers":56,"roads":16.1208529789333,"buildings":4109,"edits":4949,"latest":"2018-07-18T13:02:15.000Z"},"geometry":{"type":"Point","coordinates":[35.70870872020667,-7.758966359486665]}},{"type":"Feature","properties":{"title":"Missing Maps: Dar es Salaam - Ramani Huria 2.0 - 26","id":3412,"area":264.77964572508387,"year":"2018","lastUpdated":"2018-03-05T15:34:27.981696","changesets":362,"mappers":52,"roads":2.21303831070795,"buildings":4558,"edits":4620,"latest":"2017-08-16T10:11:16.000Z"},"geometry":{"type":"Point","coordinates":[39.452851686025426,-7.123357238474153]}},{"type":"Feature","properties":{"title":"MSD & JSI/USAID Tanzania Road Import - Pwani region","id":2110,"area":21135.143831005626,"year":"2016","lastUpdated":"2016-11-09T09:08:14.321577","changesets":0,"mappers":0,"roads":0,"buildings":0,"edits":0,"latest":null},"geometry":{"type":"Point","coordinates":[38.66302671069425,-7.24398878152632]}},{"type":"Feature","properties":{"title":"MSD & JSI/USAID Tanzania Road Import - Manyara region","id":1973,"area":40580.74888215921,"year":"2016","lastUpdated":"2016-07-03T20:50:06.210422","changesets":0,"mappers":0,"roads":0,"buildings":0,"edits":0,"latest":null},"geometry":{"type":"Point","coordinates":[36.2647809052761,-4.352401182141463]}},{"type":"Feature","properties":{"title":"Njombe Region, Tanzania Mini Grids Project 02","id":4723,"area":1983.7355070009462,"year":"2018","lastUpdated":"2018-06-13T09:33:57.429622","changesets":1103,"mappers":56,"roads":0.208227637578225,"buildings":50720,"edits":50749,"latest":"2018-06-13T07:14:52.000Z"},"geometry":{"type":"Point","coordinates":[35.0200613677803,-9.007969824925567]}},{"type":"Feature","properties":{"title":"Buigiri, Tanzania Mini Grids Project","id":4716,"area":70.76658506869626,"year":"2018","lastUpdated":"2018-06-11T10:35:13.436272","changesets":35,"mappers":19,"roads":0,"buildings":1370,"edits":1370,"latest":"2018-06-11T06:47:36.000Z"},"geometry":{"type":"Point","coordinates":[36.08954750040804,-6.160921675583066]}},{"type":"Feature","properties":{"title":"Mivumoni Village, Pangani District, Tanzania Mini Grids Project","id":4699,"area":0.818188879689272,"year":"2018","lastUpdated":"2018-06-07T14:22:25.703646","changesets":78,"mappers":17,"roads":0.0276900086096642,"buildings":366,"edits":370,"latest":"2018-06-07T14:01:00.000Z"},"geometry":{"type":"Point","coordinates":[38.903763126037596,-5.307186790941633]}},{"type":"Feature","properties":{"title":"Chemba and Bahi Districts, Tanzania Mini Grids Project 06","id":4657,"area":1954.498784623165,"year":"2018","lastUpdated":"2018-06-14T09:15:54.656575","changesets":1739,"mappers":67,"roads":0.0871877791220345,"buildings":23455,"edits":23473,"latest":"2018-06-15T19:15:22.000Z"},"geometry":{"type":"Point","coordinates":[35.518366503705884,-5.7085387258819065]}},{"type":"Feature","properties":{"title":"Bankolo Village, Tanzania Mini Grids Project","id":4649,"area":2.655569135969413,"year":"2018","lastUpdated":"2018-06-03T23:07:59.384606","changesets":23,"mappers":10,"roads":0,"buildings":35,"edits":35,"latest":"2018-06-02T09:43:11.000Z"},"geometry":{"type":"Point","coordinates":[35.452022531029996,-5.83740181330499]}},{"type":"Feature","properties":{"title":"Villages in Pangani District, Tanzania Mini Grids Project","id":4642,"area":3.2853624864693787,"year":"2018","lastUpdated":"2018-06-03T23:09:23.858187","changesets":85,"mappers":27,"roads":0.0728887891265449,"buildings":3068,"edits":3101,"latest":"2018-06-08T10:05:47.000Z"},"geometry":{"type":"Point","coordinates":[38.9586214536687,-5.426816270673696]}},{"type":"Feature","properties":{"title":"Rufiji, Pwani, Tanzania Mini Grids Project 04","id":4624,"area":1796.0668599205555,"year":"2018","lastUpdated":"2018-06-26T06:14:51.811334","changesets":465,"mappers":41,"roads":0.0542000845535752,"buildings":8375,"edits":8384,"latest":"2018-06-25T13:58:27.000Z"},"geometry":{"type":"Point","coordinates":[38.53147573879938,-7.800372604775588]}},{"type":"Feature","properties":{"title":"Tabora, Tabora, Tanzania Mini Grids Project 05","id":4612,"area":1989.4559724518444,"year":"2018","lastUpdated":"2018-06-01T09:04:16.418927","changesets":1027,"mappers":62,"roads":1.12987965804484,"buildings":17432,"edits":17662,"latest":"2018-06-01T13:36:34.000Z"},"geometry":{"type":"Point","coordinates":[33.40266077376074,-5.09063064812292]}},{"type":"Feature","properties":{"title":"Tabora, Tabora, Tanzania Mini Grids Project 02","id":4584,"area":2042.6757607922066,"year":"2018","lastUpdated":"2018-06-20T13:56:00.211684","changesets":1784,"mappers":62,"roads":5.15594602627106,"buildings":37695,"edits":38500,"latest":"2018-06-20T13:55:11.000Z"},"geometry":{"type":"Point","coordinates":[33.55636968293966,-4.778208007358041]}},{"type":"Feature","properties":{"title":"Kasulu, Kasulu, Tanzania Mini Grids Project 01","id":4563,"area":1132.117945620699,"year":"2018","lastUpdated":"2018-06-22T13:47:54.809568","changesets":1683,"mappers":62,"roads":6.80675700959666,"buildings":46061,"edits":46543,"latest":"2018-06-22T13:37:34.000Z"},"geometry":{"type":"Point","coordinates":[30.223387298585,-4.60036034805499]}},{"type":"Feature","properties":{"title":"Manyoni, Singida, Tanzania Mini Grids Project 02","id":4532,"area":1743.3360624738941,"year":"2018","lastUpdated":"2018-05-21T06:12:05.383529","changesets":885,"mappers":62,"roads":0.198161772673363,"buildings":17096,"edits":17116,"latest":"2018-05-21T06:05:53.000Z"},"geometry":{"type":"Point","coordinates":[34.272985485616104,-5.75358385726637]}},{"type":"Feature","properties":{"title":"Lindi, Lindi, Tanzania Mini Grids Project 04","id":4495,"area":2400.161505147141,"year":"2018","lastUpdated":"2018-07-02T06:32:32.947392","changesets":1774,"mappers":65,"roads":3.81934683994176,"buildings":47301,"edits":47458,"latest":"2018-06-29T06:39:00.000Z"},"geometry":{"type":"Point","coordinates":[39.76326133480001,-10.168453829364001]}},{"type":"Feature","properties":{"title":"Tunduru, Ruvuma, Tanzania Mini Grids Project 04","id":4412,"area":1554.890184050325,"year":"2018","lastUpdated":"2018-05-25T06:52:25.748652","changesets":1325,"mappers":68,"roads":0.398203610661417,"buildings":26966,"edits":27033,"latest":"2018-04-30T08:47:26.000Z"},"geometry":{"type":"Point","coordinates":[37.58529301248964,-11.01510385295025]}},{"type":"Feature","properties":{"title":"S. Monduli, Simanjiro, Tanzania Mini Grids - MapSwipe Project 04 - 02","id":4479,"area":131.2262807333246,"year":"2018","lastUpdated":"2018-05-04T09:42:42.952002","changesets":136,"mappers":50,"roads":0.000165500103078919,"buildings":1412,"edits":1414,"latest":"2018-05-04T09:36:27.000Z"},"geometry":{"type":"Point","coordinates":[37.140374705660484,-4.974450733390372]}},{"type":"Feature","properties":{"title":"Urambo, Tabora, Tanzania Mini Grids Project 03","id":4365,"area":1398.7624508238905,"year":"2018","lastUpdated":"2018-07-04T09:14:48.213836","changesets":1473,"mappers":69,"roads":0.043434080974496,"buildings":34954,"edits":34964,"latest":"2018-07-04T09:28:23.000Z"},"geometry":{"type":"Point","coordinates":[31.89778350716778,-5.22060588533778]}},{"type":"Feature","properties":{"title":"S. Monduli, Simanjiro, Tanzania Mini Grids - MapSwipe Project 01","id":4422,"area":918.2087603729018,"year":"2018","lastUpdated":"2018-05-08T13:55:46.077666","changesets":4703,"mappers":86,"roads":7.83174281046291,"buildings":50610,"edits":50723,"latest":"2018-05-11T06:32:20.000Z"},"geometry":{"type":"Point","coordinates":[36.6096116860842,-3.632909796231658]}},{"type":"Feature","properties":{"title":"S. Monduli, Simanjiro, Tanzania Mini Grids - MapSwipe Project 04 - 01","id":4480,"area":133.48441769177396,"year":"2018","lastUpdated":"2018-06-29T10:36:33.994267","changesets":554,"mappers":60,"roads":0,"buildings":4661,"edits":4661,"latest":"2018-06-29T09:11:00.000Z"},"geometry":{"type":"Point","coordinates":[36.51598942107269,-5.009138210253439]}},{"type":"Feature","properties":{"title":"Mbozi, Mbeya, Tanzania Mini Grids Project 06","id":4349,"area":1339.4689946738515,"year":"2018","lastUpdated":"2018-06-29T09:45:45.880967","changesets":1041,"mappers":62,"roads":742.105457437643,"buildings":21212,"edits":22566,"latest":"2018-07-19T14:00:41.000Z"},"geometry":{"type":"Point","coordinates":[32.47751628437078,-8.583821597525402]}},{"type":"Feature","properties":{"title":"Urambo, Tabora, Tanzania Mini Grids Project 08","id":4355,"area":1512.9535222617567,"year":"2018","lastUpdated":"2018-06-29T06:36:14.716443","changesets":1803,"mappers":62,"roads":0.0539411172980745,"buildings":55003,"edits":55009,"latest":"2018-06-29T06:38:59.000Z"},"geometry":{"type":"Point","coordinates":[31.652766553125133,-4.666160203174864]}},{"type":"Feature","properties":{"title":"Mpwapwa, Dodoma, Tanzania Mini Grids Project 08","id":4418,"area":69.68255741962724,"year":"2018","lastUpdated":"2018-05-19T20:42:24.261907","changesets":1926,"mappers":103,"roads":18.7990415103299,"buildings":25541,"edits":25683,"latest":"2018-05-19T20:41:29.000Z"},"geometry":{"type":"Point","coordinates":[36.46391177601475,-5.9448724542277525]}},{"type":"Feature","properties":{"title":"Tunduru, Ruvuma, Tanzania Mini Grids Project 03","id":4378,"area":1369.2568876847938,"year":"2018","lastUpdated":"2018-05-03T12:58:11.041494","changesets":1018,"mappers":60,"roads":0.263537837490913,"buildings":23394,"edits":23430,"latest":"2018-05-03T13:14:28.000Z"},"geometry":{"type":"Point","coordinates":[37.28765739124834,-11.152541317436667]}},{"type":"Feature","properties":{"title":"Urambo, Tabora, Tanzania Mini Grids Project 01-02","id":4376,"area":2032.586550505636,"year":"2018","lastUpdated":"2018-06-19T08:37:57.167229","changesets":2264,"mappers":60,"roads":0.977625727876198,"buildings":26878,"edits":26920,"latest":"2018-06-19T08:37:22.000Z"},"geometry":{"type":"Point","coordinates":[31.762362863705164,-5.438836111127685]}},{"type":"Feature","properties":{"title":"Karema Ward, Katavi, Tanzania Mini Grids Project 01","id":4402,"area":49.87575499116186,"year":"2018","lastUpdated":"2018-04-12T09:55:34.291247","changesets":83,"mappers":11,"roads":0,"buildings":1985,"edits":1985,"latest":"2018-04-12T09:55:03.000Z"},"geometry":{"type":"Point","coordinates":[30.45028626808132,-6.824839702555798]}},{"type":"Feature","properties":{"title":"Tanzania Development Trust: Kagera Road Mapping","id":4369,"area":15505.318016681384,"year":"2018","lastUpdated":"2018-06-17T15:44:26.132464","changesets":32,"mappers":3,"roads":170.54959615572,"buildings":21,"edits":167,"latest":"2018-07-03T13:34:30.000Z"},"geometry":{"type":"Point","coordinates":[31.083802641369388,-1.6037426685457075]}},{"type":"Feature","properties":{"title":"Igalula Ward, Kigoma, Tanzania Mini Grids Project 01","id":4386,"area":1169.7270185651328,"year":"2018","lastUpdated":"2018-04-17T14:00:20.573026","changesets":912,"mappers":37,"roads":0.00817977234302703,"buildings":9782,"edits":9783,"latest":"2018-04-17T14:00:26.000Z"},"geometry":{"type":"Point","coordinates":[30.054356569129087,-6.011588890040766]}},{"type":"Feature","properties":{"title":"Mbulu Center Village, Tanzania Mini Grids Project 01","id":4436,"area":12.606083526364179,"year":"2018","lastUpdated":"2018-04-19T11:23:53.908966","changesets":134,"mappers":33,"roads":0.0184481585815086,"buildings":1409,"edits":1446,"latest":"2018-04-20T09:10:43.000Z"},"geometry":{"type":"Point","coordinates":[33.0464779901525,-8.959391550342504]}},{"type":"Feature","properties":{"title":"Tunduru, Ruvuma, Tanzania Mini Grids Project 06-07","id":4420,"area":2221.546325309108,"year":"2018","lastUpdated":"2018-06-26T09:46:42.343600","changesets":2472,"mappers":65,"roads":8.35441218309258,"buildings":33151,"edits":33219,"latest":"2018-06-26T09:49:39.000Z"},"geometry":{"type":"Point","coordinates":[37.34039799071685,-10.737231230373672]}},{"type":"Feature","properties":{"title":"Tunduru, Ruvuma, Tanzania Mini Grids Project 01","id":4423,"area":1513.3163670277308,"year":"2018","lastUpdated":"2018-06-29T11:40:34.768077","changesets":748,"mappers":73,"roads":0.672637130613432,"buildings":15105,"edits":15129,"latest":"2018-06-29T11:40:17.000Z"},"geometry":{"type":"Point","coordinates":[37.15242795625945,-11.620027648839601]}},{"type":"Feature","properties":{"title":"Urambo, Tabora, Tanzania Mini Grids Project 06","id":4353,"area":1555.7313427834936,"year":"2018","lastUpdated":"2018-06-29T06:38:02.088669","changesets":2204,"mappers":67,"roads":0.0376777707116761,"buildings":58216,"edits":58229,"latest":"2018-06-29T06:36:08.000Z"},"geometry":{"type":"Point","coordinates":[31.85480028894,-4.912515247337495]}},{"type":"Feature","properties":{"title":"Mbozi, Mbeya, Tanzania Mini Grids Project 01","id":4286,"area":1427.754247465411,"year":"2018","lastUpdated":"2018-06-07T08:27:39.601646","changesets":3571,"mappers":68,"roads":3017.76610954661,"buildings":84064,"edits":91962,"latest":"2018-06-14T11:11:25.000Z"},"geometry":{"type":"Point","coordinates":[32.815140600291976,-9.28818806240448]}},{"type":"Feature","properties":{"title":"Rungwe, Mbeya, Tanzania Mini Grids Project 01","id":4392,"area":1330.3320402972577,"year":"2018","lastUpdated":"2018-05-30T05:59:04.640865","changesets":2885,"mappers":74,"roads":21.3821929149524,"buildings":119621,"edits":120470,"latest":"2018-05-30T06:51:18.000Z"},"geometry":{"type":"Point","coordinates":[33.5756407980469,-9.244759979750832]}},{"type":"Feature","properties":{"title":"Mbozi, Mbeya, Tanzania Mini Grids Project 03","id":4289,"area":1303.883290131881,"year":"2018","lastUpdated":"2018-06-29T13:16:07.336988","changesets":2723,"mappers":78,"roads":1712.56467120964,"buildings":64564,"edits":69636,"latest":"2018-06-29T13:53:40.000Z"},"geometry":{"type":"Point","coordinates":[32.660369621525334,-8.981003005244997]}},{"type":"Feature","properties":{"title":"Mbozi, Mbeya, Tanzania Mini Grids Project 05","id":4291,"area":1217.253471872788,"year":"2018","lastUpdated":"2018-06-28T18:33:30.349701","changesets":1271,"mappers":65,"roads":1099.09611620997,"buildings":20694,"edits":22629,"latest":"2018-06-29T06:41:39.000Z"},"geometry":{"type":"Point","coordinates":[32.832228251564956,-8.77762069709877]}},{"type":"Feature","properties":{"title":"Mbozi, Mbeya, Tanzania Mini Grids Project 02","id":4287,"area":1464.4147850208826,"year":"2018","lastUpdated":"2018-03-28T14:39:26.288008","changesets":3239,"mappers":63,"roads":3419.72220762667,"buildings":69891,"edits":79035,"latest":"2018-03-28T14:41:07.000Z"},"geometry":{"type":"Point","coordinates":[32.46601435345758,-9.102106023061891]}},{"type":"Feature","properties":{"title":"Lindi - Mini Grids","id":4260,"area":235.67207484051517,"year":"2018","lastUpdated":"2018-04-18T21:53:41.412313","changesets":133,"mappers":23,"roads":23.0772557724216,"buildings":2266,"edits":2684,"latest":"2018-04-18T21:53:28.000Z"},"geometry":{"type":"Point","coordinates":[39.305670260454285,-10.707404745317382]}},{"type":"Feature","properties":{"title":"Tunduru, Ruvuma, Tanzania Mini Grids Project 05","id":4411,"area":1479.9129003136538,"year":"2018","lastUpdated":"2018-05-17T04:42:53.781681","changesets":1947,"mappers":62,"roads":3.59696148842831,"buildings":30085,"edits":30123,"latest":"2018-05-17T04:42:41.000Z"},"geometry":{"type":"Point","coordinates":[37.235568507342286,-10.889137167904732]}},{"type":"Feature","properties":{"title":"Kigoma_15","id":4102,"area":1.4561334248441051,"year":"2018","lastUpdated":"2018-02-07T07:32:02.125048","changesets":36,"mappers":5,"roads":0.613262345810854,"buildings":921,"edits":929,"latest":"2018-02-06T11:58:55.000Z"},"geometry":{"type":"Point","coordinates":[29.751054238259393,-5.416786723007887]}},{"type":"Feature","properties":{"title":"Kalobe-Data Zetu","id":4242,"area":5.581452341462152,"year":"2018","lastUpdated":"2018-03-07T09:09:27.180898","changesets":531,"mappers":5,"roads":0.0106237188235286,"buildings":6096,"edits":6109,"latest":"2018-03-07T09:02:49.000Z"},"geometry":{"type":"Point","coordinates":[33.4084716088529,-8.914847386034923]}},{"type":"Feature","properties":{"title":"Kigoma_16","id":4104,"area":7.541560145038916,"year":"2018","lastUpdated":"2018-02-15T12:46:38.375086","changesets":305,"mappers":9,"roads":1.4295542594309,"buildings":2851,"edits":2870,"latest":"2018-02-15T13:37:15.000Z"},"geometry":{"type":"Point","coordinates":[29.84589719532659,-5.5702642437272685]}},{"type":"Feature","properties":{"title":"Mahenye-Njombe","id":4178,"area":419.20452177017404,"year":"2018","lastUpdated":"2018-02-28T05:34:07.695778","changesets":557,"mappers":14,"roads":2.81615930013736,"buildings":28307,"edits":28364,"latest":"2018-02-23T12:45:33.000Z"},"geometry":{"type":"Point","coordinates":[34.79358795360073,-9.509275911526554]}},{"type":"Feature","properties":{"title":"Urambo, Tabora, Tanzania Mini Grids Project 04","id":4366,"area":1540.7875686482291,"year":"2018","lastUpdated":"2018-04-23T12:46:20.979070","changesets":1920,"mappers":73,"roads":6.26198278193171,"buildings":42229,"edits":42283,"latest":"2018-04-23T12:45:52.000Z"},"geometry":{"type":"Point","coordinates":[31.8072741219125,-5.113293963680001]}},{"type":"Feature","properties":{"title":"Kagera_2","id":4080,"area":4.132236731942467,"year":"2018","lastUpdated":"2018-01-29T09:03:59.256755","changesets":0,"mappers":0,"roads":0,"buildings":0,"edits":0,"latest":null},"geometry":{"type":"Point","coordinates":[32.119223662470695,-1.4703780484724356]}},{"type":"Feature","properties":{"title":"Kigoma_12","id":4098,"area":3.729917625288736,"year":"2018","lastUpdated":"2018-02-12T06:54:13.338393","changesets":479,"mappers":6,"roads":0.434900266530263,"buildings":2941,"edits":2951,"latest":"2018-02-12T06:53:36.000Z"},"geometry":{"type":"Point","coordinates":[29.9389865678107,-5.924358173879355]}},{"type":"Feature","properties":{"title":"Kigoma_17","id":4105,"area":4.227050493859274,"year":"2018","lastUpdated":"2018-02-15T09:58:31.382396","changesets":84,"mappers":8,"roads":0.193564177598396,"buildings":1322,"edits":1325,"latest":"2018-02-22T12:12:21.000Z"},"geometry":{"type":"Point","coordinates":[29.924467030509287,-5.732861759308482]}},{"type":"Feature","properties":{"title":"KIgoma_4","id":4085,"area":2.399888577348453,"year":"2018","lastUpdated":"2018-02-01T08:56:49.652957","changesets":108,"mappers":6,"roads":1.32334526648593,"buildings":3032,"edits":3050,"latest":"2018-02-01T08:56:12.000Z"},"geometry":{"type":"Point","coordinates":[30.042473064769514,-6.458449644665783]}},{"type":"Feature","properties":{"title":"TZ IFC Mini-grids house count test-1","id":4035,"area":481.70619678590833,"year":"2018","lastUpdated":"2018-02-09T12:39:18.669550","changesets":3,"mappers":3,"roads":0,"buildings":180,"edits":180,"latest":"2018-02-09T12:27:18.000Z"},"geometry":{"type":"Point","coordinates":[34.581446410258884,-7.300716320272623]}},{"type":"Feature","properties":{"title":"kagera_3","id":4072,"area":5.425110699350517,"year":"2018","lastUpdated":"2018-01-29T13:51:44.560135","changesets":66,"mappers":4,"roads":0,"buildings":1436,"edits":1436,"latest":"2018-01-30T06:14:28.000Z"},"geometry":{"type":"Point","coordinates":[31.78296036744672,-1.9859577129840518]}},{"type":"Feature","properties":{"title":"Kigoma_2","id":4083,"area":1.965158778543636,"year":"2018","lastUpdated":"2018-01-30T14:05:17.983249","changesets":127,"mappers":2,"roads":0,"buildings":458,"edits":458,"latest":"2018-01-30T14:04:27.000Z"},"geometry":{"type":"Point","coordinates":[30.490210022071953,-6.813742245754607]}},{"type":"Feature","properties":{"title":"Kigoma_8","id":4089,"area":3.170194931843662,"year":"2018","lastUpdated":"2018-02-14T08:58:00.280285","changesets":175,"mappers":7,"roads":0.00164720947993757,"buildings":5558,"edits":5558,"latest":"2018-02-15T13:52:57.000Z"},"geometry":{"type":"Point","coordinates":[29.77626862798747,-6.004675849692375]}},{"type":"Feature","properties":{"title":"Muheza malaria","id":4039,"area":580.7567384439337,"year":"2018","lastUpdated":"2018-06-01T20:37:30.159547","changesets":423,"mappers":18,"roads":9.04284919882175,"buildings":24405,"edits":24586,"latest":"2018-06-03T11:25:54.000Z"},"geometry":{"type":"Point","coordinates":[38.769019369140786,-5.149994286049941]}},{"type":"Feature","properties":{"title":"Kigoma_6","id":4087,"area":3.103362564009721,"year":"2018","lastUpdated":"2018-02-15T12:32:16.947516","changesets":201,"mappers":8,"roads":0.0059086431357116,"buildings":3802,"edits":3802,"latest":"2018-02-13T11:37:26.000Z"},"geometry":{"type":"Point","coordinates":[29.957718322358744,-6.483041975356721]}},{"type":"Feature","properties":{"title":"Mara","id":4073,"area":3.087873440053216,"year":"2018","lastUpdated":"2018-01-29T14:51:44.742950","changesets":0,"mappers":0,"roads":0,"buildings":0,"edits":0,"latest":null},"geometry":{"type":"Point","coordinates":[33.70828711361714,-1.4058350861409175]}},{"type":"Feature","properties":{"title":"Kigoma_1","id":4082,"area":3.220895758602432,"year":"2018","lastUpdated":"2018-01-30T09:22:24.958026","changesets":128,"mappers":5,"roads":0,"buildings":3113,"edits":3113,"latest":"2018-02-19T11:05:31.000Z"},"geometry":{"type":"Point","coordinates":[30.44210254746399,-6.82158989076395]}},{"type":"Feature","properties":{"title":"Kigoma_10","id":4091,"area":4.460415768336148,"year":"2018","lastUpdated":"2018-02-08T09:50:21.431365","changesets":220,"mappers":5,"roads":0.0191951062871919,"buildings":3014,"edits":3016,"latest":"2018-02-08T09:50:17.000Z"},"geometry":{"type":"Point","coordinates":[29.852708915118153,-5.977798075388094]}},{"type":"Feature","properties":{"title":"Kigoma_11","id":4097,"area":4.492849273495634,"year":"2018","lastUpdated":"2018-02-09T07:33:00.557116","changesets":215,"mappers":4,"roads":0,"buildings":5705,"edits":5705,"latest":"2018-02-09T07:23:31.000Z"},"geometry":{"type":"Point","coordinates":[29.899492785288036,-5.944963869712221]}},{"type":"Feature","properties":{"title":"Itona_Kilosa","id":4179,"area":741.6959938125862,"year":"2018","lastUpdated":"2018-04-11T06:43:22.814485","changesets":409,"mappers":55,"roads":1.35885332610885,"buildings":3691,"edits":3744,"latest":"2018-04-11T07:21:08.000Z"},"geometry":{"type":"Point","coordinates":[35.53547612786605,-8.535150251339573]}},{"type":"Feature","properties":{"title":"TZ IFC Mini-grids house count test","id":3876,"area":481.70619678590833,"year":"2018","lastUpdated":"2018-01-17T09:18:38.631606","changesets":3458,"mappers":35,"roads":5.06366089326074,"buildings":275823,"edits":276862,"latest":"2018-02-20T15:26:25.000Z"},"geometry":{"type":"Point","coordinates":[34.581446410258884,-7.300716320272623]}},{"type":"Feature","properties":{"title":"S. Monduli, Simanjiro, Tanzania Mini Grids - MapSwipe Project 04 - 04","id":4477,"area":139.74141127398454,"year":"2018","lastUpdated":"2018-05-04T08:01:04.870840","changesets":352,"mappers":54,"roads":0,"buildings":4700,"edits":4700,"latest":"2018-05-04T08:40:26.000Z"},"geometry":{"type":"Point","coordinates":[37.97815318589818,-5.0748312565103175]}},{"type":"Feature","properties":{"title":"TZ IFC Mini-grids house count test-2","id":4036,"area":481.70619678590833,"year":"2018","lastUpdated":"2018-02-15T13:20:01.029773","changesets":2181,"mappers":13,"roads":36.3868917119351,"buildings":181981,"edits":182647,"latest":"2018-02-23T15:15:42.000Z"},"geometry":{"type":"Point","coordinates":[34.581446410258884,-7.300716320272623]}},{"type":"Feature","properties":{"title":"kagera_1","id":4070,"area":36.69351653109927,"year":"2018","lastUpdated":"2018-01-29T08:30:21.754241","changesets":3,"mappers":1,"roads":0,"buildings":2,"edits":2,"latest":"2018-01-27T16:53:46.000Z"},"geometry":{"type":"Point","coordinates":[31.86992732951731,-1.6797556657183264]}},{"type":"Feature","properties":{"title":"Missing Maps: Dar es Salaam - Ramani Huria 2.0 - 33","id":3455,"area":156.72153831900792,"year":"2018","lastUpdated":"2018-03-05T15:30:37.208960","changesets":2954,"mappers":102,"roads":579.977370621098,"buildings":21094,"edits":39085,"latest":"2017-10-29T15:21:56.000Z"},"geometry":{"type":"Point","coordinates":[39.06687201276458,-6.7708713265034515]}},{"type":"Feature","properties":{"title":"Missing Maps: Dar es Salaam - Ramani Huria 2.0 - 39","id":3505,"area":96.83711970341507,"year":"2018","lastUpdated":"2018-03-04T23:01:32.143525","changesets":3897,"mappers":79,"roads":269.298159883004,"buildings":48923,"edits":63495,"latest":"2017-09-18T11:50:06.000Z"},"geometry":{"type":"Point","coordinates":[39.305843254526984,-6.840568905719535]}},{"type":"Feature","properties":{"title":"Zanzibar Roads - Unguja Island - 02","id":3666,"area":467.0999763333136,"year":"2017","lastUpdated":"2017-10-02T18:35:16.494476","changesets":182,"mappers":13,"roads":1127.1061948184,"buildings":5,"edits":6570,"latest":"2017-10-04T08:29:26.000Z"},"geometry":{"type":"Point","coordinates":[39.26414174907967,-5.856335474346869]}},{"type":"Feature","properties":{"title":"Tanzania Development Trust:  Mwanza East","id":3993,"area":6942.748601206665,"year":"2018","lastUpdated":"2018-07-18T14:38:29.202218","changesets":7699,"mappers":352,"roads":9171.44449124684,"buildings":151307,"edits":207795,"latest":"2018-07-18T14:38:00.000Z"},"geometry":{"type":"Point","coordinates":[33.151702880859375,-2.8604853284710874]}},{"type":"Feature","properties":{"title":"Tanzania Development Trust: Manyoni district mapping project part 2","id":3389,"area":7477.8484249126495,"year":"2018","lastUpdated":"2018-07-18T22:23:41.542348","changesets":0,"mappers":0,"roads":0,"buildings":0,"edits":0,"latest":null},"geometry":{"type":"Point","coordinates":[35.27572631835939,-4.379171736396492]}},{"type":"Feature","properties":{"title":"Tanzania Development Trust: Muzye, Muhunga and Bugaga wards community mapping project ","id":3313,"area":467.01646755665894,"year":"2018","lastUpdated":"2018-06-25T20:57:28.962446","changesets":0,"mappers":0,"roads":0,"buildings":0,"edits":0,"latest":null},"geometry":{"type":"Point","coordinates":[29.996941569562726,-4.632042691063947]}},{"type":"Feature","properties":{"title":"Missing Maps: Dar es Salaam - Ramani Huria 2.0 - 21","id":3388,"area":69.65587897048133,"year":"2017","lastUpdated":"2017-08-29T20:18:54.288698","changesets":1939,"mappers":75,"roads":6.84000186734417,"buildings":36784,"edits":37868,"latest":"2017-08-11T12:28:34.000Z"},"geometry":{"type":"Point","coordinates":[39.1238626216775,-6.897961178878595]}},{"type":"Feature","properties":{"title":"PEPFAR Tanzania: Shinyanga","id":2301,"area":565.5201463076456,"year":"2017","lastUpdated":"2017-11-16T23:33:37.890014","changesets":5198,"mappers":302,"roads":2277.42607148261,"buildings":46163,"edits":71621,"latest":"2017-11-16T23:33:01.000Z"},"geometry":{"type":"Point","coordinates":[33.44573190915658,-3.633071239733379]}},{"type":"Feature","properties":{"title":"Tanzania Development Trust: Singida district community mapping project ","id":3159,"area":746.5381861519145,"year":"2018","lastUpdated":"2018-04-14T11:47:27.250647","changesets":0,"mappers":0,"roads":0,"buildings":0,"edits":0,"latest":null},"geometry":{"type":"Point","coordinates":[35.00739145072836,-4.7137063082032755]}},{"type":"Feature","properties":{"title":"MSD & JSI/USAID Tanzania Road Import - Arusha region","id":1971,"area":31245.987566415035,"year":"2017","lastUpdated":"2017-07-24T23:13:32.143193","changesets":0,"mappers":0,"roads":0,"buildings":0,"edits":0,"latest":null},"geometry":{"type":"Point","coordinates":[35.98178328230096,-2.99082315747327]}},{"type":"Feature","properties":{"title":"Tanzania Development Trust: Serengeti district mapping project","id":1788,"area":13584.124479203561,"year":"2018","lastUpdated":"2018-07-18T13:20:25.115267","changesets":0,"mappers":0,"roads":0,"buildings":0,"edits":0,"latest":null},"geometry":{"type":"Point","coordinates":[34.658088684082024,-1.9070894696788552]}},{"type":"Feature","properties":{"title":"MSD & JSI/USAID Tanzania Road Import - Mbeya region","id":2111,"area":19769.484038509396,"year":"2016","lastUpdated":"2016-09-26T19:17:08.424814","changesets":79,"mappers":5,"roads":2211.37645137462,"buildings":3314,"edits":7568,"latest":"2016-10-05T18:18:41.000Z"},"geometry":{"type":"Point","coordinates":[33.53129587985334,-8.652609274565219]}},{"type":"Feature","properties":{"title":"MSD & JSI/USAID Tanzania Road Import - Tanga region","id":1921,"area":26453.26230241192,"year":"2016","lastUpdated":"2016-11-26T18:48:48.999774","changesets":0,"mappers":0,"roads":0,"buildings":0,"edits":0,"latest":null},"geometry":{"type":"Point","coordinates":[38.09654675335962,-5.362412457676792]}},{"type":"Feature","properties":{"title":"MSD & JSI/USAID Tanzania Road Import - Kigoma and Tabora regions","id":1233,"area":55716.44775664574,"year":"2017","lastUpdated":"2017-09-08T08:29:26.684641","changesets":89,"mappers":5,"roads":7164.0075520837,"buildings":137,"edits":14011,"latest":"2015-10-15T16:49:58.000Z"},"geometry":{"type":"Point","coordinates":[32.221144436424595,-4.716038295525221]}},{"type":"Feature","properties":{"title":"Peace Corps Tanzania -- Lushoto","id":1903,"area":69.21165370312055,"year":"2017","lastUpdated":"2017-09-19T04:44:26.195543","changesets":640,"mappers":88,"roads":126.39665147357,"buildings":9101,"edits":10836,"latest":"2017-07-28T23:41:56.000Z"},"geometry":{"type":"Point","coordinates":[38.303773299507476,-4.810238891566513]}},{"type":"Feature","properties":{"title":"Kigoma_13","id":4099,"area":2.897626588524291,"year":"2018","lastUpdated":"2018-02-12T06:41:14.209893","changesets":98,"mappers":5,"roads":0.000234970678110244,"buildings":1712,"edits":1719,"latest":"2018-02-12T06:40:16.000Z"},"geometry":{"type":"Point","coordinates":[29.658303477039862,-4.485456020104669]}},{"type":"Feature","properties":{"title":"Kigoma_7","id":4088,"area":2.1750746662810996,"year":"2018","lastUpdated":"2018-02-14T06:34:17.900163","changesets":64,"mappers":6,"roads":0,"buildings":770,"edits":770,"latest":"2018-02-14T06:35:46.000Z"},"geometry":{"type":"Point","coordinates":[29.747221030052973,-6.0249577041517295]}},{"type":"Feature","properties":{"title":"Missing Maps: Dar es Salaam - Ramani Huria 2.0 - 27","id":3424,"area":230.31173426208932,"year":"2018","lastUpdated":"2018-03-05T15:33:58.772352","changesets":2533,"mappers":79,"roads":1585.23523604963,"buildings":328,"edits":20922,"latest":"2017-08-31T08:30:39.000Z"},"geometry":{"type":"Point","coordinates":[39.10027660536416,-7.025038398924583]}},{"type":"Feature","properties":{"title":"Missing Maps: Dar es Salaam - Ramani Huria 2.0 - 24","id":3410,"area":178.71077034656207,"year":"2018","lastUpdated":"2018-03-05T15:35:12.366029","changesets":1325,"mappers":49,"roads":0.0922744730575409,"buildings":7624,"edits":7650,"latest":"2017-08-16T00:47:29.000Z"},"geometry":{"type":"Point","coordinates":[39.49870437090148,-6.9536467580624555]}},{"type":"Feature","properties":{"title":"Kipili Ward, Rukwa, Tanzania Mini Grids Project 01","id":4401,"area":180.26824654575853,"year":"2018","lastUpdated":"2018-05-08T10:13:30.293395","changesets":455,"mappers":51,"roads":0.000599220796289046,"buildings":9512,"edits":9513,"latest":"2018-05-08T10:13:16.000Z"},"geometry":{"type":"Point","coordinates":[30.596896102411772,-7.461640143485554]}},{"type":"Feature","properties":{"title":"Mbozi, Mbeya, Tanzania Mini Grids Project 04","id":4290,"area":1211.7161084477548,"year":"2018","lastUpdated":"2018-07-03T09:23:29.574736","changesets":1961,"mappers":76,"roads":1447.81448250183,"buildings":48428,"edits":51301,"latest":"2018-07-03T09:24:27.000Z"},"geometry":{"type":"Point","coordinates":[32.864289160170514,-8.870478995599651]}},{"type":"Feature","properties":{"title":"Ikuna Ward Mapping Project","id":3203,"area":224.51296025612464,"year":"2018","lastUpdated":"2018-03-05T15:47:24.873442","changesets":335,"mappers":7,"roads":742.813559438956,"buildings":4401,"edits":9943,"latest":"2017-10-31T12:28:59.000Z"},"geometry":{"type":"Point","coordinates":[34.9328327178955,-9.190730246414187]}},{"type":"Feature","properties":{"title":"Missing Maps: Dar es Salaam - Ramani Huria 8","id":2242,"area":18.297857125006182,"year":"2017","lastUpdated":"2017-04-26T13:26:16.487958","changesets":402,"mappers":13,"roads":17.3508405937143,"buildings":9226,"edits":9722,"latest":"2016-12-08T19:06:28.000Z"},"geometry":{"type":"Point","coordinates":[39.19390890056493,-6.76004283446328]}},{"type":"Feature","properties":{"title":"MSD & JSI/USAID Tanzania Road Import - Iringa region","id":2157,"area":30284.59973311939,"year":"2016","lastUpdated":"2016-10-20T13:22:29.952382","changesets":85,"mappers":13,"roads":2909.39047680426,"buildings":712,"edits":3579,"latest":"2016-10-19T21:15:43.000Z"},"geometry":{"type":"Point","coordinates":[35.12966588259462,-8.90039717715023]}},{"type":"Feature","properties":{"title":"Serengeti National Park","id":834,"area":13370.038280033767,"year":"2017","lastUpdated":"2017-07-05T09:52:49.480984","changesets":0,"mappers":0,"roads":0,"buildings":0,"edits":0,"latest":null},"geometry":{"type":"Point","coordinates":[34.71995007142858,-1.969435597802197]}},{"type":"Feature","properties":{"title":"Mwanza_sengerema","id":4069,"area":126.12964780900826,"year":"2018","lastUpdated":"2018-01-27T16:59:18.497099","changesets":1,"mappers":1,"roads":0,"buildings":0,"edits":0,"latest":"2018-01-27T16:55:51.000Z"},"geometry":{"type":"Point","coordinates":[32.01839321825404,-2.2808662314499273]}},{"type":"Feature","properties":{"title":"Priority Villages, Lindi Region, Tanzania Mini Grids Project","id":4802,"area":616.0229189680824,"year":"2018","lastUpdated":"2018-07-02T20:42:12.174538","changesets":447,"mappers":18,"roads":0.198453497004405,"buildings":12715,"edits":12741,"latest":"2018-07-03T09:25:50.000Z"},"geometry":{"type":"Point","coordinates":[38.35241233283509,-10.284012504908642]}},{"type":"Feature","properties":{"title":"Dodoma","id":4075,"area":1376.1461971097149,"year":"2018","lastUpdated":"2018-01-27T16:19:15.755920","changesets":0,"mappers":0,"roads":0,"buildings":0,"edits":0,"latest":null},"geometry":{"type":"Point","coordinates":[35.01502914443591,-7.24110335290576]}},{"type":"Feature","properties":{"title":"Chamwino Village, Tanzania Mini Grids Project","id":4748,"area":13.678881091028838,"year":"2018","lastUpdated":"2018-06-13T13:18:58.993239","changesets":156,"mappers":50,"roads":0.0404579971976971,"buildings":5494,"edits":5498,"latest":"2018-06-13T13:52:23.000Z"},"geometry":{"type":"Point","coordinates":[36.039147334095,-6.10061474426]}},{"type":"Feature","properties":{"title":"Mwanza","id":4074,"area":121.88924319716057,"year":"2018","lastUpdated":"2018-03-27T15:42:41.221237","changesets":6,"mappers":3,"roads":0.470326699343026,"buildings":24,"edits":42,"latest":"2018-03-27T15:44:50.000Z"},"geometry":{"type":"Point","coordinates":[33.126132567191135,-1.9238324242353735]}},{"type":"Feature","properties":{"title":"Kagera_Goziba","id":4068,"area":1.2825061201820658,"year":"2018","lastUpdated":"2018-01-27T17:08:13.788121","changesets":1,"mappers":1,"roads":0,"buildings":0,"edits":0,"latest":"2018-01-27T17:01:56.000Z"},"geometry":{"type":"Point","coordinates":[32.613511747768825,-1.4704431873747166]}},{"type":"Feature","properties":{"title":"Kigoma_9","id":4090,"area":1.722690665551124,"year":"2018","lastUpdated":"2018-02-15T09:43:57.762973","changesets":290,"mappers":6,"roads":0.249339693562493,"buildings":1929,"edits":1941,"latest":"2018-02-15T09:43:50.000Z"},"geometry":{"type":"Point","coordinates":[29.825238216387262,-6.003663870933533]}},{"type":"Feature","properties":{"title":"Tunduru, Ruvuma, Tanzania Mini Grids Project 02","id":4424,"area":1549.6766515243964,"year":"2018","lastUpdated":"2018-05-04T08:55:20.079197","changesets":855,"mappers":63,"roads":0.0711115935309787,"buildings":21117,"edits":21136,"latest":"2018-05-07T07:56:42.000Z"},"geometry":{"type":"Point","coordinates":[37.44642487877472,-11.304728564657015]}},{"type":"Feature","properties":{"title":"Priority Villages, Ruvuma Region, Tanzania Mini Grids Project","id":4801,"area":491.345226887175,"year":"2018","lastUpdated":"2018-07-03T15:18:55.293383","changesets":586,"mappers":30,"roads":0.0476650649909273,"buildings":26872,"edits":26882,"latest":"2018-06-28T09:53:53.000Z"},"geometry":{"type":"Point","coordinates":[35.45485146842986,-10.678797947427933]}}],"Central African Republic":[{"type":"Feature","properties":{"title":"Concern Worldwide Disaster Risk Reduction (pilot) Boyali, Central African Republic","id":4451,"area":1.9390617941603194,"year":"2018","lastUpdated":"2018-04-24T14:50:22.146428","changesets":0,"mappers":0,"roads":0,"buildings":0,"edits":0,"latest":null},"geometry":{"type":"Point","coordinates":[17.881910763609717,5.051965727912866]}},{"type":"Feature","properties":{"title":"Central African Republic, Mbomou, Ouango","id":524,"area":2.6191871713572525,"year":"2014","lastUpdated":"2014-05-14T09:08:38.906344","changesets":34,"mappers":8,"roads":21.1782687603286,"buildings":915,"edits":1295,"latest":"2014-05-14T10:08:17.000Z"},"geometry":{"type":"Point","coordinates":[22.547118899066966,4.320198566458777]}},{"type":"Feature","properties":{"title":"Rpublique Centrafricaine/Central African Republic, Ouham, Nana-Bakassa","id":380,"area":2.8174034001560324,"year":"2016","lastUpdated":"2016-04-29T09:24:19.984038","changesets":82,"mappers":16,"roads":55.9467500220722,"buildings":1085,"edits":2046,"latest":"2014-05-25T17:51:56.000Z"},"geometry":{"type":"Point","coordinates":[17.27673053501145,6.991901727991525]}},{"type":"Feature","properties":{"title":"Central African Republic crisis, road network vs WFP open data references","id":783,"area":88642.60285447176,"year":"2015","lastUpdated":"2015-11-27T15:50:02.357678","changesets":0,"mappers":0,"roads":0,"buildings":0,"edits":0,"latest":null},"geometry":{"type":"Point","coordinates":[20.026659221006373,6.118931719726986]}},{"type":"Feature","properties":{"title":"Concern Worldwide Disaster Risk Reduction (pilot) Ndjoh, Central African Republic","id":4452,"area":4.995203697034265,"year":"2018","lastUpdated":"2018-04-24T15:52:18.235723","changesets":0,"mappers":0,"roads":0,"buildings":0,"edits":0,"latest":null},"geometry":{"type":"Point","coordinates":[17.601257523186675,5.702332285976894]}},{"type":"Feature","properties":{"title":"Concern Worldwide Disaster Risk Reduction (pilot) Gaga / Datoli, Central African Republic","id":4448,"area":3.1098974543285984,"year":"2018","lastUpdated":"2018-07-17T08:23:37.578474","changesets":114,"mappers":15,"roads":12.629216277212,"buildings":1812,"edits":1942,"latest":"2018-07-17T08:23:29.000Z"},"geometry":{"type":"Point","coordinates":[16.97869646415265,5.48774680125175]}},{"type":"Feature","properties":{"title":"Concern Worldwide Disaster Risk Reduction (pilot) Mbanko, Central African Republic","id":4450,"area":1.8526255318439828,"year":"2018","lastUpdated":"2018-04-24T15:27:49.285526","changesets":2,"mappers":1,"roads":5.62731420224133,"buildings":0,"edits":9,"latest":"2018-04-24T16:08:29.000Z"},"geometry":{"type":"Point","coordinates":[17.011505081182875,4.830940356346273]}},{"type":"Feature","properties":{"title":"Central African Republic, Ouham Pend, Bozoum","id":403,"area":14.983820474709646,"year":"2014","lastUpdated":"2014-02-21T21:00:22.521292","changesets":297,"mappers":31,"roads":227.40426135179,"buildings":7717,"edits":11472,"latest":"2017-12-13T13:32:50.000Z"},"geometry":{"type":"Point","coordinates":[16.379585263833476,6.31691920400752]}},{"type":"Feature","properties":{"title":"Chad Southern Borders: location names from NGA-GNS","id":521,"area":305439.2050940806,"year":"2018","lastUpdated":"2018-02-12T12:01:09.542238","changesets":5,"mappers":4,"roads":14.2949506131778,"buildings":0,"edits":19,"latest":"2018-02-12T12:06:37.000Z"},"geometry":{"type":"Point","coordinates":[19.51707458224299,8.687792977883097]}},{"type":"Feature","properties":{"title":"Central African Republic. Refugees in Cameroon, Yamba","id":829,"area":0.4470362205424618,"year":"2018","lastUpdated":"2018-02-11T04:16:47.762421","changesets":0,"mappers":0,"roads":0,"buildings":0,"edits":0,"latest":null},"geometry":{"type":"Point","coordinates":[15.206647852671741,7.106673558778624]}},{"type":"Feature","properties":{"title":"Central African Republic. Refugees in Cameroon, Gbiti","id":779,"area":1.0940632741990721,"year":"2015","lastUpdated":"2015-11-23T06:27:35.131096","changesets":0,"mappers":0,"roads":0,"buildings":0,"edits":0,"latest":null},"geometry":{"type":"Point","coordinates":[14.71109411715117,4.700695839244187]}},{"type":"Feature","properties":{"title":"Central African Republic, Kemb ","id":569,"area":26.79296674232309,"year":"2016","lastUpdated":"2016-12-07T05:54:58.429181","changesets":37,"mappers":9,"roads":54.5784135760666,"buildings":444,"edits":1022,"latest":"2016-12-07T05:54:34.000Z"},"geometry":{"type":"Point","coordinates":[21.88610770181019,4.617444218434133]}},{"type":"Feature","properties":{"title":"Central African Republic, Mbomou, Nzako","id":548,"area":1.4580740217114299,"year":"2014","lastUpdated":"2014-06-08T01:53:56.889212","changesets":88,"mappers":15,"roads":53.4829340065187,"buildings":3865,"edits":4843,"latest":"2014-06-08T10:00:22.000Z"},"geometry":{"type":"Point","coordinates":[22.862211860018338,6.128918599518202]}},{"type":"Feature","properties":{"title":"Central African Republic/Rpublique Centrafricaine, Haut-Mbomou, Zmio","id":397,"area":11.022278185380612,"year":"2014","lastUpdated":"2014-02-10T00:14:14.928829","changesets":145,"mappers":16,"roads":517.642846680441,"buildings":2851,"edits":4593,"latest":"2017-07-07T07:54:06.000Z"},"geometry":{"type":"Point","coordinates":[25.1297235453902,5.027035543277952]}},{"type":"Feature","properties":{"title":"Central African Republic, Ouham Pend, Paoua","id":501,"area":15.314915541102634,"year":"2014","lastUpdated":"2014-04-28T00:57:51.365189","changesets":158,"mappers":22,"roads":347.015133240727,"buildings":5430,"edits":9431,"latest":"2016-11-21T22:05:05.000Z"},"geometry":{"type":"Point","coordinates":[16.430820462799254,7.245446614022317]}},{"type":"Feature","properties":{"title":"Central African Republic, Sangha-Mbar, Nola - Mapbox/DigitalGlobe imagery","id":522,"area":14.583324651178652,"year":"2016","lastUpdated":"2016-03-09T18:12:11.346061","changesets":118,"mappers":15,"roads":94.0447966589267,"buildings":6420,"edits":7541,"latest":"2014-05-13T03:52:05.000Z"},"geometry":{"type":"Point","coordinates":[16.043190953882732,3.517994740850922]}},{"type":"Feature","properties":{"title":"Central African Republic/Rpublique Centrafricaine, Kmo Prefecture, Sibut","id":411,"area":21.633784189601524,"year":"2014","lastUpdated":"2014-02-10T00:14:15.916603","changesets":1111,"mappers":25,"roads":414.381785554692,"buildings":88165,"edits":93499,"latest":"2018-03-08T12:51:33.000Z"},"geometry":{"type":"Point","coordinates":[19.08632278176809,5.734344630552353]}},{"type":"Feature","properties":{"title":"Central African Republic/Rpublique Centrafricaine, Ouaka, Kouango","id":402,"area":5.368176724207296,"year":"2014","lastUpdated":"2014-02-10T00:14:15.493211","changesets":55,"mappers":6,"roads":24.117192784866,"buildings":2921,"edits":3118,"latest":"2017-07-25T18:11:10.000Z"},"geometry":{"type":"Point","coordinates":[19.972929951748572,4.9950149056893505]}},{"type":"Feature","properties":{"title":"Frontire Sud du Tchad : routes et zones rsidentielles/Chad Southern Border: roads and residential landuse","id":518,"area":308767.2532987346,"year":"2018","lastUpdated":"2018-06-12T12:36:02.768358","changesets":541,"mappers":36,"roads":1774.22244532686,"buildings":2214,"edits":6152,"latest":"2018-05-26T00:42:27.000Z"},"geometry":{"type":"Point","coordinates":[19.518585202362214,8.694653005390437]}}],"Madagascar":[{"type":"Feature","properties":{"title":"Healthcare access - Ifanadiana, Madagascar - 02","id":4409,"area":1079.2972588837943,"year":"2018","lastUpdated":"2018-07-08T19:33:11.705554","changesets":1,"mappers":1,"roads":1.70250298127824,"buildings":8,"edits":13,"latest":"2018-06-04T12:54:47.000Z"},"geometry":{"type":"Point","coordinates":[47.45186951076086,-20.912859812480814]}},{"type":"Feature","properties":{"title":"Ville de Soavinandriana, Madagascar, Diagnostic WASH, tape 3 = Hydrologie","id":3863,"area":139.904759250857,"year":"2018","lastUpdated":"2018-01-19T22:36:42.317341","changesets":10,"mappers":7,"roads":3.90461303148553,"buildings":112,"edits":226,"latest":"2017-11-26T09:59:37.000Z"},"geometry":{"type":"Point","coordinates":[46.73147846245848,-19.152404337541533]}},{"type":"Feature","properties":{"title":"Economic Development - Antsiranana (Digo Suarez), Madagascar","id":3720,"area":21.90427894652556,"year":"2018","lastUpdated":"2018-05-10T22:23:50.577330","changesets":1962,"mappers":111,"roads":170.316298976646,"buildings":31421,"edits":36685,"latest":"2018-05-30T19:16:11.000Z"},"geometry":{"type":"Point","coordinates":[49.29580417534453,-12.291144382723955]}},{"type":"Feature","properties":{"title":"Peace Corps Madagascar - Mananara Avaratra","id":1325,"area":47.74801177617476,"year":"2016","lastUpdated":"2016-04-29T09:12:46.499550","changesets":509,"mappers":41,"roads":117.886973633989,"buildings":8531,"edits":9994,"latest":"2016-01-27T15:01:24.000Z"},"geometry":{"type":"Point","coordinates":[49.77281233843635,-16.1747848335589]}},{"type":"Feature","properties":{"title":"Healthcare access - Ifanadiana, Madagascar - 03","id":4410,"area":1365.5299485396085,"year":"2018","lastUpdated":"2018-07-08T19:32:40.247981","changesets":78,"mappers":6,"roads":54.0434253733992,"buildings":708,"edits":923,"latest":"2018-06-18T20:28:19.000Z"},"geometry":{"type":"Point","coordinates":[47.50516524581082,-21.415631085139797]}},{"type":"Feature","properties":{"title":"Validation Vatomandry (interne  Cartong)","id":4252,"area":2360.8743603630046,"year":"2018","lastUpdated":"2018-03-23T21:43:03.823010","changesets":220,"mappers":10,"roads":480.898775469685,"buildings":10669,"edits":13168,"latest":"2018-03-29T08:02:23.000Z"},"geometry":{"type":"Point","coordinates":[48.78345293722483,-19.2968725491406]}},{"type":"Feature","properties":{"title":"Getting prepared to natural hazards by mapping evacuation routes in Madagascar rural areas (Menabe)","id":3571,"area":49.545216321632424,"year":"2018","lastUpdated":"2018-03-12T10:42:04.379181","changesets":539,"mappers":61,"roads":352.155038130635,"buildings":5949,"edits":8329,"latest":"2018-04-12T06:57:33.000Z"},"geometry":{"type":"Point","coordinates":[44.505091823818184,-20.229634748519775]}},{"type":"Feature","properties":{"title":"Peace Corps Madagascar - Kianjavato","id":1322,"area":37.73661608379183,"year":"2016","lastUpdated":"2016-06-08T18:54:54.652291","changesets":389,"mappers":42,"roads":81.8678355356079,"buildings":4877,"edits":6149,"latest":"2016-04-19T00:48:39.000Z"},"geometry":{"type":"Point","coordinates":[47.86697387695313,-21.37504468892472]}},{"type":"Feature","properties":{"title":"Peace Corps Madagascar - Maroambihy","id":1368,"area":19.750896688788135,"year":"2016","lastUpdated":"2016-01-06T16:28:42.864361","changesets":170,"mappers":20,"roads":6.47799944137164,"buildings":2648,"edits":2745,"latest":"2016-01-06T16:28:40.000Z"},"geometry":{"type":"Point","coordinates":[49.83891183679754,-14.512901916149792]}},{"type":"Feature","properties":{"title":"Madagascar buildings for ground teams","id":210,"area":949.2971234604119,"year":"2017","lastUpdated":"2017-08-27T19:19:19.662865","changesets":50,"mappers":9,"roads":230.256282570382,"buildings":3632,"edits":4627,"latest":"2017-08-25T10:11:52.000Z"},"geometry":{"type":"Point","coordinates":[44.605276919015246,-23.546214758674886]}},{"type":"Feature","properties":{"title":"Peace Corps Madagascar - Tsarasambo","id":1383,"area":97.77283488322261,"year":"2018","lastUpdated":"2018-04-17T01:29:27.957736","changesets":226,"mappers":21,"roads":87.4547722664873,"buildings":5368,"edits":6298,"latest":"2018-04-17T01:28:07.000Z"},"geometry":{"type":"Point","coordinates":[48.884271025657654,-19.43973726729207]}}],"Bangladesh":[{"type":"Feature","properties":{"title":"Missing Maps: Bangladesh, Patuakhali Sadar","id":3949,"area":368.2816501057199,"year":"2018","lastUpdated":"2018-07-17T18:09:08.783846","changesets":945,"mappers":145,"roads":91.0425335882557,"buildings":8986,"edits":9429,"latest":"2018-07-17T18:51:19.000Z"},"geometry":{"type":"Point","coordinates":[90.33297302779216,22.341572055585885]}},{"type":"Feature","properties":{"title":"Missing Maps: Bangladesh, Bagerhat Sadar","id":3893,"area":312.0883611557927,"year":"2018","lastUpdated":"2018-07-13T20:10:40.659002","changesets":4115,"mappers":344,"roads":38.020758576469,"buildings":38533,"edits":39030,"latest":"2018-07-19T07:10:15.000Z"},"geometry":{"type":"Point","coordinates":[89.76075114269182,22.68450617961559]}},{"type":"Feature","properties":{"title":"Missing Maps : DRR programs in Ramna Union, Chilmari Upazila, Kurigram District, Bangladesh","id":1817,"area":20.940577932128985,"year":"2018","lastUpdated":"2018-03-05T16:15:33.763261","changesets":195,"mappers":19,"roads":67.2539227013279,"buildings":320,"edits":814,"latest":"2016-12-15T14:09:11.000Z"},"geometry":{"type":"Point","coordinates":[89.65631846414502,25.553206249992026]}},{"type":"Feature","properties":{"title":"Bangladesh Refugee Crisis - tracing roads","id":4198,"area":26.01173793152424,"year":"2018","lastUpdated":"2018-03-01T17:21:16.866625","changesets":27,"mappers":5,"roads":11.5605598876846,"buildings":236,"edits":725,"latest":"2018-06-25T18:37:36.000Z"},"geometry":{"type":"Point","coordinates":[92.15142228477168,21.198855763106042]}},{"type":"Feature","properties":{"title":"Missing Maps: Bangladesh, Barisal Sadar","id":3996,"area":225.84937469703172,"year":"2018","lastUpdated":"2018-07-11T02:45:06.659938","changesets":720,"mappers":73,"roads":9.99504338146927,"buildings":5634,"edits":5671,"latest":"2018-07-20T03:12:09.000Z"},"geometry":{"type":"Point","coordinates":[90.42363269833251,22.71271088802751]}},{"type":"Feature","properties":{"title":"Mapping Flood Affected Communities in Bangladesh (Panchagarh, Rangpur)","id":3630,"area":1368.7065038384933,"year":"2018","lastUpdated":"2018-07-15T04:10:24.043617","changesets":23674,"mappers":1092,"roads":17117.7137843707,"buildings":931486,"edits":1068245,"latest":"2018-07-17T07:59:54.000Z"},"geometry":{"type":"Point","coordinates":[88.57763249131968,26.281538436679263]}},{"type":"Feature","properties":{"title":"Missing Maps: Kurigram, Bangladesh 1","id":3673,"area":899.6888154386502,"year":"2018","lastUpdated":"2018-05-23T16:18:41.175715","changesets":6905,"mappers":621,"roads":2965.45054126262,"buildings":154468,"edits":180500,"latest":"2018-05-23T16:14:39.000Z"},"geometry":{"type":"Point","coordinates":[89.62334722342436,25.75424485136106]}},{"type":"Feature","properties":{"title":"Missing Maps: Barguna Sadar Northeast, Bangladesh","id":4005,"area":184.33000832032738,"year":"2018","lastUpdated":"2018-06-23T03:59:46.493734","changesets":2021,"mappers":248,"roads":593.870625202452,"buildings":45276,"edits":48143,"latest":"2018-06-10T10:51:20.000Z"},"geometry":{"type":"Point","coordinates":[90.1363679961483,22.208016999259193]}},{"type":"Feature","properties":{"title":"Missing Maps : DRR programs in Saheber Alga Union, Ulipur Upazila, Kurigram District, Bangladesh","id":1818,"area":97.48155864176962,"year":"2018","lastUpdated":"2018-03-04T20:57:42.908531","changesets":228,"mappers":31,"roads":180.857092520079,"buildings":800,"edits":2349,"latest":"2018-03-16T03:43:31.000Z"},"geometry":{"type":"Point","coordinates":[89.7909826017373,25.70869189988306]}},{"type":"Feature","properties":{"title":"Missing Maps: Satkhira Sadar, Bangladesh","id":4041,"area":399.8501115432759,"year":"2018","lastUpdated":"2018-07-16T04:54:45.087832","changesets":4934,"mappers":279,"roads":233.459320389908,"buildings":31141,"edits":32583,"latest":"2018-07-19T06:34:56.000Z"},"geometry":{"type":"Point","coordinates":[89.05253745620976,22.707803902573772]}},{"type":"Feature","properties":{"title":"Missing Maps: Kurigram, Bangladesh 2","id":3676,"area":829.0799917696243,"year":"2018","lastUpdated":"2018-06-07T10:57:56.933225","changesets":4930,"mappers":318,"roads":2250.49207038612,"buildings":100338,"edits":114209,"latest":"2018-06-24T21:06:40.000Z"},"geometry":{"type":"Point","coordinates":[89.66051668875406,26.013500102413367]}}],"Colombia":[{"type":"Feature","properties":{"title":"Missing Maps Cha, Colombia","id":3843,"area":80.24575328583315,"year":"2018","lastUpdated":"2018-05-21T14:24:39.547176","changesets":669,"mappers":109,"roads":97.3735764179493,"buildings":33190,"edits":35125,"latest":"2018-05-21T14:21:31.000Z"},"geometry":{"type":"Point","coordinates":[-74.06502720128937,4.872928354104189]}},{"type":"Feature","properties":{"title":"Camarones, La Guajira, Colombia","id":3663,"area":116.46137846578915,"year":"2018","lastUpdated":"2018-03-05T22:20:06.489833","changesets":115,"mappers":4,"roads":13.9399434217693,"buildings":1657,"edits":1818,"latest":"2018-03-05T23:24:20.000Z"},"geometry":{"type":"Point","coordinates":[-73.13468169956465,11.390174652872478]}},{"type":"Feature","properties":{"title":"Missing Maps: Bucaramanga, Colombia","id":3975,"area":119.77785243564033,"year":"2018","lastUpdated":"2018-07-13T19:50:41.239988","changesets":3188,"mappers":516,"roads":369.632908375653,"buildings":55931,"edits":70931,"latest":"2018-07-18T19:29:58.000Z"},"geometry":{"type":"Point","coordinates":[-73.15325064346113,7.122835518515928]}},{"type":"Feature","properties":{"title":"Missing Maps: Tunja, Colombia","id":3976,"area":31.307113482258835,"year":"2018","lastUpdated":"2018-07-04T16:32:43.405479","changesets":2473,"mappers":364,"roads":129.445487055638,"buildings":21324,"edits":24459,"latest":"2018-07-04T16:32:29.000Z"},"geometry":{"type":"Point","coordinates":[-73.35189247154187,5.539283324982605]}},{"type":"Feature","properties":{"title":"Missing Maps - Zipaquira, Colombia","id":3786,"area":10.789092098304573,"year":"2018","lastUpdated":"2018-04-15T00:21:21.901415","changesets":406,"mappers":97,"roads":36.9449687172814,"buildings":6195,"edits":7473,"latest":"2018-05-31T23:34:47.000Z"},"geometry":{"type":"Point","coordinates":[-73.99537652091746,5.022699167137118]}},{"type":"Feature","properties":{"title":"Missing Maps: Ibague, Colombia Field Mapping","id":4514,"area":0.6151298721887227,"year":"2018","lastUpdated":"2018-05-11T15:21:41.168633","changesets":72,"mappers":14,"roads":1.51231289651382,"buildings":559,"edits":638,"latest":"2018-05-11T19:26:07.000Z"},"geometry":{"type":"Point","coordinates":[-75.24442863464355,4.44838671944408]}},{"type":"Feature","properties":{"title":"Riohacha, La Guajira, Colombia","id":3664,"area":706.7545854657328,"year":"2017","lastUpdated":"2017-11-18T00:07:57.329036","changesets":163,"mappers":6,"roads":11.4435775851385,"buildings":5171,"edits":5221,"latest":"2017-11-18T00:07:43.000Z"},"geometry":{"type":"Point","coordinates":[-72.99279784318057,11.440059132768244]}},{"type":"Feature","properties":{"title":"San Bernardo del Viento (Playas Del Vie), Cordoba, Colombia","id":3669,"area":17.787992576833208,"year":"2017","lastUpdated":"2017-10-07T20:47:49.206215","changesets":234,"mappers":1,"roads":27.7845701551794,"buildings":2475,"edits":2991,"latest":"2017-10-07T20:47:27.000Z"},"geometry":{"type":"Point","coordinates":[-76.06482267379761,9.328583987041181]}},{"type":"Feature","properties":{"title":"Missing Maps: Ibague, Colombia","id":3965,"area":117.23362586407669,"year":"2018","lastUpdated":"2018-07-14T16:05:25.620359","changesets":788,"mappers":168,"roads":37.5596831636957,"buildings":13794,"edits":15395,"latest":"2018-07-17T06:00:34.000Z"},"geometry":{"type":"Point","coordinates":[-75.19818443213875,4.41564719298531]}},{"type":"Feature","properties":{"title":"Mapazonia - Colombia","id":832,"area":690.898396867306,"year":"2017","lastUpdated":"2017-09-28T15:37:06.735603","changesets":764,"mappers":55,"roads":492.215020523994,"buildings":1314,"edits":2950,"latest":"2018-03-05T01:14:42.000Z"},"geometry":{"type":"Point","coordinates":[-70.22342457490808,-0.6984115923373332]}},{"type":"Feature","properties":{"title":"Mt. Galeras, Colombia - Northern Cities at Risk","id":2783,"area":7.072281312205303,"year":"2018","lastUpdated":"2018-02-18T19:31:14.669705","changesets":244,"mappers":40,"roads":87.4910902112722,"buildings":2413,"edits":3234,"latest":"2018-03-05T23:31:29.000Z"},"geometry":{"type":"Point","coordinates":[-77.4152804023831,1.2881687207079593]}}],"Myanmar":[{"type":"Feature","properties":{"title":"Missing Maps: Ngapudaw, Myanmar 2","id":3806,"area":652.3206626780748,"year":"2018","lastUpdated":"2018-07-19T15:10:14.112708","changesets":1534,"mappers":117,"roads":81.7876464706146,"buildings":26767,"edits":27772,"latest":"2018-07-19T15:11:18.000Z"},"geometry":{"type":"Point","coordinates":[94.31737836647596,16.14798338988928]}},{"type":"Feature","properties":{"title":"Missing Maps: Labutta, Myanmar 3","id":3386,"area":373.1056268617442,"year":"2018","lastUpdated":"2018-07-19T07:31:36.966880","changesets":1931,"mappers":134,"roads":15.5064337809278,"buildings":13190,"edits":13316,"latest":"2018-07-19T07:31:18.000Z"},"geometry":{"type":"Point","coordinates":[94.79759102792904,16.08252873021875]}},{"type":"Feature","properties":{"title":"Missing Maps: Bogale, Myanmar #4","id":3342,"area":593.1290218907964,"year":"2018","lastUpdated":"2018-06-01T19:59:12.280421","changesets":0,"mappers":0,"roads":0,"buildings":0,"edits":0,"latest":null},"geometry":{"type":"Point","coordinates":[95.4855453430372,16.36719776005521]}},{"type":"Feature","properties":{"title":"Missing Maps: Ngapudaw, Myanmar 1","id":3805,"area":508.49199390467567,"year":"2018","lastUpdated":"2018-06-30T17:36:16.785636","changesets":1807,"mappers":209,"roads":158.998400906368,"buildings":33984,"edits":35600,"latest":"2018-06-30T17:36:20.000Z"},"geometry":{"type":"Point","coordinates":[94.50486943039517,16.038227817980086]}},{"type":"Feature","properties":{"title":"Missing Maps: Labutta, Myanmar 6","id":3746,"area":644.8385307654016,"year":"2018","lastUpdated":"2018-07-07T10:33:38.127202","changesets":0,"mappers":0,"roads":0,"buildings":0,"edits":0,"latest":null},"geometry":{"type":"Point","coordinates":[94.95503384677184,16.230090840628222]}},{"type":"Feature","properties":{"title":"Mapping in Hinthada, Myanmar - SA","id":393,"area":50.28323501377532,"year":"2017","lastUpdated":"2017-01-23T06:01:27.148954","changesets":279,"mappers":21,"roads":288.575860772088,"buildings":1937,"edits":4227,"latest":"2017-10-31T21:38:59.000Z"},"geometry":{"type":"Point","coordinates":[95.45016287428109,17.639847946541124]}},{"type":"Feature","properties":{"title":"Missing Maps: Einme, Myanmar (urban)","id":3800,"area":49.63739406582481,"year":"2018","lastUpdated":"2018-07-18T12:44:03.291336","changesets":1178,"mappers":143,"roads":79.1557303153475,"buildings":11260,"edits":11980,"latest":"2018-07-18T12:44:35.000Z"},"geometry":{"type":"Point","coordinates":[95.17556002525589,16.880881723448706]}},{"type":"Feature","properties":{"title":"Missing Maps: Mawlamyinegyun, Myanmar #1","id":3688,"area":267.95522733398417,"year":"2018","lastUpdated":"2018-07-19T07:03:50.101519","changesets":626,"mappers":100,"roads":9.92578145649791,"buildings":8026,"edits":8118,"latest":"2018-07-19T07:03:51.000Z"},"geometry":{"type":"Point","coordinates":[95.10533091768269,16.22352191657049]}},{"type":"Feature","properties":{"title":"Missing Maps: Mawlamyinegyun, Myanmar #3","id":3690,"area":322.9882438277988,"year":"2018","lastUpdated":"2018-07-05T15:20:13.483276","changesets":1942,"mappers":181,"roads":29.6298196684691,"buildings":12578,"edits":12992,"latest":"2018-07-05T15:20:09.000Z"},"geometry":{"type":"Point","coordinates":[95.24830035626566,16.231394047635167]}},{"type":"Feature","properties":{"title":"Missing Maps: Ngapudaw, Myanmar 3","id":3807,"area":439.83707595362574,"year":"2018","lastUpdated":"2018-07-05T14:43:35.420259","changesets":1858,"mappers":184,"roads":182.150698604019,"buildings":28250,"edits":30318,"latest":"2018-07-05T14:43:13.000Z"},"geometry":{"type":"Point","coordinates":[94.59767165733061,16.392480203982295]}},{"type":"Feature","properties":{"title":"Missing Maps: Pyapon, Myanmar #1","id":3335,"area":704.0196862171777,"year":"2018","lastUpdated":"2018-07-06T15:57:50.231245","changesets":0,"mappers":0,"roads":0,"buildings":0,"edits":0,"latest":null},"geometry":{"type":"Point","coordinates":[95.35416484539562,15.788094481146144]}},{"type":"Feature","properties":{"title":"Mapping in Hpa-an, Myanmar - SA activities","id":368,"area":21.979402938789597,"year":"2017","lastUpdated":"2017-09-19T18:35:38.582658","changesets":252,"mappers":9,"roads":505.936266559858,"buildings":3574,"edits":6792,"latest":"2017-10-28T18:58:25.000Z"},"geometry":{"type":"Point","coordinates":[97.64815805984709,16.868976951016524]}},{"type":"Feature","properties":{"title":"Missing Maps: Bogale, Myanmar #3","id":3341,"area":612.1244332514444,"year":"2018","lastUpdated":"2018-05-18T20:00:04.398976","changesets":0,"mappers":0,"roads":0,"buildings":0,"edits":0,"latest":null},"geometry":{"type":"Point","coordinates":[95.44780623211966,16.176964059755683]}},{"type":"Feature","properties":{"title":"Missing Maps: Dedaye, Myanmar 2","id":2707,"area":814.8331310981501,"year":"2018","lastUpdated":"2018-06-22T01:42:19.412421","changesets":2994,"mappers":266,"roads":77.4178403737413,"buildings":38148,"edits":38297,"latest":"2018-07-04T07:32:30.000Z"},"geometry":{"type":"Point","coordinates":[95.81079574150014,16.599072163901482]}},{"type":"Feature","properties":{"title":"Missing Maps: Dedaye, Myanmar 1","id":2706,"area":809.9455898992657,"year":"2018","lastUpdated":"2018-05-18T10:39:50.568810","changesets":4192,"mappers":356,"roads":1176.27399986251,"buildings":43738,"edits":54201,"latest":"2018-05-18T10:39:26.000Z"},"geometry":{"type":"Point","coordinates":[95.8048121552763,16.27192844353421]}}],"Philippines":[{"type":"Feature","properties":{"title":"UP-NOAH Mapping Campuses (UP Mindanao)","id":3791,"area":3.6910639697608496,"year":"2017","lastUpdated":"2017-11-29T16:06:57.989146","changesets":0,"mappers":0,"roads":0,"buildings":0,"edits":0,"latest":null},"geometry":{"type":"Point","coordinates":[125.48628379471575,7.085765528020958]}},{"type":"Feature","properties":{"title":"UP-NOAH Mapping Campuses (UP Cebu South Road Properties)","id":3469,"area":11.024467091991225,"year":"2017","lastUpdated":"2017-11-06T01:57:47.533670","changesets":0,"mappers":0,"roads":0,"buildings":0,"edits":0,"latest":null},"geometry":{"type":"Point","coordinates":[123.86829185485836,10.27304070045319]}},{"type":"Feature","properties":{"title":"General Santos City, Philippines","id":504,"area":41.853759664341574,"year":"2017","lastUpdated":"2017-07-08T15:36:20.240838","changesets":481,"mappers":30,"roads":10.7887344161379,"buildings":6340,"edits":6581,"latest":"2017-10-09T10:12:54.000Z"},"geometry":{"type":"Point","coordinates":[125.16863199233184,6.1257869184930644]}},{"type":"Feature","properties":{"title":"DOST-Project NOAH (ISAIAH) Structures Map Up Samar Island","id":2033,"area":28583.05346594204,"year":"2017","lastUpdated":"2017-08-30T11:21:52.786696","changesets":0,"mappers":0,"roads":0,"buildings":0,"edits":0,"latest":null},"geometry":{"type":"Point","coordinates":[125.07863703216962,11.8290817532419]}},{"type":"Feature","properties":{"title":"DOST-Project NOAH (ISAIAH) Structures Map Up Ilocos Sur","id":2008,"area":4406.481445663697,"year":"2017","lastUpdated":"2017-02-17T02:28:23.354580","changesets":0,"mappers":0,"roads":0,"buildings":0,"edits":0,"latest":null},"geometry":{"type":"Point","coordinates":[120.58246795429858,17.199380731674214]}},{"type":"Feature","properties":{"title":"DOST-Project NOAH (ISAIAH) Structures Map Up Bataan","id":1888,"area":2696.6107231235264,"year":"2017","lastUpdated":"2017-02-23T06:42:12.922735","changesets":0,"mappers":0,"roads":0,"buildings":0,"edits":0,"latest":null},"geometry":{"type":"Point","coordinates":[120.48423503270136,14.765015538388617]}},{"type":"Feature","properties":{"title":"CRS-UP NOAH Building Footprints Mapping - Marilao, Bulacan","id":4474,"area":28.509141928904054,"year":"2018","lastUpdated":"2018-06-18T18:48:42.184656","changesets":634,"mappers":14,"roads":16.086328379399,"buildings":22087,"edits":22879,"latest":"2018-06-19T02:49:51.000Z"},"geometry":{"type":"Point","coordinates":[120.98346576955595,14.773807306456357]}},{"type":"Feature","properties":{"title":"CRS-UP NOAH Building Footprints Mapping - Malabon City (Free for All)","id":4306,"area":0.8869727357098613,"year":"2018","lastUpdated":"2018-03-16T08:07:15.295915","changesets":11,"mappers":2,"roads":0,"buildings":86,"edits":86,"latest":"2018-03-18T13:04:12.000Z"},"geometry":{"type":"Point","coordinates":[120.96156142151258,14.659111625361861]}},{"type":"Feature","properties":{"title":"CRS-UP NOAH Building Footprints Mapping - Malabon City","id":4475,"area":15.859280000650813,"year":"2018","lastUpdated":"2018-07-19T20:06:36.027116","changesets":353,"mappers":6,"roads":0.382114057970354,"buildings":10718,"edits":10823,"latest":"2018-07-19T20:05:23.000Z"},"geometry":{"type":"Point","coordinates":[120.9674154212251,14.667902897859918]}},{"type":"Feature","properties":{"title":"CRS-UP NOAH Building Footprints Mapping - Cainta, Rizal","id":4185,"area":21.097166623656076,"year":"2018","lastUpdated":"2018-07-07T13:11:08.376941","changesets":482,"mappers":19,"roads":3.96698544369421,"buildings":3227,"edits":3731,"latest":"2018-07-14T13:45:52.000Z"},"geometry":{"type":"Point","coordinates":[121.11694341377957,14.595807431682541]}},{"type":"Feature","properties":{"title":"CRS-UP NOAH Building Footprints Mapping - Navotas City","id":4044,"area":10.600105663830165,"year":"2018","lastUpdated":"2018-03-08T02:29:27.821773","changesets":1,"mappers":1,"roads":0,"buildings":0,"edits":2,"latest":"2018-03-22T20:25:17.000Z"},"geometry":{"type":"Point","coordinates":[120.93501364287877,14.667356142422948]}},{"type":"Feature","properties":{"title":"Laguna, PH - Missing Roads","id":4015,"area":5.171315826889603,"year":"2018","lastUpdated":"2018-07-06T06:21:50.575882","changesets":17519513,"mappers":800890,"roads":11451805.1546877,"buildings":283518019,"edits":364104421,"latest":"2018-07-20T05:30:56.000Z"},"geometry":{"type":"Point","coordinates":[121.15472656621479,14.236294460036506]}},{"type":"Feature","properties":{"title":"Cagayan Valley, PH - Missing Roads","id":4219,"area":2.940942559638417,"year":"2018","lastUpdated":"2018-07-06T06:27:32.983505","changesets":17519513,"mappers":800890,"roads":11451805.1546877,"buildings":283518019,"edits":364104421,"latest":"2018-07-20T05:30:56.000Z"},"geometry":{"type":"Point","coordinates":[121.68249184541031,17.195568942139595]}},{"type":"Feature","properties":{"title":"Eastern Visayas, PH - Missing Roads","id":4225,"area":0.9011879212974336,"year":"2018","lastUpdated":"2018-07-06T06:28:56.119206","changesets":17519513,"mappers":800890,"roads":11451805.1546877,"buildings":283518019,"edits":364104421,"latest":"2018-07-20T05:30:56.000Z"},"geometry":{"type":"Point","coordinates":[124.82231154030616,11.386736510106921]}},{"type":"Feature","properties":{"title":"Pampanga, PH - Missing Roads","id":4018,"area":7.393817777829668,"year":"2018","lastUpdated":"2018-07-06T06:22:22.732956","changesets":17519513,"mappers":800890,"roads":11451805.1546877,"buildings":283518019,"edits":364104421,"latest":"2018-07-20T05:30:56.000Z"},"geometry":{"type":"Point","coordinates":[120.60901479206947,15.12644299857575]}},{"type":"Feature","properties":{"title":"Northern Mindanao, PH - Missing Roads","id":4216,"area":3.6160059552083452,"year":"2018","lastUpdated":"2018-07-14T13:38:20.690150","changesets":17519513,"mappers":800890,"roads":11451805.1546877,"buildings":283518019,"edits":364104421,"latest":"2018-07-20T05:30:56.000Z"},"geometry":{"type":"Point","coordinates":[124.49225405560671,8.340059475782704]}},{"type":"Feature","properties":{"title":"Zamboanga Peninsula, PH - Missing Roads","id":4217,"area":6.634273132943503,"year":"2018","lastUpdated":"2018-07-14T12:02:08.918065","changesets":17519513,"mappers":800890,"roads":11451805.1546877,"buildings":283518019,"edits":364104421,"latest":"2018-07-20T05:30:56.000Z"},"geometry":{"type":"Point","coordinates":[122.907009764677,7.903860363457329]}},