{"totalEdits":43257374,"totalBuildings":35897671,"totalRoads":911694.425195413,"mappersOnline":102,"totalTasksMapped":1723173,"totalMappers":147525,"totalProjects":4230,"Indonesia":[{"type":"Feature","properties":{"id":3032,"title":"Missing Maps: Cengkareng Sub Districs #PDC Jakarta","status":"ARCHIVED","created":"2017","lastUpdated":"2017","lastActive":"no","area":25.82857150432463,"changesets":866,"mappers":16,"roads":8.1098523832297,"buildings":77439,"edits":80659,"latest":"2017-11-07T08:20:40.000Z"},"geometry":{"type":"Point","coordinates":[106.736991116163,-6.15144367320129]}},{"type":"Feature","properties":{"id":203,"title":"North Jakarta Red Cross / Tulane Mapping","status":"ARCHIVED","created":"2013","lastUpdated":"2014","lastActive":"no","area":14.38620966520452,"changesets":63,"mappers":17,"roads":12.7283050193669,"buildings":441,"edits":723,"latest":"2018-07-24T03:54:44.000Z"},"geometry":{"type":"Point","coordinates":[106.822365678629,-6.12330978046749]}},{"type":"Feature","properties":{"id":1012,"title":"Aktivitas Pengumpulan Data di sekitar Danau Tempe dan Ancaman Gempa Bumi ","status":"PUBLISHED","created":"2015","lastUpdated":"2015","lastActive":"no","area":8700.19532526336,"changesets":83,"mappers":5,"roads":149.429711120035,"buildings":6158,"edits":7632,"latest":"2015-07-15T09:20:41.000Z"},"geometry":{"type":"Point","coordinates":[119.961295180703,-4.18428036387788]}},{"type":"Feature","properties":{"id":2748,"title":"Missing Maps: Senen Sub Districs #PDC Jakarta","status":"ARCHIVED","created":"2017","lastUpdated":"2017","lastActive":"no","area":4.380864638256325,"changesets":147,"mappers":4,"roads":20.1052342060612,"buildings":9397,"edits":11318,"latest":"2017-07-19T06:02:29.000Z"},"geometry":{"type":"Point","coordinates":[106.845942265554,-6.18433938607949]}},{"type":"Feature","properties":{"id":557,"title":"Training BPBD Lembata","status":"PUBLISHED","created":"2014","lastUpdated":"2014","lastActive":"no","area":24.269262834900626,"changesets":0,"mappers":0,"roads":0,"buildings":0,"edits":0,"latest":null},"geometry":{"type":"Point","coordinates":[123.433717781495,-8.3741741873601]}},{"type":"Feature","properties":{"id":3028,"title":"Missing Maps: Kebayoran Lama Sub Districs #PDC Jakarta","status":"ARCHIVED","created":"2017","lastUpdated":"2017","lastActive":"no","area":19.26976843037759,"changesets":335,"mappers":8,"roads":62.00245880754,"buildings":47777,"edits":51474,"latest":"2017-09-27T03:17:09.000Z"},"geometry":{"type":"Point","coordinates":[106.780207081608,-6.25004536188288]}},{"type":"Feature","properties":{"id":4834,"title":"Missing Maps: Central Java, Temanggung, Indonesia","status":"PUBLISHED","created":"2018","lastUpdated":"2018","lastActive":"no","area":885.5336623943101,"changesets":3849,"mappers":214,"roads":84.4047033460476,"buildings":43860,"edits":44491,"latest":"2018-11-22T16:13:08.000Z"},"geometry":{"type":"Point","coordinates":[110.140014215434,-7.25939687669742]}},{"type":"Feature","properties":{"id":2683,"title":"Missing Maps: Pancoran Sub Districs #PDC Jakarta","status":"ARCHIVED","created":"2017","lastUpdated":"2017","lastActive":"no","area":8.932455561387133,"changesets":1195,"mappers":5,"roads":146.859901413294,"buildings":51134,"edits":59754,"latest":"2017-08-09T02:24:30.000Z"},"geometry":{"type":"Point","coordinates":[106.843665402227,-6.25528917297567]}},{"type":"Feature","properties":{"id":2685,"title":"Missing Maps: Setiabudi Sub Districs #PDCJakarta","status":"ARCHIVED","created":"2017","lastUpdated":"2017","lastActive":"no","area":8.932975151497558,"changesets":688,"mappers":5,"roads":46.1882909657013,"buildings":23820,"edits":30885,"latest":"2017-08-07T16:17:37.000Z"},"geometry":{"type":"Point","coordinates":[106.829944052177,-6.21961131960167]}},{"type":"Feature","properties":{"id":3036,"title":"Missing Maps: Kelapa Gading Sub Districs #PDC Jakarta","status":"ARCHIVED","created":"2017","lastUpdated":"2017","lastActive":"no","area":15.528538143753476,"changesets":117,"mappers":4,"roads":149.40801202277,"buildings":31103,"edits":37501,"latest":"2017-10-02T03:57:46.000Z"},"geometry":{"type":"Point","coordinates":[106.903887020811,-6.16149093687374]}},{"type":"Feature","properties":{"id":2691,"title":"Missing Maps: Cempaka Putih Sub Districs #PDCJakarta","status":"ARCHIVED","created":"2017","lastUpdated":"2017","lastActive":"no","area":4.778549026419479,"changesets":434,"mappers":19,"roads":59.0535390938455,"buildings":19115,"edits":22286,"latest":"2017-08-12T05:38:39.000Z"},"geometry":{"type":"Point","coordinates":[106.868155693381,-6.18091922866915]}},{"type":"Feature","properties":{"id":2689,"title":"Missing Maps: Menteng Sub Districs #PDCJakarta","status":"ARCHIVED","created":"2017","lastUpdated":"2017","lastActive":"no","area":6.49624219448772,"changesets":218,"mappers":7,"roads":31.9405292719671,"buildings":12253,"edits":16293,"latest":"2017-07-19T03:15:12.000Z"},"geometry":{"type":"Point","coordinates":[106.835377701302,-6.19598238539176]}},{"type":"Feature","properties":{"id":2687,"title":"Missing Maps: Jatinegara Sub Districs #PDCJakarta","status":"ARCHIVED","created":"2017","lastUpdated":"2017","lastActive":"no","area":10.387964772587344,"changesets":411,"mappers":8,"roads":34.1880286676881,"buildings":32672,"edits":35555,"latest":"2017-07-04T03:37:09.000Z"},"geometry":{"type":"Point","coordinates":[106.877440010053,-6.22742244071777]}},{"type":"Feature","properties":{"id":896,"title":"Data Preparedness Activity in Kabupaten Situbondo, East Java, Indonesia","status":"PUBLISHED","created":"2015","lastUpdated":"2018","lastActive":"no","area":1673.1534225044552,"changesets":44,"mappers":8,"roads":27.4505932486567,"buildings":4059,"edits":4229,"latest":"2018-08-07T23:11:48.000Z"},"geometry":{"type":"Point","coordinates":[114.052435183027,-7.80132659749921]}},{"type":"Feature","properties":{"id":3021,"title":"Missing Maps: Kali Deres Sub Districs #PDC Jakarta","status":"ARCHIVED","created":"2017","lastUpdated":"2017","lastActive":"no","area":29.932357603667022,"changesets":1472,"mappers":7,"roads":51.32161785343,"buildings":63634,"edits":68367,"latest":"2017-11-09T10:14:00.000Z"},"geometry":{"type":"Point","coordinates":[106.703602395224,-6.13440116229757]}},{"type":"Feature","properties":{"id":1031,"title":"Aktivitas Pengumpulan Data di Kabupaten Timor Tengah Utara (TTU)","status":"PUBLISHED","created":"2015","lastUpdated":"2015","lastActive":"no","area":2631.88847539912,"changesets":9,"mappers":2,"roads":1.51273446172416,"buildings":70,"edits":150,"latest":"2015-05-11T10:23:20.000Z"},"geometry":{"type":"Point","coordinates":[124.569651212504,-9.37751060730675]}},{"type":"Feature","properties":{"id":2682,"title":"Missing Maps: Mampang Prapatan Sub Districs #PDC Jakarta","status":"ARCHIVED","created":"2017","lastUpdated":"2017","lastActive":"no","area":7.937678176628443,"changesets":322,"mappers":8,"roads":27.7159762684502,"buildings":34460,"edits":37381,"latest":"2017-09-25T07:37:28.000Z"},"geometry":{"type":"Point","coordinates":[106.821002574256,-6.25223001999702]}},{"type":"Feature","properties":{"id":3019,"title":"Missing Maps: Kebon Jeruk Sub Districs #PDC Jakarta","status":"ARCHIVED","created":"2017","lastUpdated":"2017","lastActive":"no","area":17.71909348698738,"changesets":224,"mappers":4,"roads":9.78093330678165,"buildings":101072,"edits":104973,"latest":"2017-09-18T03:31:36.000Z"},"geometry":{"type":"Point","coordinates":[106.769120917933,-6.18966735903269]}},{"type":"Feature","properties":{"id":454,"title":"Help digitize buildings & roads for better emergency response in Mt. Slamet ","status":"PUBLISHED","created":"2014","lastUpdated":"2018","lastActive":"no","area":6.940715703178464,"changesets":0,"mappers":0,"roads":0,"buildings":0,"edits":0,"latest":null},"geometry":{"type":"Point","coordinates":[109.216043387363,-7.24129473882666]}},{"type":"Feature","properties":{"id":561,"title":"Bukittinggi","status":"PUBLISHED","created":"2014","lastUpdated":"2018","lastActive":"no","area":22.79253327213511,"changesets":0,"mappers":0,"roads":0,"buildings":0,"edits":0,"latest":null},"geometry":{"type":"Point","coordinates":[100.372733667836,-0.298313971675028]}},{"type":"Feature","properties":{"id":3025,"title":"Missing Maps: Cilandak Sub Districs #PDC Jakarta","status":"ARCHIVED","created":"2017","lastUpdated":"2017","lastActive":"no","area":17.826440731180615,"changesets":183,"mappers":4,"roads":28.6590632722901,"buildings":26772,"edits":28477,"latest":"2017-09-18T02:21:25.000Z"},"geometry":{"type":"Point","coordinates":[106.793307284061,-6.29318797958196]}},{"type":"Feature","properties":{"id":3031,"title":"Missing Maps: Grogol Petamburan Sub Districs #PDC Jakarta","status":"ARCHIVED","created":"2017","lastUpdated":"2017","lastActive":"no","area":10.805656337791167,"changesets":218,"mappers":5,"roads":3.98900637661907,"buildings":47671,"edits":49629,"latest":"2017-10-03T12:21:38.000Z"},"geometry":{"type":"Point","coordinates":[106.786483931117,-6.16359030555416]}},{"type":"Feature","properties":{"id":3023,"title":"Missing Maps: Jagakarsa Sub Districs #PDC Jakarta","status":"ARCHIVED","created":"2017","lastUpdated":"2018","lastActive":"no","area":25.42210309140762,"changesets":402,"mappers":4,"roads":291.254137097454,"buildings":60355,"edits":74341,"latest":"2017-09-27T08:09:19.000Z"},"geometry":{"type":"Point","coordinates":[106.822686971367,-6.33345822843127]}},{"type":"Feature","properties":{"id":3027,"title":"Missing Maps: Kebayoran Baru Sub Districs #PDC Jakarta","status":"ARCHIVED","created":"2017","lastUpdated":"2017","lastActive":"no","area":12.766082803531393,"changesets":306,"mappers":16,"roads":4.65841257609875,"buildings":25429,"edits":27872,"latest":"2017-11-08T08:22:59.000Z"},"geometry":{"type":"Point","coordinates":[106.801459859383,-6.2447259415702]}},{"type":"Feature","properties":{"id":3029,"title":"Missing Maps: Ciracas Sub Districs #PDC Jakarta","status":"ARCHIVED","created":"2017","lastUpdated":"2017","lastActive":"no","area":16.66387875779246,"changesets":490,"mappers":7,"roads":211.138527419401,"buildings":57133,"edits":67829,"latest":"2017-10-25T03:29:42.000Z"},"geometry":{"type":"Point","coordinates":[106.878465483458,-6.33393509009654]}},{"type":"Feature","properties":{"id":2574,"title":"OpenStreetMap Training for Develop Risk Assessment Document in Jepara","status":"ARCHIVED","created":"2017","lastUpdated":"2017","lastActive":"no","area":1032.1322834117457,"changesets":0,"mappers":0,"roads":0,"buildings":0,"edits":0,"latest":null},"geometry":{"type":"Point","coordinates":[110.767674520483,-6.54866199966636]}},{"type":"Feature","properties":{"id":864,"title":"Data Preparedness Activity in Kabupaten Sampang, East Java, Indonesia","status":"PUBLISHED","created":"2015","lastUpdated":"2017","lastActive":"no","area":1233.9947430769478,"changesets":51,"mappers":18,"roads":21.219693482163,"buildings":1416,"edits":1570,"latest":"2018-07-02T15:44:18.000Z"},"geometry":{"type":"Point","coordinates":[113.256290393311,-7.05190931095301]}},{"type":"Feature","properties":{"id":1032,"title":"Mapping Activity in Nagekeo District, NTT","status":"PUBLISHED","created":"2015","lastUpdated":"2015","lastActive":"no","area":1450.2407534924623,"changesets":0,"mappers":0,"roads":0,"buildings":0,"edits":0,"latest":null},"geometry":{"type":"Point","coordinates":[121.269705764205,-8.68766778892447]}},{"type":"Feature","properties":{"id":3017,"title":"Missing Maps: Pasar Rebo Sub Districs #PDC Jakarta","status":"ARCHIVED","created":"2017","lastUpdated":"2017","lastActive":"no","area":12.342260215364801,"changesets":351,"mappers":5,"roads":10.8466904443053,"buildings":37866,"edits":39283,"latest":"2017-10-06T07:49:46.000Z"},"geometry":{"type":"Point","coordinates":[106.857470769184,-6.3271561630854]}},{"type":"Feature","properties":{"id":3037,"title":"Missing Maps: Cilincing Sub Districs #PDC Jakarta","status":"ARCHIVED","created":"2017","lastUpdated":"2017","lastActive":"no","area":41.17584204145506,"changesets":370,"mappers":7,"roads":44.6930557805136,"buildings":61048,"edits":65886,"latest":"2017-10-05T06:00:38.000Z"},"geometry":{"type":"Point","coordinates":[106.943262692355,-6.12798931279952]}},{"type":"Feature","properties":{"id":1013,"title":"Aktivitas Pengumpulan Data di Ancaman Gempa Bumi","status":"PUBLISHED","created":"2015","lastUpdated":"2018","lastActive":"no","area":12064.797843912818,"changesets":32,"mappers":3,"roads":44.8710683798205,"buildings":826,"edits":1174,"latest":"2018-10-01T16:08:41.000Z"},"geometry":{"type":"Point","coordinates":[120.769267743527,-2.5142859621583]}},{"type":"Feature","properties":{"id":4054,"title":"Missing Maps: Semarang Selatan Sub Districts #PDC Semarang","status":"ARCHIVED","created":"2018","lastUpdated":"2018","lastActive":"no","area":6.216206220761751,"changesets":317,"mappers":4,"roads":104.549294432283,"buildings":7273,"edits":9672,"latest":"2018-06-28T09:25:52.000Z"},"geometry":{"type":"Point","coordinates":[110.424620763431,-6.99694059104644]}},{"type":"Feature","properties":{"id":876,"title":"Data Preparedness Activity in Kabupaten Trenggalek, East Java, Indonesia","status":"PUBLISHED","created":"2015","lastUpdated":"2015","lastActive":"no","area":1255.0878808500752,"changesets":7,"mappers":2,"roads":2.21069754399156,"buildings":33,"edits":43,"latest":"2017-10-19T08:57:19.000Z"},"geometry":{"type":"Point","coordinates":[111.626325207439,-8.1619464284179]}},{"type":"Feature","properties":{"id":257,"title":"Latihan Digitasi Kabupaten Bantaeng","status":"PUBLISHED","created":"2013","lastUpdated":"2017","lastActive":"no","area":344.63955532746286,"changesets":154,"mappers":3,"roads":4.3118408176977,"buildings":238,"edits":326,"latest":"2018-04-12T07:17:37.000Z"},"geometry":{"type":"Point","coordinates":[119.870101937629,-5.53434628011739]}},{"type":"Feature","properties":{"id":412,"title":"Mount Sinabung #MissingMaps (OLD)","status":"ARCHIVED","created":"2014","lastUpdated":"2015","lastActive":"no","area":331.36753836001753,"changesets":5,"mappers":1,"roads":0.863819923847827,"buildings":79,"edits":85,"latest":"2018-02-02T00:32:09.000Z"},"geometry":{"type":"Point","coordinates":[98.386752025584,3.148426374796]}},{"type":"Feature","properties":{"id":238,"title":"Guntur_Garut","status":"ARCHIVED","created":"2013","lastUpdated":"2014","lastActive":"no","area":1033.3340642967473,"changesets":3,"mappers":1,"roads":0,"buildings":14,"edits":14,"latest":"2016-01-21T11:25:00.000Z"},"geometry":{"type":"Point","coordinates":[107.869024835263,-7.21340771141719]}},{"type":"Feature","properties":{"id":255,"title":"Latihan Digitasi","status":"ARCHIVED","created":"2013","lastUpdated":"2014","lastActive":"no","area":38.4512878111956,"changesets":62,"mappers":4,"roads":2.08669141848835,"buildings":739,"edits":832,"latest":"2018-04-20T04:29:20.000Z"},"geometry":{"type":"Point","coordinates":[119.443631705497,-5.41080889903856]}},{"type":"Feature","properties":{"id":235,"title":"PMI Beginner Training","status":"ARCHIVED","created":"2013","lastUpdated":"2014","lastActive":"no","area":2.861515775509014,"changesets":0,"mappers":0,"roads":0,"buildings":0,"edits":0,"latest":null},"geometry":{"type":"Point","coordinates":[106.834059522705,-6.24708390924862]}},{"type":"Feature","properties":{"id":242,"title":"Papandayan_Garut","status":"ARCHIVED","created":"2013","lastUpdated":"2014","lastActive":"no","area":1049.3592609346736,"changesets":0,"mappers":0,"roads":0,"buildings":0,"edits":0,"latest":null},"geometry":{"type":"Point","coordinates":[107.783160742384,-7.35616027202178]}},{"type":"Feature","properties":{"id":269,"title":"Latihan Digitasi Kepulauan Selayar","status":"PUBLISHED","created":"2013","lastUpdated":"2017","lastActive":"no","area":804.146953222781,"changesets":558,"mappers":22,"roads":701.420344598692,"buildings":2627,"edits":23639,"latest":"2018-01-04T08:23:44.000Z"},"geometry":{"type":"Point","coordinates":[120.490925789563,-6.10121746204323]}},{"type":"Feature","properties":{"id":271,"title":"Latihan Digitasi Gowa","status":"PUBLISHED","created":"2013","lastUpdated":"2014","lastActive":"no","area":281.11005048623855,"changesets":620,"mappers":22,"roads":671.739072762563,"buildings":7422,"edits":23411,"latest":"2018-01-04T09:08:25.000Z"},"geometry":{"type":"Point","coordinates":[119.4190063546,-5.30347272684608]}},{"type":"Feature","properties":{"id":300,"title":"The entire extent of July 2 earthquake zone (Above MMI5)","status":"PUBLISHED","created":"2013","lastUpdated":"2017","lastActive":"no","area":2961.7402540220824,"changesets":671,"mappers":25,"roads":731.527821867884,"buildings":346,"edits":4681,"latest":"2018-02-19T03:30:22.000Z"},"geometry":{"type":"Point","coordinates":[96.6923185835241,4.69253019250577]}},{"type":"Feature","properties":{"id":298,"title":"Aceh Project Area 3","status":"PUBLISHED","created":"2013","lastUpdated":"2014","lastActive":"no","area":6.038222593149481,"changesets":977,"mappers":25,"roads":181.102296015243,"buildings":129594,"edits":132711,"latest":"2018-06-17T05:12:39.000Z"},"geometry":{"type":"Point","coordinates":[96.7384395707381,4.68012683576516]}},{"type":"Feature","properties":{"id":96,"title":"North Padang","status":"PUBLISHED","created":"2012","lastUpdated":"2016","lastActive":"no","area":24.10763674645945,"changesets":186,"mappers":12,"roads":42.0964925786796,"buildings":62221,"edits":62949,"latest":"2017-09-27T07:44:21.000Z"},"geometry":{"type":"Point","coordinates":[100.349105833386,-0.871349778820838]}},{"type":"Feature","properties":{"id":2810,"title":"Missing Maps: Cakung Sub Districs #PDC Jakarta","status":"ARCHIVED","created":"2017","lastUpdated":"2017","lastActive":"no","area":40.6731416648683,"changesets":928,"mappers":4,"roads":41.6128199606069,"buildings":102543,"edits":108164,"latest":"2017-09-12T04:31:11.000Z"},"geometry":{"type":"Point","coordinates":[106.940749285978,-6.18934724786333]}},{"type":"Feature","properties":{"id":2753,"title":"Missing Maps: Palmerah Sub Districs #PDC Jakarta","status":"ARCHIVED","created":"2017","lastUpdated":"2017","lastActive":"no","area":7.419272470955236,"changesets":800,"mappers":6,"roads":165.927571905199,"buildings":31494,"edits":41934,"latest":"2017-08-11T08:17:08.000Z"},"geometry":{"type":"Point","coordinates":[106.795578582719,-6.19175678087728]}},{"type":"Feature","properties":{"id":563,"title":"Training Institut Teknologi Medan","status":"PUBLISHED","created":"2014","lastUpdated":"2017","lastActive":"no","area":112.12145232801778,"changesets":0,"mappers":0,"roads":0,"buildings":0,"edits":0,"latest":null},"geometry":{"type":"Point","coordinates":[98.6762461832554,3.57004939198182]}},{"type":"Feature","properties":{"id":577,"title":"Indonesian Red Cross Flood Risk Mapping (Bidara Cina)","status":"PUBLISHED","created":"2014","lastUpdated":"2014","lastActive":"no","area":3.31536323642304,"changesets":0,"mappers":0,"roads":0,"buildings":0,"edits":0,"latest":null},"geometry":{"type":"Point","coordinates":[106.870534807231,-6.23547240761778]}},{"type":"Feature","properties":{"id":466,"title":"Yogyakarta Mapathon","status":"PUBLISHED","created":"2014","lastUpdated":"2017","lastActive":"no","area":142.75935044863726,"changesets":0,"mappers":0,"roads":0,"buildings":0,"edits":0,"latest":null},"geometry":{"type":"Point","coordinates":[110.375303592361,-7.79467828464764]}},{"type":"Feature","properties":{"id":4043,"title":"Missing Maps: Banyumanik Sub Districts #PDC Semarang","status":"ARCHIVED","created":"2018","lastUpdated":"2018","lastActive":"no","area":31.263404954853762,"changesets":619,"mappers":13,"roads":288.064224597288,"buildings":29152,"edits":34454,"latest":"2018-07-17T04:20:43.000Z"},"geometry":{"type":"Point","coordinates":[110.420634743892,-7.0698505073789]}},{"type":"Feature","properties":{"id":3035,"title":"Missing Maps: Koja Sub Districs #PDC Jakarta","status":"ARCHIVED","created":"2017","lastUpdated":"2017","lastActive":"no","area":9.89511853564706,"changesets":450,"mappers":10,"roads":18.8340571467575,"buildings":50848,"edits":53904,"latest":"2017-10-06T01:23:57.000Z"},"geometry":{"type":"Point","coordinates":[106.905929549656,-6.12538848485847]}},{"type":"Feature","properties":{"id":3033,"title":"Missing Maps: Penjaringan Sub Districs #PDC Jakarta","status":"ARCHIVED","created":"2017","lastUpdated":"2017","lastActive":"no","area":34.25824196319767,"changesets":252,"mappers":11,"roads":30.055312740412,"buildings":38727,"edits":41424,"latest":"2017-10-06T08:43:50.000Z"},"geometry":{"type":"Point","coordinates":[106.765900217218,-6.11862209534467]}},{"type":"Feature","properties":{"id":4046,"title":"Missing Maps: Gajah Mungkur Sub Districts #PDC Semarang","status":"ARCHIVED","created":"2018","lastUpdated":"2018","lastActive":"no","area":9.7825467368316,"changesets":119,"mappers":3,"roads":24.996948716469,"buildings":6160,"edits":7312,"latest":"2018-06-26T09:46:00.000Z"},"geometry":{"type":"Point","coordinates":[110.405596342639,-7.01275552509079]}},{"type":"Feature","properties":{"id":4983,"title":"Missing Maps: Pandeglang, Banten, Indonesia","status":"PUBLISHED","created":"2018","lastUpdated":"2018","lastActive":"yes","area":2840.3654821305727,"changesets":11993,"mappers":1009,"roads":364.187282026236,"buildings":150861,"edits":152454,"latest":"2018-11-23T14:16:54.000Z"},"geometry":{"type":"Point","coordinates":[105.746647595123,-6.5898001130679]}},{"type":"Feature","properties":{"id":4058,"title":"Missing Maps: Tembalang Sub Districts #PDC Semarang","status":"PUBLISHED","created":"2018","lastUpdated":"2018","lastActive":"no","area":40.54145098859969,"changesets":665,"mappers":56,"roads":264.065386297172,"buildings":45216,"edits":48320,"latest":"2018-07-23T04:57:28.000Z"},"geometry":{"type":"Point","coordinates":[110.460995575373,-7.04854201123433]}},{"type":"Feature","properties":{"id":4052,"title":"Missing Maps: Pedurungan Sub Districts #PDC Semarang","status":"PUBLISHED","created":"2018","lastUpdated":"2018","lastActive":"no","area":22.337854701407565,"changesets":481,"mappers":31,"roads":46.6776194885713,"buildings":47970,"edits":49143,"latest":"2018-07-23T03:01:55.000Z"},"geometry":{"type":"Point","coordinates":[110.473977056036,-7.00223449583275]}},{"type":"Feature","properties":{"id":4056,"title":"Missing Maps: Semarang Tengah Sub Districts #PDC Semarang","status":"ARCHIVED","created":"2018","lastUpdated":"2018","lastActive":"no","area":5.39883144937884,"changesets":47,"mappers":3,"roads":1.56794116826866,"buildings":550,"edits":773,"latest":"2018-06-28T02:48:20.000Z"},"geometry":{"type":"Point","coordinates":[110.420989498907,-6.98031805440703]}},{"type":"Feature","properties":{"id":4050,"title":"Missing Maps: Mijen Sub Districts #PDC Semarang","status":"ARCHIVED","created":"2018","lastUpdated":"2018","lastActive":"no","area":58.38424258359907,"changesets":641,"mappers":16,"roads":248.15917317191,"buildings":44462,"edits":48895,"latest":"2018-07-17T03:41:21.000Z"},"geometry":{"type":"Point","coordinates":[110.316039793238,-7.05292695812427]}},{"type":"Feature","properties":{"id":4048,"title":"Missing Maps: Genuk Sub Districts #PDC Semarang","status":"PUBLISHED","created":"2018","lastUpdated":"2018","lastActive":"no","area":26.89138122809543,"changesets":337,"mappers":17,"roads":211.651213602355,"buildings":30048,"edits":32607,"latest":"2018-07-23T04:32:20.000Z"},"geometry":{"type":"Point","coordinates":[110.476936026215,-6.96338054019794]}},{"type":"Feature","properties":{"id":3034,"title":"Missing Maps: Tanjung Priok Sub Districs #PDC Jakarta","status":"ARCHIVED","created":"2017","lastUpdated":"2017","lastActive":"no","area":20.15061201281578,"changesets":374,"mappers":16,"roads":1.28290461708598,"buildings":54267,"edits":55399,"latest":"2017-10-13T02:51:12.000Z"},"geometry":{"type":"Point","coordinates":[106.874349153301,-6.13557873230582]}},{"type":"Feature","properties":{"id":3030,"title":"Missing Maps: Sawah Besar Sub Districs #PDC Jakarta","status":"ARCHIVED","created":"2017","lastUpdated":"2017","lastActive":"no","area":5.440310267845165,"changesets":133,"mappers":3,"roads":15.8262917961787,"buildings":12940,"edits":13867,"latest":"2017-08-04T04:30:15.000Z"},"geometry":{"type":"Point","coordinates":[106.83314677533,-6.15413667191174]}},{"type":"Feature","properties":{"id":3022,"title":"Missing Maps: Pademangan Sub Districs #PDC Jakarta","status":"ARCHIVED","created":"2017","lastUpdated":"2017","lastActive":"no","area":17.827098830040605,"changesets":346,"mappers":8,"roads":153.407026575275,"buildings":30590,"edits":39877,"latest":"2017-10-26T09:33:55.000Z"},"geometry":{"type":"Point","coordinates":[106.852281816423,-6.12226440717232]}},{"type":"Feature","properties":{"id":3026,"title":"Missing Maps: Pesanggrahan Sub Districs #PDC Jakarta","status":"ARCHIVED","created":"2017","lastUpdated":"2017","lastActive":"no","area":13.487998414241458,"changesets":251,"mappers":7,"roads":56.5381680229144,"buildings":41668,"edits":48093,"latest":"2017-10-02T08:03:28.000Z"},"geometry":{"type":"Point","coordinates":[106.758795953061,-6.25061223746763]}},{"type":"Feature","properties":{"id":3018,"title":"Missing Maps: Cipayung Sub Districs #PDC Jakarta","status":"ARCHIVED","created":"2017","lastUpdated":"2017","lastActive":"no","area":28.30154903074125,"changesets":275,"mappers":8,"roads":83.3339668041295,"buildings":74181,"edits":77136,"latest":"2017-08-30T03:44:15.000Z"},"geometry":{"type":"Point","coordinates":[106.903499743806,-6.32573709887508]}},{"type":"Feature","properties":{"id":2747,"title":"Missing Maps: Tanah Abang Sub Districs #PDC Jakarta","status":"ARCHIVED","created":"2017","lastUpdated":"2017","lastActive":"no","area":10.235889165722531,"changesets":244,"mappers":4,"roads":61.1379398045008,"buildings":19580,"edits":23123,"latest":"2017-07-27T12:33:30.000Z"},"geometry":{"type":"Point","coordinates":[106.809283035778,-6.20555493555219]}},{"type":"Feature","properties":{"id":2751,"title":"Missing Maps: Gambir Sub Districs #PDC Jakarta","status":"ARCHIVED","created":"2017","lastUpdated":"2017","lastActive":"no","area":7.532639425068289,"changesets":233,"mappers":6,"roads":17.4080305784869,"buildings":17606,"edits":19317,"latest":"2017-07-19T06:19:32.000Z"},"geometry":{"type":"Point","coordinates":[106.818041882526,-6.17148897715882]}},{"type":"Feature","properties":{"id":2749,"title":"Missing Maps: Kemayoran Sub Districs #PDC Jakarta","status":"ARCHIVED","created":"2017","lastUpdated":"2017","lastActive":"no","area":7.795259817267811,"changesets":251,"mappers":4,"roads":14.5073181796966,"buildings":32519,"edits":34144,"latest":"2017-10-04T05:34:24.000Z"},"geometry":{"type":"Point","coordinates":[106.855013657131,-6.16163036742218]}},{"type":"Feature","properties":{"id":2745,"title":"Missing Maps: Makasar Sub Districs #PDC Jakarta","status":"ARCHIVED","created":"2017","lastUpdated":"2017","lastActive":"no","area":21.702895230187877,"changesets":192,"mappers":5,"roads":8.0530548112001,"buildings":48332,"edits":49771,"latest":"2017-10-03T12:26:17.000Z"},"geometry":{"type":"Point","coordinates":[106.891129959349,-6.2661058012357]}},{"type":"Feature","properties":{"id":2690,"title":"Missing Maps: Johar Baru Sub Districs #PDCJakarta","status":"ARCHIVED","created":"2017","lastUpdated":"2017","lastActive":"no","area":2.4040925614066637,"changesets":287,"mappers":7,"roads":10.3530194607153,"buildings":16558,"edits":19052,"latest":"2017-06-02T07:47:00.000Z"},"geometry":{"type":"Point","coordinates":[106.854584144217,-6.18210953519141]}},{"type":"Feature","properties":{"id":2688,"title":"Missing Maps: Matraman Sub Districs #PDCJakarta","status":"ARCHIVED","created":"2017","lastUpdated":"2017","lastActive":"no","area":4.852162587562553,"changesets":558,"mappers":6,"roads":38.9919910337758,"buildings":33387,"edits":36523,"latest":"2017-08-12T01:41:26.000Z"},"geometry":{"type":"Point","coordinates":[106.86450901734,-6.20369990102316]}},{"type":"Feature","properties":{"id":2684,"title":"Missing Maps: Tebet Sub Districs #PDC Jakarta","status":"ARCHIVED","created":"2017","lastUpdated":"2017","lastActive":"no","area":9.408890607713326,"changesets":497,"mappers":20,"roads":19.6793730101626,"buildings":31333,"edits":34092,"latest":"2017-07-19T03:42:49.000Z"},"geometry":{"type":"Point","coordinates":[106.8508708311,-6.22882722261039]}},{"type":"Feature","properties":{"id":2686,"title":"Missing Maps: Kramat Jati Sub Districs #PDCJakarta","status":"ARCHIVED","created":"2017","lastUpdated":"2018","lastActive":"no","area":13.129244982799834,"changesets":567,"mappers":19,"roads":285.753576206208,"buildings":102534,"edits":113731,"latest":"2017-08-18T10:11:25.000Z"},"geometry":{"type":"Point","coordinates":[106.865408049316,-6.27652035093109]}},{"type":"Feature","properties":{"id":4833,"title":"Missing Maps: Central Java, Kota Semarang, Indonesia","status":"ARCHIVED","created":"2018","lastUpdated":"2018","lastActive":"no","area":380.08218266563614,"changesets":134,"mappers":62,"roads":3.79709820771355,"buildings":818,"edits":869,"latest":"2018-11-06T17:55:47.000Z"},"geometry":{"type":"Point","coordinates":[110.384724939437,-7.02293729968189]}}],"totalArea":8431158.24592665,"Zambia":[{"type":"Feature","properties":{"id":5064,"title":"Zambia-Sinda Residential Buildings Mapping","status":"PUBLISHED","created":"2018","lastUpdated":"2018","lastActive":"no","area":4029.788113014448,"changesets":1591,"mappers":66,"roads":104.501620490992,"buildings":90390,"edits":90736,"latest":"2018-11-05T21:07:46.000Z"},"geometry":{"type":"Point","coordinates":[31.7262927407117,-14.2579734458589]}},{"type":"Feature","properties":{"id":4020,"title":"Zambia Cholera Outbreak 2018","status":"PUBLISHED","created":"2018","lastUpdated":"2018","lastActive":"no","area":19.117960639015834,"changesets":2652,"mappers":111,"roads":182.481685130674,"buildings":28319,"edits":35294,"latest":"2018-01-30T22:20:49.000Z"},"geometry":{"type":"Point","coordinates":[28.3180266578221,-15.3568509529866]}},{"type":"Feature","properties":{"id":3994,"title":"Zambia cholera outbreak 2018","status":"PUBLISHED","created":"2018","lastUpdated":"2018","lastActive":"no","area":6.356624742313112,"changesets":856,"mappers":90,"roads":66.5336672603758,"buildings":17631,"edits":19976,"latest":"2018-02-06T15:59:00.000Z"},"geometry":{"type":"Point","coordinates":[28.2898386983077,-15.3586482413544]}},{"type":"Feature","properties":{"id":3991,"title":"Zambia Cholera Outbreak","status":"PUBLISHED","created":"2018","lastUpdated":"2018","lastActive":"no","area":5.372296232208056,"changesets":1244,"mappers":91,"roads":53.6028823570509,"buildings":22152,"edits":24175,"latest":"2018-01-21T07:17:12.000Z"},"geometry":{"type":"Point","coordinates":[28.2617501969979,-15.445347941535]}},{"type":"Feature","properties":{"id":4846,"title":"Priority Areas, Muchinga Province, Zambia Mini Grids Project 04","status":"PUBLISHED","created":"2018","lastUpdated":"2018","lastActive":"no","area":929.6291976614265,"changesets":951,"mappers":38,"roads":1.65187851759928,"buildings":14723,"edits":14748,"latest":"2018-08-17T11:43:04.000Z"},"geometry":{"type":"Point","coordinates":[31.5185684989067,-9.85709047863316]}},{"type":"Feature","properties":{"id":4883,"title":"Priority Areas, North-Western Province, Zambia Mini Grids Project 04","status":"PUBLISHED","created":"2018","lastUpdated":"2018","lastActive":"no","area":26.577579403472903,"changesets":84,"mappers":28,"roads":0.0327637665611748,"buildings":3703,"edits":3705,"latest":"2018-07-20T12:13:09.000Z"},"geometry":{"type":"Point","coordinates":[24.9483966190181,-13.596002453546]}},{"type":"Feature","properties":{"id":2737,"title":"Mistake Do Not Use","status":"ARCHIVED","created":"2017","lastUpdated":"2017","lastActive":"no","area":52.427783564638844,"changesets":0,"mappers":0,"roads":0,"buildings":0,"edits":0,"latest":null},"geometry":{"type":"Point","coordinates":[26.4802715979837,-15.780440516558]}},{"type":"Feature","properties":{"id":2756,"title":"Missing Maps: Zambia Malaria Elimination 71","status":"ARCHIVED","created":"2017","lastUpdated":"2017","lastActive":"no","area":54.93276423403359,"changesets":730,"mappers":27,"roads":0.461838445395334,"buildings":4170,"edits":4174,"latest":"2017-04-22T12:51:29.000Z"},"geometry":{"type":"Point","coordinates":[26.7128319576413,-17.2332150949172]}},{"type":"Feature","properties":{"id":2543,"title":"Missing Maps: Kanyama, Lusaka, Zambia - Cholera Crisis - Buildings Only - Zone 4","status":"PUBLISHED","created":"2017","lastUpdated":"2017","lastActive":"no","area":0.9470639118601474,"changesets":520,"mappers":25,"roads":0.847052105657445,"buildings":10436,"edits":13972,"latest":"2017-04-14T08:01:31.000Z"},"geometry":{"type":"Point","coordinates":[28.2549772567581,-15.4283251911849]}},{"type":"Feature","properties":{"id":2470,"title":"Missing Maps: Kanyama, Lusaka, Zambia - Cholera Crisis - Buildings Only","status":"ARCHIVED","created":"2017","lastUpdated":"2017","lastActive":"no","area":3.0479745782061567,"changesets":571,"mappers":64,"roads":285.227068966126,"buildings":13503,"edits":14555,"latest":"2017-02-20T00:46:35.000Z"},"geometry":{"type":"Point","coordinates":[28.2474062583554,-15.4340326583418]}},{"type":"Feature","properties":{"id":5379,"title":"Peri urban Mapping","status":"PUBLISHED","created":"2018","lastUpdated":"2018","lastActive":"no","area":8.38756481341144,"changesets":402,"mappers":58,"roads":14.3235150660425,"buildings":5248,"edits":5402,"latest":"2018-11-21T20:26:03.000Z"},"geometry":{"type":"Point","coordinates":[28.277884249817,-15.4664482060259]}},{"type":"Feature","properties":{"id":3293,"title":"Livingstone mapping - OSM Zambia","status":"PUBLISHED","created":"2017","lastUpdated":"2017","lastActive":"no","area":101.17010264284768,"changesets":994,"mappers":12,"roads":308.983608542543,"buildings":36591,"edits":45782,"latest":"2017-08-23T14:14:19.000Z"},"geometry":{"type":"Point","coordinates":[25.8585971206155,-17.8421540120287]}},{"type":"Feature","properties":{"id":2735,"title":"Missing Maps: Zambia Malaria Elimination 69","status":"ARCHIVED","created":"2017","lastUpdated":"2017","lastActive":"no","area":54.456940297073714,"changesets":818,"mappers":41,"roads":829.338060121107,"buildings":8209,"edits":12361,"latest":"2017-04-18T19:55:15.000Z"},"geometry":{"type":"Point","coordinates":[27.0614325223308,-17.1644080663634]}},{"type":"Feature","properties":{"id":2696,"title":"Missing Maps: Zambia Malaria Elimination 63","status":"ARCHIVED","created":"2017","lastUpdated":"2017","lastActive":"no","area":40.00701214726156,"changesets":730,"mappers":113,"roads":80.1397702085043,"buildings":2948,"edits":3980,"latest":"2017-03-25T15:14:51.000Z"},"geometry":{"type":"Point","coordinates":[26.3263061356791,-17.0723213651034]}},{"type":"Feature","properties":{"id":2772,"title":"Missing Maps: Zambia Malaria Elimination 75","status":"ARCHIVED","created":"2017","lastUpdated":"2017","lastActive":"no","area":33.231101952285634,"changesets":341,"mappers":28,"roads":0.297108756357538,"buildings":2085,"edits":2088,"latest":"2017-04-28T08:57:01.000Z"},"geometry":{"type":"Point","coordinates":[26.4695046091455,-17.4157749584222]}},{"type":"Feature","properties":{"id":1630,"title":"Meheba Refugee Camp, Orientale Province, Zambia","status":"PUBLISHED","created":"2016","lastUpdated":"2018","lastActive":"no","area":571.3092959181358,"changesets":1266,"mappers":46,"roads":1338.14496774086,"buildings":8517,"edits":18055,"latest":"2018-07-18T13:01:51.000Z"},"geometry":{"type":"Point","coordinates":[25.8799543120095,-12.4909479937957]}},{"type":"Feature","properties":{"id":5231,"title":"Missing Maps - Zambia - Mongu centre2","status":"ARCHIVED","created":"2018","lastUpdated":"2018","lastActive":"no","area":8.07328076511913,"changesets":512,"mappers":48,"roads":43.1174108384455,"buildings":5945,"edits":6708,"latest":"2018-09-24T14:29:59.000Z"},"geometry":{"type":"Point","coordinates":[23.1451122969085,-15.2747772857719]}},{"type":"Feature","properties":{"id":2730,"title":"Missing Maps: Zambia Malaria Elimination 67","status":"ARCHIVED","created":"2017","lastUpdated":"2017","lastActive":"no","area":56.33934549915492,"changesets":738,"mappers":86,"roads":373.243600699255,"buildings":3976,"edits":6044,"latest":"2017-03-30T14:10:52.000Z"},"geometry":{"type":"Point","coordinates":[27.0062720546434,-17.0350331230293]}},{"type":"Feature","properties":{"id":4853,"title":"Priority Areas, Muchinga Province, Zambia Mini Grids Project 06","status":"PUBLISHED","created":"2018","lastUpdated":"2018","lastActive":"no","area":1817.6416004508362,"changesets":2092,"mappers":37,"roads":0.905534581714069,"buildings":44070,"edits":44266,"latest":"2018-08-17T07:34:09.000Z"},"geometry":{"type":"Point","coordinates":[32.2083821683174,-9.14371619923103]}},{"type":"Feature","properties":{"id":4859,"title":"Priority Areas, Eastern Province, Zambia Mini Grids Project 01","status":"ARCHIVED","created":"2018","lastUpdated":"2018","lastActive":"no","area":1248.2305353046686,"changesets":1213,"mappers":29,"roads":0.0390268800056372,"buildings":50442,"edits":50454,"latest":"2018-07-13T09:25:13.000Z"},"geometry":{"type":"Point","coordinates":[32.7261623523745,-13.2437373001181]}},{"type":"Feature","properties":{"id":4844,"title":"Priority Areas, Muchinga Province, Zambia Mini Grids Project 02","status":"PUBLISHED","created":"2018","lastUpdated":"2018","lastActive":"no","area":117.96969471416107,"changesets":441,"mappers":34,"roads":27.9742743624376,"buildings":13541,"edits":13560,"latest":"2018-07-19T09:12:40.000Z"},"geometry":{"type":"Point","coordinates":[32.248068994447,-10.1170343784785]}},{"type":"Feature","properties":{"id":5327,"title":"North-west","status":"PUBLISHED","created":"2018","lastUpdated":"2018","lastActive":"no","area":13433.522391139175,"changesets":66,"mappers":27,"roads":36.5202921965932,"buildings":1492,"edits":1537,"latest":"2018-11-07T11:13:03.000Z"},"geometry":{"type":"Point","coordinates":[24.5495147016021,-13.5993734203055]}},{"type":"Feature","properties":{"id":4950,"title":"Priority Areas, Northern Province, Zambia Mini Grids Project 08","status":"PUBLISHED","created":"2018","lastUpdated":"2018","lastActive":"no","area":234.71948219941723,"changesets":170,"mappers":31,"roads":0.0258509204979465,"buildings":1546,"edits":1554,"latest":"2018-08-02T12:19:31.000Z"},"geometry":{"type":"Point","coordinates":[30.8061614223634,-10.7847189392756]}},{"type":"Feature","properties":{"id":4899,"title":"Priority Areas, Muchinga Province, Zambia Mini Grids Project 07","status":"PUBLISHED","created":"2018","lastUpdated":"2018","lastActive":"no","area":441.1523928389474,"changesets":540,"mappers":36,"roads":0.250215582929794,"buildings":14739,"edits":14765,"latest":"2018-08-03T10:35:37.000Z"},"geometry":{"type":"Point","coordinates":[32.4951177388957,-9.87408339150437]}},{"type":"Feature","properties":{"id":4945,"title":"Priority Areas, Western Province, Zambia Mini Grids Project 04","status":"PUBLISHED","created":"2018","lastUpdated":"2018","lastActive":"no","area":804.0519879215597,"changesets":314,"mappers":40,"roads":0.00317335355418891,"buildings":3346,"edits":3349,"latest":"2018-08-07T08:31:00.000Z"},"geometry":{"type":"Point","coordinates":[23.1534648552369,-14.7914819377237]}},{"type":"Feature","properties":{"id":4924,"title":"Priority Areas, Northern Province, Zambia Mini Grids Project 04","status":"PUBLISHED","created":"2018","lastUpdated":"2018","lastActive":"no","area":452.9181756480841,"changesets":560,"mappers":36,"roads":0.0123975514532122,"buildings":16517,"edits":16528,"latest":"2018-08-08T12:42:05.000Z"},"geometry":{"type":"Point","coordinates":[31.797031298858,-10.738388409873]}},{"type":"Feature","properties":{"id":4959,"title":"Priority Areas, Muchinga Province, Zambia Mini Grids Project 10","status":"PUBLISHED","created":"2018","lastUpdated":"2018","lastActive":"no","area":17.589736562807172,"changesets":1,"mappers":1,"roads":0,"buildings":0,"edits":0,"latest":"2018-08-06T11:16:25.000Z"},"geometry":{"type":"Point","coordinates":[30.6198102841667,-12.4054873343945]}},{"type":"Feature","properties":{"id":3778,"title":"Mufulira Council Mapping, Copperbelt Province, Zambia","status":"PUBLISHED","created":"2017","lastUpdated":"2018","lastActive":"no","area":97.0872592384034,"changesets":1325,"mappers":140,"roads":319.609918138436,"buildings":32424,"edits":37634,"latest":"2018-11-05T21:37:43.000Z"},"geometry":{"type":"Point","coordinates":[28.2357100974126,-12.554366800172]}},{"type":"Feature","properties":{"id":4903,"title":"Priority Areas, Muchinga Province, Zambia Mini Grids Project 08","status":"PUBLISHED","created":"2018","lastUpdated":"2018","lastActive":"no","area":195.32850196315457,"changesets":248,"mappers":34,"roads":0.915803661040848,"buildings":3822,"edits":3850,"latest":"2018-08-03T10:01:03.000Z"},"geometry":{"type":"Point","coordinates":[30.6259586514312,-12.2108577580289]}},{"type":"Feature","properties":{"id":4926,"title":"Priority Areas, North-Western Province, Zambia Mini Grids Project 06","status":"PUBLISHED","created":"2018","lastUpdated":"2018","lastActive":"no","area":83.59684385397733,"changesets":281,"mappers":34,"roads":0,"buildings":7280,"edits":7280,"latest":"2018-08-09T07:35:58.000Z"},"geometry":{"type":"Point","coordinates":[24.1755828224049,-13.0583515919993]}},{"type":"Feature","properties":{"id":4971,"title":"Priority Areas, Northern Province, Zambia Mini Grids Project 08","status":"PUBLISHED","created":"2018","lastUpdated":"2018","lastActive":"no","area":686.1606920956642,"changesets":547,"mappers":31,"roads":0,"buildings":11039,"edits":11041,"latest":"2018-08-14T13:06:24.000Z"},"geometry":{"type":"Point","coordinates":[31.9205115511933,-10.1334618239917]}},{"type":"Feature","properties":{"id":4973,"title":"Priority Areas, Northern Province, Zambia Mini Grids Project 10","status":"PUBLISHED","created":"2018","lastUpdated":"2018","lastActive":"no","area":1633.8093711185227,"changesets":1681,"mappers":30,"roads":6.41696979581537,"buildings":18945,"edits":19694,"latest":"2018-08-14T11:28:58.000Z"},"geometry":{"type":"Point","coordinates":[33.0320112059923,-9.68945187433094]}},{"type":"Feature","properties":{"id":4905,"title":"Priority Areas, Muchinga Province, Zambia Mini Grids Project 08","status":"PUBLISHED","created":"2018","lastUpdated":"2018","lastActive":"no","area":208.73494423756583,"changesets":342,"mappers":35,"roads":0.236453175417115,"buildings":7886,"edits":7919,"latest":"2018-08-03T12:15:28.000Z"},"geometry":{"type":"Point","coordinates":[30.4084611744672,-12.212950717318]}},{"type":"Feature","properties":{"id":4980,"title":"Priority Areas, Muchinga, Zambia Mini Grids Project 12","status":"PUBLISHED","created":"2018","lastUpdated":"2018","lastActive":"no","area":997.7532177414813,"changesets":903,"mappers":35,"roads":0.0817213038505782,"buildings":35060,"edits":35105,"latest":"2018-08-16T08:30:19.000Z"},"geometry":{"type":"Point","coordinates":[32.3373403353059,-12.3399446395909]}},{"type":"Feature","properties":{"id":4915,"title":"Priority Areas, Central Province, Zambia Mini Grids Project 02","status":"PUBLISHED","created":"2018","lastUpdated":"2018","lastActive":"no","area":1208.74971616363,"changesets":650,"mappers":33,"roads":0.13273143039995,"buildings":15301,"edits":15314,"latest":"2018-08-03T14:21:54.000Z"},"geometry":{"type":"Point","coordinates":[30.3576108611969,-12.617836467409]}},{"type":"Feature","properties":{"id":4922,"title":"Priority Areas, Northern Province, Zambia Mini Grids Project 02","status":"PUBLISHED","created":"2018","lastUpdated":"2018","lastActive":"no","area":267.4433204018853,"changesets":322,"mappers":35,"roads":0.00175040133063931,"buildings":5023,"edits":5023,"latest":"2018-08-07T12:28:55.000Z"},"geometry":{"type":"Point","coordinates":[30.2291389871152,-9.46386425129326]}},{"type":"Feature","properties":{"id":4901,"title":"Priority Areas, Western Province, Zambia Mini Grids Project 02","status":"PUBLISHED","created":"2018","lastUpdated":"2018","lastActive":"no","area":86.20979092896107,"changesets":388,"mappers":30,"roads":0.0630880986700207,"buildings":6061,"edits":6064,"latest":"2018-07-31T13:41:57.000Z"},"geometry":{"type":"Point","coordinates":[23.7388563840653,-14.8061782946768]}},{"type":"Feature","properties":{"id":4937,"title":"Priority Areas, Northern Province, Zambia Mini Grids Project 06","status":"PUBLISHED","created":"2018","lastUpdated":"2018","lastActive":"no","area":1185.5772857089414,"changesets":1333,"mappers":34,"roads":0.00506049116688987,"buildings":15523,"edits":15525,"latest":"2018-08-13T11:50:43.000Z"},"geometry":{"type":"Point","coordinates":[30.0872517008454,-10.3611567028287]}},{"type":"Feature","properties":{"id":4954,"title":"Priority Areas, Muchinga Province, Zambia Mini Grids Project 09","status":"PUBLISHED","created":"2018","lastUpdated":"2018","lastActive":"no","area":1400.150703741115,"changesets":1440,"mappers":38,"roads":2.31439887632379,"buildings":45766,"edits":45968,"latest":"2018-08-09T11:42:10.000Z"},"geometry":{"type":"Point","coordinates":[33.3890547617494,-10.2793352264361]}},{"type":"Feature","properties":{"id":4961,"title":"Priority Areas, North-Western Province, Zambia Mini Grids Project 08","status":"PUBLISHED","created":"2018","lastUpdated":"2018","lastActive":"no","area":62.42190994922546,"changesets":213,"mappers":31,"roads":0.0456716403757625,"buildings":4762,"edits":4784,"latest":"2018-08-14T07:27:41.000Z"},"geometry":{"type":"Point","coordinates":[23.7742274914027,-13.2667271386372]}},{"type":"Feature","properties":{"id":2639,"title":"Missing Maps: Zambia Malaria Elimination 49","status":"ARCHIVED","created":"2017","lastUpdated":"2017","lastActive":"no","area":52.814073050735566,"changesets":852,"mappers":67,"roads":23.8160874785416,"buildings":5854,"edits":6222,"latest":"2017-03-28T13:32:47.000Z"},"geometry":{"type":"Point","coordinates":[27.2697037774623,-16.746202197447]}},{"type":"Feature","properties":{"id":2547,"title":"Missing Maps: Zambia Malaria Elimination 7","status":"ARCHIVED","created":"2017","lastUpdated":"2017","lastActive":"no","area":52.427783564638844,"changesets":1886,"mappers":75,"roads":65.5101126680653,"buildings":12773,"edits":13399,"latest":"2017-07-13T01:59:29.000Z"},"geometry":{"type":"Point","coordinates":[26.4802715979837,-15.780440516558]}},{"type":"Feature","properties":{"id":2564,"title":"Missing Maps: Zambia Malaria Elimination 13","status":"ARCHIVED","created":"2017","lastUpdated":"2017","lastActive":"no","area":56.69497094655045,"changesets":1658,"mappers":79,"roads":7.43757499480842,"buildings":13947,"edits":14009,"latest":"2017-03-27T02:04:28.000Z"},"geometry":{"type":"Point","coordinates":[28.1346276664275,-16.0665704523542]}},{"type":"Feature","properties":{"id":2662,"title":"Missing Maps: Zambia Malaria Elimination 56","status":"ARCHIVED","created":"2017","lastUpdated":"2017","lastActive":"no","area":41.22931300255509,"changesets":473,"mappers":34,"roads":34.9486193133669,"buildings":2297,"edits":2676,"latest":"2017-04-07T14:52:29.000Z"},"geometry":{"type":"Point","coordinates":[26.5769400034605,-16.7034656687689]}},{"type":"Feature","properties":{"id":2671,"title":"Missing Maps: Zambia Malaria Elimination 59","status":"ARCHIVED","created":"2017","lastUpdated":"2017","lastActive":"no","area":53.983168673328294,"changesets":606,"mappers":52,"roads":55.5653175535778,"buildings":3293,"edits":3585,"latest":"2017-04-10T07:33:21.000Z"},"geometry":{"type":"Point","coordinates":[26.7801556416528,-16.868925492807]}},{"type":"Feature","properties":{"id":2694,"title":"Missing Maps: Zambia Malaria Elimination 61","status":"ARCHIVED","created":"2017","lastUpdated":"2017","lastActive":"no","area":52.12083766112771,"changesets":1071,"mappers":100,"roads":90.3137322450952,"buildings":4021,"edits":5009,"latest":"2017-08-31T14:06:38.000Z"},"geometry":{"type":"Point","coordinates":[27.1939724854381,-16.898602684166]}},{"type":"Feature","properties":{"id":1484,"title":"Mayukwayukwa Refugee Camp, Orientale Province, Zambia","status":"PUBLISHED","created":"2016","lastUpdated":"2017","lastActive":"no","area":79.68379557842741,"changesets":456,"mappers":54,"roads":494.708091818575,"buildings":2041,"edits":8445,"latest":"2017-01-17T13:21:46.000Z"},"geometry":{"type":"Point","coordinates":[24.1974973288105,-14.5525750273743]}},{"type":"Feature","properties":{"id":5229,"title":"Missing Maps - Zambia - Mongu centre","status":"ARCHIVED","created":"2018","lastUpdated":"2018","lastActive":"no","area":3.8224707121374966,"changesets":617,"mappers":48,"roads":13.3032185168653,"buildings":4537,"edits":4972,"latest":"2018-10-10T20:28:18.000Z"},"geometry":{"type":"Point","coordinates":[23.125782800666,-15.2734182422346]}},{"type":"Feature","properties":{"id":2394,"title":"Missing Maps: Misisi, Lusaka, Zambia - Buildings only","status":"ARCHIVED","created":"2016","lastUpdated":"2017","lastActive":"no","area":0.08582588949957824,"changesets":61,"mappers":12,"roads":0.806437509201202,"buildings":1449,"edits":1515,"latest":"2017-02-10T15:08:42.000Z"},"geometry":{"type":"Point","coordinates":[28.2857329942074,-15.4414327764804]}},{"type":"Feature","properties":{"id":4881,"title":"Priority Areas, North-Western Province, Zambia Mini Grids Project 02","status":"PUBLISHED","created":"2018","lastUpdated":"2018","lastActive":"no","area":315.33665960709186,"changesets":319,"mappers":34,"roads":0.164957433312246,"buildings":8192,"edits":8241,"latest":"2018-08-31T11:24:55.000Z"},"geometry":{"type":"Point","coordinates":[24.2379781886577,-11.255706313979]}},{"type":"Feature","properties":{"id":4994,"title":"Missing Maps - Zambia - Kalabo","status":"ARCHIVED","created":"2018","lastUpdated":"2018","lastActive":"no","area":42.40842194753424,"changesets":677,"mappers":36,"roads":407.521760117119,"buildings":4512,"edits":7041,"latest":"2018-10-29T14:39:36.000Z"},"geometry":{"type":"Point","coordinates":[22.6657569509904,-15.0166112347884]}},{"type":"Feature","properties":{"id":2669,"title":"Missing Maps: Zambia Malaria Elimination 57","status":"ARCHIVED","created":"2017","lastUpdated":"2017","lastActive":"no","area":55.88803814252673,"changesets":1112,"mappers":52,"roads":69.3347912659,"buildings":5338,"edits":5892,"latest":"2017-04-09T11:12:22.000Z"},"geometry":{"type":"Point","coordinates":[26.5525450023961,-16.8546851465236]}},{"type":"Feature","properties":{"id":2605,"title":"Missing Maps: Zambia Malaria Elimination 36","status":"ARCHIVED","created":"2017","lastUpdated":"2017","lastActive":"no","area":44.753791671609655,"changesets":843,"mappers":108,"roads":446.771408867532,"buildings":5729,"edits":7002,"latest":"2017-03-25T11:28:00.000Z"},"geometry":{"type":"Point","coordinates":[27.161827481475,-16.4392560957868]}},{"type":"Feature","properties":{"id":5248,"title":"Missing Maps - Zambia - Mongu North","status":"ARCHIVED","created":"2018","lastUpdated":"2018","lastActive":"no","area":12.321256440928424,"changesets":835,"mappers":52,"roads":63.31169654292,"buildings":8184,"edits":9060,"latest":"2018-10-08T15:05:02.000Z"},"geometry":{"type":"Point","coordinates":[23.1498678596987,-15.2509633149346]}},{"type":"Feature","properties":{"id":3899,"title":"Fiwila Health Centre - learn how to efficiently replace node-buildings","status":"PUBLISHED","created":"2017","lastUpdated":"2018","lastActive":"no","area":628.4823419648842,"changesets":60,"mappers":10,"roads":84.3866231672886,"buildings":1172,"edits":1552,"latest":"2018-10-18T00:18:42.000Z"},"geometry":{"type":"Point","coordinates":[29.6330945573751,-14.0154371932199]}},{"type":"Feature","properties":{"id":5172,"title":"Missing Maps - Zambia - Limulunga","status":"ARCHIVED","created":"2018","lastUpdated":"2018","lastActive":"no","area":12.712710414575804,"changesets":149,"mappers":18,"roads":39.4267387243411,"buildings":2634,"edits":3095,"latest":"2018-09-11T13:11:05.000Z"},"geometry":{"type":"Point","coordinates":[23.1467113223816,-15.1304589194704]}},{"type":"Feature","properties":{"id":4826,"title":"Priority Areas, Southern Province, Zambia Mini Grids Project 07","status":"PUBLISHED","created":"2018","lastUpdated":"2018","lastActive":"no","area":248.07955230133993,"changesets":295,"mappers":29,"roads":0.11775287620795,"buildings":7464,"edits":7671,"latest":"2018-08-24T13:49:18.000Z"},"geometry":{"type":"Point","coordinates":[27.3753644888465,-16.8788513446297]}},{"type":"Feature","properties":{"id":4948,"title":"Priority Areas, Western Province, Zambia Mini Grids Project 07","status":"PUBLISHED","created":"2018","lastUpdated":"2018","lastActive":"no","area":52.856725257049014,"changesets":226,"mappers":40,"roads":0.00342610791336639,"buildings":6747,"edits":6753,"latest":"2018-08-06T11:58:58.000Z"},"geometry":{"type":"Point","coordinates":[22.6439986370809,-14.7876866673254]}},{"type":"Feature","properties":{"id":2549,"title":"Zambia14","status":"ARCHIVED","created":"2017","lastUpdated":"2017","lastActive":"no","area":30.905717274348312,"changesets":0,"mappers":0,"roads":0,"buildings":0,"edits":0,"latest":null},"geometry":{"type":"Point","coordinates":[26.8995524285374,-15.9672565612992]}},{"type":"Feature","properties":{"id":5343,"title":"Missing Maps - Zambia - Malengwa","status":"ARCHIVED","created":"2018","lastUpdated":"2018","lastActive":"no","area":19.26248831210457,"changesets":409,"mappers":36,"roads":129.920029364859,"buildings":2828,"edits":4381,"latest":"2018-10-23T20:14:30.000Z"},"geometry":{"type":"Point","coordinates":[23.1496450351179,-15.21927210925]}},{"type":"Feature","properties":{"id":3743,"title":"Mapping Chinsali Council, Muchinga Province, Zambia","status":"PUBLISHED","created":"2017","lastUpdated":"2018","lastActive":"no","area":18.90041308791517,"changesets":185,"mappers":12,"roads":115.037378693772,"buildings":4142,"edits":7226,"latest":"2018-01-11T15:23:55.000Z"},"geometry":{"type":"Point","coordinates":[32.0699920470507,-10.5493463883295]}},{"type":"Feature","properties":{"id":2554,"title":"Missing Maps: Zambia Malaria Elimination 9","status":"ARCHIVED","created":"2017","lastUpdated":"2017","lastActive":"no","area":46.63360623178158,"changesets":1400,"mappers":77,"roads":91.0983080137419,"buildings":11789,"edits":12218,"latest":"2017-03-24T12:08:48.000Z"},"geometry":{"type":"Point","coordinates":[27.9162150772687,-15.8650475722509]}},{"type":"Feature","properties":{"id":2566,"title":"Missing Maps: Zambia Malaria Elimination 14","status":"ARCHIVED","created":"2017","lastUpdated":"2017","lastActive":"no","area":57.65449460173831,"changesets":1552,"mappers":63,"roads":2.83580702588112,"buildings":16749,"edits":16926,"latest":"2017-04-07T12:01:50.000Z"},"geometry":{"type":"Point","coordinates":[28.122352304328,-16.2042708842274]}},{"type":"Feature","properties":{"id":2568,"title":"Missing Maps: Zambia Malaria Elimination 16","status":"ARCHIVED","created":"2017","lastUpdated":"2017","lastActive":"no","area":33.45666280635502,"changesets":1374,"mappers":53,"roads":19.0981468558553,"buildings":9558,"edits":9838,"latest":"2017-03-24T19:33:24.000Z"},"geometry":{"type":"Point","coordinates":[27.8088598196124,-16.1509845533222]}},{"type":"Feature","properties":{"id":2562,"title":"Missing Maps: Zambia Malaria Elimination 11","status":"ARCHIVED","created":"2017","lastUpdated":"2017","lastActive":"no","area":35.92752078925789,"changesets":651,"mappers":65,"roads":1.58523798925695,"buildings":5055,"edits":5085,"latest":"2017-03-24T06:14:13.000Z"},"geometry":{"type":"Point","coordinates":[28.1010543332572,-15.9357645571568]}},{"type":"Feature","properties":{"id":2641,"title":"Missing Maps: Zambia Malaria Elimination 51","status":"ARCHIVED","created":"2017","lastUpdated":"2017","lastActive":"no","area":31.791115128426945,"changesets":394,"mappers":4,"roads":0.00966484763269278,"buildings":3001,"edits":3101,"latest":"2017-04-20T08:28:56.000Z"},"geometry":{"type":"Point","coordinates":[27.4001075890881,-16.7999763980603]}},{"type":"Feature","properties":{"id":3992,"title":"Zambia Cholera Outbreak","status":"PUBLISHED","created":"2018","lastUpdated":"2018","lastActive":"no","area":4.036566110310592,"changesets":608,"mappers":32,"roads":29.2512963162562,"buildings":4494,"edits":5618,"latest":"2018-01-08T03:28:50.000Z"},"geometry":{"type":"Point","coordinates":[28.2443472716737,-15.4546130087783]}},{"type":"Feature","properties":{"id":3995,"title":"Zambia Cholera Outbreak 2018","status":"PUBLISHED","created":"2018","lastUpdated":"2018","lastActive":"no","area":13.021695568322011,"changesets":1508,"mappers":109,"roads":61.4631865032384,"buildings":23480,"edits":27523,"latest":"2018-03-12T08:51:32.000Z"},"geometry":{"type":"Point","coordinates":[28.3151884921123,-15.4416751223048]}},{"type":"Feature","properties":{"id":2728,"title":"Zambia - Peace Corps Public Health Program","status":"PUBLISHED","created":"2017","lastUpdated":"2018","lastActive":"no","area":1812.3066110321777,"changesets":561,"mappers":95,"roads":712.112904040654,"buildings":6766,"edits":11389,"latest":"2018-10-09T12:40:02.000Z"},"geometry":{"type":"Point","coordinates":[26.0244494385981,-12.8954326004688]}},{"type":"Feature","properties":{"id":2526,"title":"Missing Maps: Kanyama, Lusaka, Zambia - Cholera Crisis - Buildings Only - Zone 3","status":"PUBLISHED","created":"2017","lastUpdated":"2017","lastActive":"no","area":0.5147784574323778,"changesets":627,"mappers":32,"roads":3.25666696508614,"buildings":5953,"edits":8991,"latest":"2017-04-27T22:59:45.000Z"},"geometry":{"type":"Point","coordinates":[28.2525022824477,-15.4221490787427]}},{"type":"Feature","properties":{"id":2473,"title":"Missing Maps: Kanyama, Lusaka, Zambia - Cholera Crisis - Buildings Only - Area 2","status":"ARCHIVED","created":"2017","lastUpdated":"2017","lastActive":"no","area":4.097444955118227,"changesets":960,"mappers":69,"roads":1.24701144334619,"buildings":14460,"edits":14939,"latest":"2017-02-02T00:10:35.000Z"},"geometry":{"type":"Point","coordinates":[28.2347584624704,-15.4362575093508]}},{"type":"Feature","properties":{"id":4992,"title":"Priority Areas, Northern Province, Zambia Mini Grids Project 11","status":"PUBLISHED","created":"2018","lastUpdated":"2018","lastActive":"no","area":901.9638924123662,"changesets":329,"mappers":30,"roads":0.0446413623321236,"buildings":5527,"edits":5541,"latest":"2018-08-15T06:39:00.000Z"},"geometry":{"type":"Point","coordinates":[24.2081720913225,-11.2232120149847]}},{"type":"Feature","properties":{"id":4968,"title":"Priority Areas, Muchinga, Zambia Mini Grids Project 11","status":"PUBLISHED","created":"2018","lastUpdated":"2018","lastActive":"no","area":1104.3187258348034,"changesets":1521,"mappers":38,"roads":0.0817142328227262,"buildings":46830,"edits":46881,"latest":"2018-08-15T07:39:18.000Z"},"geometry":{"type":"Point","coordinates":[32.9454122077498,-11.2985955740601]}},{"type":"Feature","properties":{"id":4972,"title":"Priority Areas, Northern Province, Zambia Mini Grids Project 09","status":"PUBLISHED","created":"2018","lastUpdated":"2018","lastActive":"no","area":128.6555616326287,"changesets":389,"mappers":29,"roads":0.0168751266411869,"buildings":6113,"edits":6114,"latest":"2018-08-09T13:31:07.000Z"},"geometry":{"type":"Point","coordinates":[33.0220173680045,-10.2276804756312]}},{"type":"Feature","properties":{"id":4960,"title":"Priority Areas, North-Western Province, Zambia Mini Grids Project 07","status":"PUBLISHED","created":"2018","lastUpdated":"2018","lastActive":"no","area":117.51835470650506,"changesets":114,"mappers":28,"roads":0,"buildings":815,"edits":815,"latest":"2018-08-06T12:35:48.000Z"},"geometry":{"type":"Point","coordinates":[24.1717302208412,-11.959699745309]}},{"type":"Feature","properties":{"id":4949,"title":"Priority Areas, Northern Province, Zambia Mini Grids Project 07","status":"PUBLISHED","created":"2018","lastUpdated":"2018","lastActive":"no","area":339.45238810279517,"changesets":767,"mappers":39,"roads":0.0434383106502137,"buildings":13417,"edits":13438,"latest":"2018-08-03T12:45:03.000Z"},"geometry":{"type":"Point","coordinates":[30.5470506290675,-11.0575128068587]}},{"type":"Feature","properties":{"id":4906,"title":"Priority Areas, Central Province, Zambia Mini Grids Project 01","status":"PUBLISHED","created":"2018","lastUpdated":"2018","lastActive":"no","area":960.2843810977965,"changesets":1033,"mappers":34,"roads":0.0422650777154369,"buildings":11172,"edits":11183,"latest":"2018-08-03T09:02:34.000Z"},"geometry":{"type":"Point","coordinates":[30.0483834481938,-12.3726376822697]}},{"type":"Feature","properties":{"id":4923,"title":"Priority Areas, Northern Province, Zambia Mini Grids Project 03","status":"PUBLISHED","created":"2018","lastUpdated":"2018","lastActive":"no","area":108.1972029061993,"changesets":443,"mappers":34,"roads":0.00876400210311584,"buildings":7442,"edits":7450,"latest":"2018-08-08T08:36:24.000Z"},"geometry":{"type":"Point","coordinates":[30.5911459465336,-11.7601390748348]}},{"type":"Feature","properties":{"id":4900,"title":"Priority Areas, Western Province, Zambia Mini Grids Project 01","status":"PUBLISHED","created":"2018","lastUpdated":"2018","lastActive":"no","area":652.6525934646062,"changesets":731,"mappers":37,"roads":2.20449395581589,"buildings":18813,"edits":19230,"latest":"2018-08-01T13:56:07.000Z"},"geometry":{"type":"Point","coordinates":[24.1479928448816,-14.6050079686209]}},{"type":"Feature","properties":{"id":4882,"title":"Priority Areas, North-Western Province, Zambia Mini Grids Project 03","status":"PUBLISHED","created":"2018","lastUpdated":"2018","lastActive":"no","area":198.34286749894446,"changesets":313,"mappers":34,"roads":0.00864561254804241,"buildings":9766,"edits":9769,"latest":"2018-08-31T13:24:15.000Z"},"geometry":{"type":"Point","coordinates":[23.3135694879536,-13.2477154515275]}},{"type":"Feature","properties":{"id":4940,"title":"Priority Areas, Western Province, Zambia Mini Grids Project 03","status":"PUBLISHED","created":"2018","lastUpdated":"2018","lastActive":"no","area":130.71131986754082,"changesets":433,"mappers":35,"roads":0.00411933590482505,"buildings":6454,"edits":6459,"latest":"2018-08-14T05:55:53.000Z"},"geometry":{"type":"Point","coordinates":[23.1741374464,-14.8113230531681]}},{"type":"Feature","properties":{"id":4884,"title":"Priority Areas, North-Western Province, Zambia Mini Grids Project 05","status":"PUBLISHED","created":"2018","lastUpdated":"2018","lastActive":"no","area":125.30507062928119,"changesets":361,"mappers":34,"roads":1.34774179913668,"buildings":9253,"edits":9350,"latest":"2018-09-03T08:43:47.000Z"},"geometry":{"type":"Point","coordinates":[24.4732475183641,-13.4848300645144]}},{"type":"Feature","properties":{"id":4836,"title":"Priority Areas, Muchinga Province, Zambia Mini Grids Project 01","status":"PUBLISHED","created":"2018","lastUpdated":"2018","lastActive":"no","area":1192.5581757490236,"changesets":1343,"mappers":35,"roads":0.0231360703082391,"buildings":29593,"edits":29602,"latest":"2018-07-18T07:28:00.000Z"},"geometry":{"type":"Point","coordinates":[33.2368290515284,-10.5703090757455]}},{"type":"Feature","properties":{"id":4819,"title":"Priority Areas, Southern Province, Zambia Mini Grids Project 02","status":"PUBLISHED","created":"2018","lastUpdated":"2018","lastActive":"no","area":772.4887168605584,"changesets":1053,"mappers":42,"roads":0.423693999629926,"buildings":23847,"edits":23889,"latest":"2018-08-17T07:18:48.000Z"},"geometry":{"type":"Point","coordinates":[26.8952553891412,-17.6525178439075]}},{"type":"Feature","properties":{"id":4821,"title":"Priority Areas, Southern Province, Zambia Mini Grids Project 04","status":"PUBLISHED","created":"2018","lastUpdated":"2018","lastActive":"no","area":549.2875270843012,"changesets":501,"mappers":41,"roads":0.00948469099725457,"buildings":15159,"edits":15162,"latest":"2018-08-15T09:09:17.000Z"},"geometry":{"type":"Point","coordinates":[27.9589126126342,-16.4867837275353]}},{"type":"Feature","properties":{"id":4865,"title":"Priority Areas, Eastern Province, Zambia Mini Grids Project 02","status":"ARCHIVED","created":"2018","lastUpdated":"2018","lastActive":"no","area":1122.9671327458043,"changesets":1476,"mappers":36,"roads":0.0752661626542242,"buildings":28381,"edits":28387,"latest":"2018-07-20T06:25:28.000Z"},"geometry":{"type":"Point","coordinates":[32.9195719961577,-12.8643859479842]}},{"type":"Feature","properties":{"id":4870,"title":"Priority Areas, Eastern Province, Zambia Mini Grids Project 03","status":"ARCHIVED","created":"2018","lastUpdated":"2018","lastActive":"no","area":1007.597938887038,"changesets":582,"mappers":30,"roads":6.19570950442981,"buildings":18679,"edits":19126,"latest":"2018-07-27T11:48:00.000Z"},"geometry":{"type":"Point","coordinates":[32.9700796021551,-12.3087189109137]}},{"type":"Feature","properties":{"id":4873,"title":"Priority Areas, Eastern Province, Zambia Mini Grids Project 04","status":"ARCHIVED","created":"2018","lastUpdated":"2018","lastActive":"no","area":1351.5505600750143,"changesets":1128,"mappers":33,"roads":0.110256636504698,"buildings":40010,"edits":40023,"latest":"2018-07-19T07:01:18.000Z"},"geometry":{"type":"Point","coordinates":[33.2021522485916,-11.817264674421]}},{"type":"Feature","properties":{"id":4845,"title":"Priority Areas, Muchinga Province, Zambia Mini Grids Project 03","status":"PUBLISHED","created":"2018","lastUpdated":"2018","lastActive":"no","area":30.76633123711304,"changesets":179,"mappers":20,"roads":0.002324335482359,"buildings":5269,"edits":5273,"latest":"2018-07-19T10:49:31.000Z"},"geometry":{"type":"Point","coordinates":[32.1061139136939,-10.3973685150342]}},{"type":"Feature","properties":{"id":4851,"title":"Priority Areas, Muchinga Province, Zambia Mini Grids Project 05","status":"PUBLISHED","created":"2018","lastUpdated":"2018","lastActive":"no","area":796.1616294065363,"changesets":1123,"mappers":36,"roads":0.112226485260465,"buildings":21415,"edits":21438,"latest":"2018-08-17T13:52:29.000Z"},"geometry":{"type":"Point","coordinates":[31.7742872167847,-9.19022557469334]}}],"Zimbabwe":[{"type":"Feature","properties":{"id":3180,"title":"Missing Maps: Zimbabwe Malaria Elimination 200","status":"ARCHIVED","created":"2017","lastUpdated":"2017","lastActive":"no","area":468.90085785512247,"changesets":1393,"mappers":52,"roads":24.3441886432429,"buildings":11759,"edits":11941,"latest":"2017-08-11T12:17:42.000Z"},"geometry":{"type":"Point","coordinates":[30.6918659774459,-18.4794704160666]}},{"type":"Feature","properties":{"id":2739,"title":"Missing Maps: Zimbabwe Malaria Elimination 7","status":"ARCHIVED","created":"2017","lastUpdated":"2017","lastActive":"no","area":49.15595302659425,"changesets":656,"mappers":30,"roads":261.53430399888,"buildings":12086,"edits":14378,"latest":"2017-08-07T13:49:11.000Z"},"geometry":{"type":"Point","coordinates":[26.8538153160123,-18.5232733367907]}},{"type":"Feature","properties":{"id":3178,"title":"Missing Maps: Zimbabwe Malaria Elimination 199","status":"ARCHIVED","created":"2017","lastUpdated":"2017","lastActive":"no","area":576.8361020165468,"changesets":1797,"mappers":61,"roads":30.4338955415223,"buildings":16408,"edits":16578,"latest":"2017-08-11T22:12:30.000Z"},"geometry":{"type":"Point","coordinates":[30.6308046236137,-18.2753330386397]}},{"type":"Feature","properties":{"id":2832,"title":"Missing Maps: Zimbabwe Malaria Elimination 49","status":"ARCHIVED","created":"2017","lastUpdated":"2017","lastActive":"no","area":1088.6982044458798,"changesets":2110,"mappers":45,"roads":3.74178440964477,"buildings":52569,"edits":52847,"latest":"2017-05-30T04:39:22.000Z"},"geometry":{"type":"Point","coordinates":[27.797723802379,-18.3456571815474]}},{"type":"Feature","properties":{"id":3131,"title":"Missing Maps: Zimbabwe Malaria Elimination 184","status":"ARCHIVED","created":"2017","lastUpdated":"2017","lastActive":"no","area":490.2411132356081,"changesets":1949,"mappers":87,"roads":33.4056516437662,"buildings":17317,"edits":17625,"latest":"2017-06-14T18:33:33.000Z"},"geometry":{"type":"Point","coordinates":[30.088842103874,-17.6987363647752]}},{"type":"Feature","properties":{"id":3164,"title":"Missing Maps: Zimbabwe Malaria Elimination 197","status":"ARCHIVED","created":"2017","lastUpdated":"2017","lastActive":"no","area":1029.4826092486537,"changesets":1936,"mappers":58,"roads":15.6737107491728,"buildings":16063,"edits":16194,"latest":"2017-08-14T12:35:55.000Z"},"geometry":{"type":"Point","coordinates":[30.3548944989636,-18.220109074111]}},{"type":"Feature","properties":{"id":3071,"title":"Missing Maps: Zimbabwe Malaria Elimination 155","status":"ARCHIVED","created":"2017","lastUpdated":"2017","lastActive":"no","area":297.93289844155726,"changesets":681,"mappers":35,"roads":0.00867063057797776,"buildings":7041,"edits":7060,"latest":"2017-05-26T07:04:36.000Z"},"geometry":{"type":"Point","coordinates":[29.5981877099749,-20.9785071979843]}},{"type":"Feature","properties":{"id":2803,"title":"Missing Maps: Zimbabwe Malaria Elimination 32","status":"ARCHIVED","created":"2017","lastUpdated":"2017","lastActive":"no","area":50.14844680416713,"changesets":991,"mappers":55,"roads":3.03150913098425,"buildings":10579,"edits":10688,"latest":"2017-04-29T12:37:03.000Z"},"geometry":{"type":"Point","coordinates":[27.998972713352,-17.5100081872764]}},{"type":"Feature","properties":{"id":3182,"title":"Missing Maps: Zimbabwe Malaria Elimination 202","status":"ARCHIVED","created":"2017","lastUpdated":"2017","lastActive":"no","area":743.2178219131076,"changesets":1356,"mappers":47,"roads":58.8103080106425,"buildings":17120,"edits":17508,"latest":"2017-08-09T13:57:42.000Z"},"geometry":{"type":"Point","coordinates":[30.4471309077624,-18.7536619120408]}},{"type":"Feature","properties":{"id":2791,"title":"Missing Maps: Zimbabwe Malaria Elimination 23","status":"ARCHIVED","created":"2017","lastUpdated":"2017","lastActive":"no","area":52.81408198390934,"changesets":514,"mappers":24,"roads":1.71210764593682,"buildings":7549,"edits":7709,"latest":"2017-08-04T17:30:22.000Z"},"geometry":{"type":"Point","coordinates":[28.6672097053319,-19.0560511698056]}},{"type":"Feature","properties":{"id":2854,"title":"Missing Maps: Zimbabwe Malaria Elimination 64","status":"ARCHIVED","created":"2017","lastUpdated":"2017","lastActive":"no","area":1765.992534945832,"changesets":1445,"mappers":55,"roads":0.389146803883084,"buildings":17327,"edits":17366,"latest":"2017-04-25T04:45:02.000Z"},"geometry":{"type":"Point","coordinates":[28.8219773317838,-19.5909436929353]}},{"type":"Feature","properties":{"id":2805,"title":"Missing Maps: Zimbabwe Malaria Elimination 34","status":"ARCHIVED","created":"2017","lastUpdated":"2017","lastActive":"no","area":52.52290646149716,"changesets":1612,"mappers":57,"roads":1.60843244639418,"buildings":12535,"edits":12703,"latest":"2017-08-13T23:58:52.000Z"},"geometry":{"type":"Point","coordinates":[27.3069014746024,-17.8308419103354]}},{"type":"Feature","properties":{"id":3119,"title":"Missing Maps: Zimbabwe Malaria Elimination 175","status":"ARCHIVED","created":"2017","lastUpdated":"2017","lastActive":"no","area":930.6776345634797,"changesets":1830,"mappers":28,"roads":0.67807207985852,"buildings":20626,"edits":20658,"latest":"2017-07-19T05:59:02.000Z"},"geometry":{"type":"Point","coordinates":[29.6893301142335,-17.2297557534568]}},{"type":"Feature","properties":{"id":3113,"title":"Missing Maps: Zimbabwe Malaria Elimination 173","status":"ARCHIVED","created":"2017","lastUpdated":"2017","lastActive":"no","area":628.4363743542132,"changesets":1008,"mappers":15,"roads":0.371876211775723,"buildings":14481,"edits":14489,"latest":"2017-06-01T14:52:01.000Z"},"geometry":{"type":"Point","coordinates":[29.20862258556,-17.2230122103122]}},{"type":"Feature","properties":{"id":3122,"title":"Missing Maps: Zimbabwe Malaria Elimination 177","status":"ARCHIVED","created":"2017","lastUpdated":"2017","lastActive":"no","area":1207.6629834989033,"changesets":1414,"mappers":30,"roads":21.7976038065419,"buildings":16649,"edits":16870,"latest":"2017-06-04T01:56:19.000Z"},"geometry":{"type":"Point","coordinates":[30.5290536728974,-17.3173297116304]}},{"type":"Feature","properties":{"id":2797,"title":"Missing Maps: Zimbabwe Malaria Elimination 26","status":"ARCHIVED","created":"2017","lastUpdated":"2017","lastActive":"no","area":41.06167340898977,"changesets":564,"mappers":24,"roads":2.55060485020248,"buildings":6515,"edits":6533,"latest":"2017-08-09T20:54:08.000Z"},"geometry":{"type":"Point","coordinates":[28.0037013409184,-18.9878336004839]}},{"type":"Feature","properties":{"id":2789,"title":"Missing Maps: Zimbabwe Malaria Elimination 22","status":"ARCHIVED","created":"2017","lastUpdated":"2017","lastActive":"no","area":52.35019196485108,"changesets":647,"mappers":27,"roads":0.232545343445868,"buildings":9018,"edits":9101,"latest":"2017-10-17T15:50:43.000Z"},"geometry":{"type":"Point","coordinates":[28.7865163129833,-19.1201864694034]}},{"type":"Feature","properties":{"id":3889,"title":"Road network Zimbabwe (1)","status":"ARCHIVED","created":"2017","lastUpdated":"2018","lastActive":"no","area":1245.9465836749403,"changesets":1196,"mappers":156,"roads":4457.27905970678,"buildings":728,"edits":25266,"latest":"2018-03-06T20:27:20.000Z"},"geometry":{"type":"Point","coordinates":[31.1223739425421,-19.5591192978281]}},{"type":"Feature","properties":{"id":2801,"title":"Missing Maps: Zimbabwe Malaria Elimination 30","status":"ARCHIVED","created":"2017","lastUpdated":"2017","lastActive":"no","area":43.94926230393859,"changesets":420,"mappers":26,"roads":0.000246657663310089,"buildings":3153,"edits":3155,"latest":"2017-04-13T04:51:48.000Z"},"geometry":{"type":"Point","coordinates":[28.2275216138578,-18.9502831931535]}},{"type":"Feature","properties":{"id":2766,"title":"Missing Maps: Zimbabwe Malaria Elimination 11","status":"ARCHIVED","created":"2017","lastUpdated":"2017","lastActive":"no","area":54.610325594887385,"changesets":970,"mappers":64,"roads":11.3477092395096,"buildings":9419,"edits":9509,"latest":"2017-04-08T18:19:42.000Z"},"geometry":{"type":"Point","coordinates":[27.692029856682,-19.2180354950513]}},{"type":"Feature","properties":{"id":2795,"title":"Missing Maps: Zimbabwe Malaria Elimination 24","status":"ARCHIVED","created":"2017","lastUpdated":"2017","lastActive":"no","area":56.22241484399556,"changesets":815,"mappers":48,"roads":18.8222870590669,"buildings":8003,"edits":8212,"latest":"2017-08-05T13:44:44.000Z"},"geometry":{"type":"Point","coordinates":[28.4675832865777,-19.027234884057]}},{"type":"Feature","properties":{"id":2780,"title":"Missing Maps: Zimbabwe Malaria Elimination 15","status":"ARCHIVED","created":"2017","lastUpdated":"2017","lastActive":"no","area":47.67809912225816,"changesets":601,"mappers":36,"roads":19.0363858182915,"buildings":5853,"edits":5929,"latest":"2017-04-21T23:03:23.000Z"},"geometry":{"type":"Point","coordinates":[28.4651883212544,-19.3165289213411]}},{"type":"Feature","properties":{"id":3162,"title":"Missing Maps: Zimbabwe Malaria Elimination 195","status":"ARCHIVED","created":"2017","lastUpdated":"2017","lastActive":"no","area":1174.7572055922467,"changesets":1383,"mappers":52,"roads":3.59011559839763,"buildings":12306,"edits":12336,"latest":"2017-06-16T06:41:18.000Z"},"geometry":{"type":"Point","coordinates":[30.0527956897123,-18.5294466417876]}},{"type":"Feature","properties":{"id":3158,"title":"Missing Maps: Zimbabwe Malaria Elimination 194","status":"ARCHIVED","created":"2017","lastUpdated":"2017","lastActive":"no","area":943.6261001263152,"changesets":1554,"mappers":49,"roads":1.47608241892859,"buildings":29809,"edits":29918,"latest":"2017-06-14T12:40:05.000Z"},"geometry":{"type":"Point","coordinates":[29.8945115144606,-18.2341155758634]}},{"type":"Feature","properties":{"id":3142,"title":"Missing Maps: Zimbabwe Malaria Elimination 188","status":"ARCHIVED","created":"2017","lastUpdated":"2017","lastActive":"no","area":669.7436797243276,"changesets":1339,"mappers":47,"roads":9.15404996402167,"buildings":29278,"edits":29755,"latest":"2017-06-10T13:53:36.000Z"},"geometry":{"type":"Point","coordinates":[30.8057572135393,-17.7276544994894]}},{"type":"Feature","properties":{"id":3133,"title":"Missing Maps: Zimbabwe Malaria Elimination 186","status":"ARCHIVED","created":"2017","lastUpdated":"2017","lastActive":"no","area":408.5777626013577,"changesets":1510,"mappers":28,"roads":2.10027285288437,"buildings":14938,"edits":14974,"latest":"2017-06-08T18:44:16.000Z"},"geometry":{"type":"Point","coordinates":[30.2883779535857,-17.7232869543712]}},{"type":"Feature","properties":{"id":3144,"title":"Missing Maps: Zimbabwe Malaria Elimination 190","status":"ARCHIVED","created":"2017","lastUpdated":"2017","lastActive":"no","area":855.9145938032663,"changesets":1373,"mappers":23,"roads":9.05247437350637,"buildings":13589,"edits":13665,"latest":"2017-06-11T11:32:09.000Z"},"geometry":{"type":"Point","coordinates":[30.3152845077154,-17.9355292419046]}},{"type":"Feature","properties":{"id":2872,"title":"Missing Maps: Zimbabwe Malaria Elimination 80","status":"ARCHIVED","created":"2017","lastUpdated":"2017","lastActive":"no","area":702.2646735088541,"changesets":1777,"mappers":24,"roads":12.6657902833175,"buildings":19669,"edits":19727,"latest":"2017-04-26T22:43:17.000Z"},"geometry":{"type":"Point","coordinates":[29.5265799328361,-20.7810852288175]}},{"type":"Feature","properties":{"id":2787,"title":"Missing Maps: Zimbabwe Malaria Elimination 20","status":"ARCHIVED","created":"2017","lastUpdated":"2017","lastActive":"no","area":56.49732632571366,"changesets":753,"mappers":44,"roads":26.0022231041538,"buildings":5808,"edits":6478,"latest":"2017-05-06T02:40:27.000Z"},"geometry":{"type":"Point","coordinates":[27.2275566064518,-18.2871393168152]}},{"type":"Feature","properties":{"id":2785,"title":"Missing Maps: Zimbabwe Malaria Elimination 18","status":"ARCHIVED","created":"2017","lastUpdated":"2017","lastActive":"no","area":41.68570309698071,"changesets":709,"mappers":33,"roads":179.50315444901,"buildings":4243,"edits":4409,"latest":"2017-04-23T16:48:00.000Z"},"geometry":{"type":"Point","coordinates":[29.1120376648609,-19.2855348945685]}},{"type":"Feature","properties":{"id":2996,"title":"Missing Maps: Zimbabwe Malaria Elimination 138","status":"ARCHIVED","created":"2017","lastUpdated":"2017","lastActive":"no","area":1339.950620889106,"changesets":1064,"mappers":25,"roads":14.9056884598634,"buildings":12527,"edits":12561,"latest":"2017-05-18T08:28:47.000Z"},"geometry":{"type":"Point","coordinates":[29.798937961672,-19.7751057981346]}},{"type":"Feature","properties":{"id":2858,"title":"Missing Maps: Zimbabwe Malaria Elimination 68","status":"ARCHIVED","created":"2017","lastUpdated":"2017","lastActive":"no","area":670.5467522568063,"changesets":1713,"mappers":50,"roads":30.5299813651658,"buildings":21623,"edits":21784,"latest":"2017-08-07T23:28:32.000Z"},"geometry":{"type":"Point","coordinates":[27.8300125726206,-20.9690565655556]}},{"type":"Feature","properties":{"id":2863,"title":"Missing Maps: Zimbabwe Malaria Elimination 72","status":"ARCHIVED","created":"2017","lastUpdated":"2017","lastActive":"no","area":886.7826033634965,"changesets":1469,"mappers":43,"roads":3.17020973521512,"buildings":17848,"edits":17870,"latest":"2017-08-01T14:08:01.000Z"},"geometry":{"type":"Point","coordinates":[29.6958098200894,-20.1075434199308]}},{"type":"Feature","properties":{"id":2870,"title":"Missing Maps: Zimbabwe Malaria Elimination 78","status":"ARCHIVED","created":"2017","lastUpdated":"2017","lastActive":"no","area":826.6994036996933,"changesets":1362,"mappers":59,"roads":50.3545425528962,"buildings":13002,"edits":13227,"latest":"2017-04-25T17:44:11.000Z"},"geometry":{"type":"Point","coordinates":[28.9559069145901,-20.7415598912591]}},{"type":"Feature","properties":{"id":2860,"title":"Missing Maps: Zimbabwe Malaria Elimination 70","status":"ARCHIVED","created":"2017","lastUpdated":"2017","lastActive":"no","area":600.7456201464605,"changesets":2044,"mappers":81,"roads":29.7641093903686,"buildings":16025,"edits":16077,"latest":"2017-07-19T14:34:55.000Z"},"geometry":{"type":"Point","coordinates":[28.0097009406958,-21.2532876901318]}},{"type":"Feature","properties":{"id":2868,"title":"Missing Maps: Zimbabwe Malaria Elimination 76","status":"ARCHIVED","created":"2017","lastUpdated":"2017","lastActive":"no","area":961.7217263278618,"changesets":2196,"mappers":88,"roads":99.7714136406293,"buildings":19598,"edits":20563,"latest":"2017-08-08T17:14:41.000Z"},"geometry":{"type":"Point","coordinates":[29.1541389349112,-20.5310944058819]}},{"type":"Feature","properties":{"id":2898,"title":"Missing Maps: Zimbabwe Malaria Elimination 92","status":"ARCHIVED","created":"2017","lastUpdated":"2017","lastActive":"no","area":656.9522364499987,"changesets":1866,"mappers":95,"roads":9.6831566369035,"buildings":19914,"edits":20043,"latest":"2017-08-06T02:03:52.000Z"},"geometry":{"type":"Point","coordinates":[30.0164254826459,-22.0586825780552]}},{"type":"Feature","properties":{"id":2886,"title":"Missing Maps: Zimbabwe Malaria Elimination 87","status":"ARCHIVED","created":"2017","lastUpdated":"2017","lastActive":"no","area":834.6885291880953,"changesets":1893,"mappers":89,"roads":16.1005093871448,"buildings":12618,"edits":12702,"latest":"2017-05-22T06:40:07.000Z"},"geometry":{"type":"Point","coordinates":[28.7660519971267,-21.4601801859268]}},{"type":"Feature","properties":{"id":2888,"title":"Missing Maps: Zimbabwe Malaria Elimination 89","status":"ARCHIVED","created":"2017","lastUpdated":"2017","lastActive":"no","area":751.2995980735323,"changesets":1750,"mappers":65,"roads":13.2047755888788,"buildings":11022,"edits":11151,"latest":"2017-05-02T01:47:41.000Z"},"geometry":{"type":"Point","coordinates":[29.0666860293344,-21.6378048707465]}},{"type":"Feature","properties":{"id":2900,"title":"Missing Maps: Zimbabwe Malaria Elimination 94","status":"ARCHIVED","created":"2017","lastUpdated":"2017","lastActive":"no","area":1108.7641464450846,"changesets":1663,"mappers":55,"roads":19.691640370056,"buildings":15599,"edits":15693,"latest":"2017-08-11T15:59:08.000Z"},"geometry":{"type":"Point","coordinates":[28.7851345739144,-17.3112158229841]}},{"type":"Feature","properties":{"id":2716,"title":"Missing Maps: Zimbabwe Malaria Elimination 4","status":"ARCHIVED","created":"2017","lastUpdated":"2017","lastActive":"no","area":49.35292387250715,"changesets":677,"mappers":37,"roads":1.85145140144686,"buildings":5910,"edits":5932,"latest":"2017-08-03T21:43:04.000Z"},"geometry":{"type":"Point","coordinates":[26.2507374907538,-18.0705092690979]}},{"type":"Feature","properties":{"id":2878,"title":"Missing Maps: Zimbabwe Malaria Elimination 82","status":"ARCHIVED","created":"2017","lastUpdated":"2017","lastActive":"no","area":800.079583441679,"changesets":2026,"mappers":42,"roads":0.449452477470892,"buildings":20672,"edits":20894,"latest":"2017-05-12T07:04:04.000Z"},"geometry":{"type":"Point","coordinates":[28.2880657983173,-21.4679016200147]}},{"type":"Feature","properties":{"id":2924,"title":"Missing Maps: Zimbabwe Malaria Elimination 106","status":"ARCHIVED","created":"2017","lastUpdated":"2017","lastActive":"no","area":692.8571717865406,"changesets":1621,"mappers":39,"roads":9.57999519456574,"buildings":15112,"edits":15160,"latest":"2017-05-02T00:26:27.000Z"},"geometry":{"type":"Point","coordinates":[28.2538906009342,-18.3532722678745]}},{"type":"Feature","properties":{"id":2884,"title":"Missing Maps: Zimbabwe Malaria Elimination 85","status":"ARCHIVED","created":"2017","lastUpdated":"2017","lastActive":"no","area":1248.4453657272625,"changesets":1836,"mappers":77,"roads":327.843837306853,"buildings":16627,"edits":17142,"latest":"2017-04-26T00:09:08.000Z"},"geometry":{"type":"Point","coordinates":[28.849777251612,-21.1215069717201]}},{"type":"Feature","properties":{"id":2963,"title":"Missing Maps: Zimbabwe Malaria Elimination 127","status":"ARCHIVED","created":"2017","lastUpdated":"2017","lastActive":"no","area":813.3539894540471,"changesets":2304,"mappers":133,"roads":133.278000513283,"buildings":19091,"edits":19847,"latest":"2017-08-02T16:55:10.000Z"},"geometry":{"type":"Point","coordinates":[31.1366344811849,-19.1512185671456]}},{"type":"Feature","properties":{"id":2880,"title":"Missing Maps: Zimbabwe Malaria Elimination 84","status":"ARCHIVED","created":"2017","lastUpdated":"2017","lastActive":"no","area":849.839614543162,"changesets":1549,"mappers":53,"roads":0.0206834947756005,"buildings":18205,"edits":18264,"latest":"2017-05-12T07:17:44.000Z"},"geometry":{"type":"Point","coordinates":[28.5014200992884,-21.2166957370388]}},{"type":"Feature","properties":{"id":2976,"title":"Missing Maps: Zimbabwe Malaria Elimination 132","status":"ARCHIVED","created":"2017","lastUpdated":"2017","lastActive":"no","area":350.88029239505295,"changesets":1179,"mappers":37,"roads":0.0216834195097381,"buildings":16707,"edits":16717,"latest":"2017-05-15T04:27:38.000Z"},"geometry":{"type":"Point","coordinates":[29.4876286195405,-19.3114923056629]}},{"type":"Feature","properties":{"id":2788,"title":"Missing Maps: Zimbabwe Malaria Elimination 21","status":"ARCHIVED","created":"2017","lastUpdated":"2017","lastActive":"no","area":54.77913940118024,"changesets":1095,"mappers":29,"roads":0.507265566634284,"buildings":14931,"edits":15003,"latest":"2017-06-24T21:53:18.000Z"},"geometry":{"type":"Point","coordinates":[28.9698613904565,-19.1150513414463]}},{"type":"Feature","properties":{"id":2969,"title":"Missing Maps: Zimbabwe Malaria Elimination 129","status":"ARCHIVED","created":"2017","lastUpdated":"2017","lastActive":"no","area":645.5616655371582,"changesets":1333,"mappers":47,"roads":7.92276066058569,"buildings":16174,"edits":16334,"latest":"2017-05-11T19:43:14.000Z"},"geometry":{"type":"Point","coordinates":[29.1598266459534,-19.118248825991]}},{"type":"Feature","properties":{"id":2866,"title":"Missing Maps: Zimbabwe Malaria Elimination 74","status":"ARCHIVED","created":"2017","lastUpdated":"2017","lastActive":"no","area":1643.9582078357225,"changesets":1979,"mappers":51,"roads":0.0273826366802114,"buildings":15621,"edits":15775,"latest":"2017-04-30T19:19:31.000Z"},"geometry":{"type":"Point","coordinates":[29.4129168854387,-20.3312634291515]}},{"type":"Feature","properties":{"id":2983,"title":"Missing Maps: Zimbabwe Malaria Elimination 135","status":"ARCHIVED","created":"2017","lastUpdated":"2017","lastActive":"no","area":1558.4975300443505,"changesets":1076,"mappers":18,"roads":12.5034732947381,"buildings":9430,"edits":9450,"latest":"2017-05-16T08:49:02.000Z"},"geometry":{"type":"Point","coordinates":[29.5221978275255,-19.6178150573795]}},{"type":"Feature","properties":{"id":2829,"title":"Missing Maps: Zimbabwe Malaria Elimination 47","status":"ARCHIVED","created":"2017","lastUpdated":"2017","lastActive":"no","area":448.7195233692771,"changesets":1202,"mappers":37,"roads":0,"buildings":10502,"edits":10502,"latest":"2017-04-15T18:08:32.000Z"},"geometry":{"type":"Point","coordinates":[27.3087888892253,-20.1069999567029]}},{"type":"Feature","properties":{"id":2840,"title":"Missing Maps: Zimbabwe Malaria Elimination 55","status":"ARCHIVED","created":"2017","lastUpdated":"2017","lastActive":"no","area":750.5083234989515,"changesets":1738,"mappers":47,"roads":41.8380577449768,"buildings":14247,"edits":14331,"latest":"2017-04-25T03:46:39.000Z"},"geometry":{"type":"Point","coordinates":[28.8830908782938,-18.6571673509074]}},{"type":"Feature","properties":{"id":2846,"title":"Missing Maps: Zimbabwe Malaria Elimination 58","status":"ARCHIVED","created":"2017","lastUpdated":"2017","lastActive":"no","area":903.2056705079176,"changesets":1701,"mappers":72,"roads":11.5105254369568,"buildings":17463,"edits":17771,"latest":"2017-04-29T09:29:00.000Z"},"geometry":{"type":"Point","coordinates":[27.6525824119396,-19.5605607324227]}},{"type":"Feature","properties":{"id":2808,"title":"Missing Maps: Zimbabwe Malaria Elimination 35","status":"ARCHIVED","created":"2017","lastUpdated":"2017","lastActive":"no","area":56.34732182955632,"changesets":839,"mappers":50,"roads":1.58779736443398,"buildings":7724,"edits":7753,"latest":"2017-04-18T03:57:16.000Z"},"geometry":{"type":"Point","coordinates":[27.5374017415249,-17.9314105636508]}},{"type":"Feature","properties":{"id":2918,"title":"Missing Maps: Zimbabwe Malaria Elimination 102","status":"ARCHIVED","created":"2017","lastUpdated":"2017","lastActive":"no","area":758.7826664438055,"changesets":1659,"mappers":61,"roads":0.714509695886348,"buildings":20229,"edits":20252,"latest":"2017-08-16T05:56:53.000Z"},"geometry":{"type":"Point","coordinates":[28.9147179183597,-17.78132167437]}},{"type":"Feature","properties":{"id":4468,"title":"Missing Maps: West Harare, Zimbabwe 3/5","status":"ARCHIVED","created":"2018","lastUpdated":"2018","lastActive":"no","area":5.871127416958808,"changesets":297,"mappers":48,"roads":10.4045277044697,"buildings":4219,"edits":4409,"latest":"2018-05-04T11:27:02.000Z"},"geometry":{"type":"Point","coordinates":[30.9191490199491,-17.8906588959121]}},{"type":"Feature","properties":{"id":3053,"title":"Missing Maps: Zimbabwe Malaria Elimination 151","status":"ARCHIVED","created":"2017","lastUpdated":"2017","lastActive":"no","area":875.8937238085917,"changesets":1235,"mappers":19,"roads":0.227654127303031,"buildings":20834,"edits":20850,"latest":"2017-05-25T06:17:26.000Z"},"geometry":{"type":"Point","coordinates":[30.2144691694134,-20.8988687739626]}},{"type":"Feature","properties":{"id":3068,"title":"Missing Maps: Zimbabwe Malaria Elimination 153","status":"ARCHIVED","created":"2017","lastUpdated":"2017","lastActive":"no","area":592.4423664590373,"changesets":1434,"mappers":54,"roads":6.01945431741486,"buildings":16741,"edits":16893,"latest":"2017-07-25T18:26:15.000Z"},"geometry":{"type":"Point","coordinates":[29.7659596352043,-20.7737949898472]}},{"type":"Feature","properties":{"id":3073,"title":"Missing Maps: Zimbabwe Malaria Elimination 157","status":"ARCHIVED","created":"2017","lastUpdated":"2017","lastActive":"no","area":695.9857392539496,"changesets":1569,"mappers":41,"roads":10.026616043723,"buildings":16773,"edits":16888,"latest":"2017-05-26T21:44:35.000Z"},"geometry":{"type":"Point","coordinates":[29.5445331729926,-16.2765169906273]}},{"type":"Feature","properties":{"id":4470,"title":"Missing Maps: West Harare, Zimbabwe 5/5","status":"ARCHIVED","created":"2018","lastUpdated":"2018","lastActive":"no","area":7.261962379932375,"changesets":600,"mappers":67,"roads":11.6548363287533,"buildings":7140,"edits":7402,"latest":"2018-05-03T12:03:37.000Z"},"geometry":{"type":"Point","coordinates":[30.9408151333863,-17.90220137385]}},{"type":"Feature","properties":{"id":4466,"title":"Missing Maps: West Harare, Zimbabwe 1/5","status":"ARCHIVED","created":"2018","lastUpdated":"2018","lastActive":"no","area":6.934755919805506,"changesets":432,"mappers":43,"roads":17.670341634145,"buildings":7231,"edits":7564,"latest":"2018-05-03T11:12:48.000Z"},"geometry":{"type":"Point","coordinates":[30.8995299705196,-17.8794812737692]}},{"type":"Feature","properties":{"id":2714,"title":"Missing Maps: Zimbabwe Malaria Elimination 2","status":"ARCHIVED","created":"2017","lastUpdated":"2017","lastActive":"no","area":46.45985614111522,"changesets":1227,"mappers":45,"roads":185.564798288569,"buildings":6564,"edits":7435,"latest":"2017-04-03T03:23:24.000Z"},"geometry":{"type":"Point","coordinates":[25.9557168999993,-18.2019930061726]}},{"type":"Feature","properties":{"id":2811,"title":"Missing Maps: Zimbabwe Malaria Elimination 37","status":"ARCHIVED","created":"2017","lastUpdated":"2017","lastActive":"no","area":54.7652059193273,"changesets":1416,"mappers":34,"roads":0.00311241980128756,"buildings":13921,"edits":13925,"latest":"2017-04-29T11:22:57.000Z"},"geometry":{"type":"Point","coordinates":[27.3359411150269,-18.347976081161]}},{"type":"Feature","properties":{"id":2815,"title":"Missing Maps: Zimbabwe Malaria Elimination 39","status":"ARCHIVED","created":"2017","lastUpdated":"2017","lastActive":"no","area":49.89364930366843,"changesets":759,"mappers":36,"roads":38.2810102355844,"buildings":5482,"edits":5586,"latest":"2017-05-21T20:16:58.000Z"},"geometry":{"type":"Point","coordinates":[27.7987680764498,-18.0167813584068]}},{"type":"Feature","properties":{"id":2813,"title":"Mistake Do Not Use","status":"ARCHIVED","created":"2017","lastUpdated":"2017","lastActive":"no","area":54.7652059193273,"changesets":0,"mappers":0,"roads":0,"buildings":0,"edits":0,"latest":null},"geometry":{"type":"Point","coordinates":[27.3359411150269,-18.347976081161]}},{"type":"Feature","properties":{"id":2825,"title":"Missing Maps: Zimbabwe Malaria Elimination 43","status":"ARCHIVED","created":"2017","lastUpdated":"2017","lastActive":"no","area":53.35566178284181,"changesets":822,"mappers":34,"roads":7.67328006313057,"buildings":6647,"edits":6717,"latest":"2017-07-30T17:08:33.000Z"},"geometry":{"type":"Point","coordinates":[27.7195831852525,-18.1499513381137]}},{"type":"Feature","properties":{"id":2823,"title":"Missing Maps: Zimbabwe Malaria Elimination 41","status":"ARCHIVED","created":"2017","lastUpdated":"2017","lastActive":"no","area":54.64109539947108,"changesets":877,"mappers":52,"roads":2.73130250220412,"buildings":8237,"edits":8261,"latest":"2017-07-16T21:26:30.000Z"},"geometry":{"type":"Point","coordinates":[27.9261917409197,-18.19937446157]}},{"type":"Feature","properties":{"id":2902,"title":"Missing Maps: Zimbabwe Malaria Elimination 96","status":"ARCHIVED","created":"2017","lastUpdated":"2017","lastActive":"no","area":899.8936142183323,"changesets":1614,"mappers":101,"roads":11.6636889867731,"buildings":10977,"edits":11135,"latest":"2017-04-28T20:53:49.000Z"},"geometry":{"type":"Point","coordinates":[29.1109403263994,-17.3913012549791]}},{"type":"Feature","properties":{"id":2908,"title":"Missing Maps: Zimbabwe Malaria Elimination 97","status":"ARCHIVED","created":"2017","lastUpdated":"2017","lastActive":"no","area":840.9408494891122,"changesets":1590,"mappers":58,"roads":0.0184929341218144,"buildings":13370,"edits":13404,"latest":"2017-04-28T15:08:09.000Z"},"geometry":{"type":"Point","coordinates":[28.0904018450942,-18.3450972110612]}},{"type":"Feature","properties":{"id":2848,"title":"Missing Maps: Zimbabwe Malaria Elimination 60","status":"ARCHIVED","created":"2017","lastUpdated":"2017","lastActive":"no","area":1406.686247536727,"changesets":2056,"mappers":18,"roads":0.00994352395308397,"buildings":21365,"edits":21375,"latest":"2017-04-19T09:36:07.000Z"},"geometry":{"type":"Point","coordinates":[28.2365501477583,-19.6018807948715]}},{"type":"Feature","properties":{"id":2920,"title":"Missing Maps: Zimbabwe Malaria Elimination 104","status":"ARCHIVED","created":"2017","lastUpdated":"2017","lastActive":"no","area":774.3019207499435,"changesets":1749,"mappers":61,"roads":306.699091496953,"buildings":21011,"edits":21514,"latest":"2017-05-24T14:44:58.000Z"},"geometry":{"type":"Point","coordinates":[28.698674320355,-18.0005625482025]}},{"type":"Feature","properties":{"id":2911,"title":"Do Not Use, Replaced","status":"ARCHIVED","created":"2017","lastUpdated":"2017","lastActive":"no","area":1007.2709701767525,"changesets":0,"mappers":0,"roads":0,"buildings":0,"edits":0,"latest":null},"geometry":{"type":"Point","coordinates":[29.1354017671059,-17.4077822101653]}},{"type":"Feature","properties":{"id":2933,"title":"Missing Maps: Zimbabwe Malaria Elimination 112","status":"ARCHIVED","created":"2017","lastUpdated":"2017","lastActive":"no","area":691.0423465045619,"changesets":1872,"mappers":72,"roads":139.142328439926,"buildings":20623,"edits":21151,"latest":"2017-05-09T08:28:05.000Z"},"geometry":{"type":"Point","coordinates":[29.2341535198336,-18.3230460200127]}},{"type":"Feature","properties":{"id":2916,"title":"Missing Maps: Zimbabwe Malaria Elimination 100","status":"ARCHIVED","created":"2017","lastUpdated":"2017","lastActive":"no","area":1398.0254294858028,"changesets":1659,"mappers":40,"roads":98.3396528561587,"buildings":19366,"edits":19500,"latest":"2017-05-13T00:52:35.000Z"},"geometry":{"type":"Point","coordinates":[29.1850918222668,-17.6837638975717]}},{"type":"Feature","properties":{"id":2943,"title":"Missing Maps: Zimbabwe Malaria Elimination 116","status":"ARCHIVED","created":"2017","lastUpdated":"2017","lastActive":"no","area":663.1540269615123,"changesets":2078,"mappers":107,"roads":6.09972445031809,"buildings":18717,"edits":18848,"latest":"2017-05-05T06:37:06.000Z"},"geometry":{"type":"Point","coordinates":[29.0797990850103,-18.9353270820932]}},{"type":"Feature","properties":{"id":2951,"title":"Missing Maps: Zimbabwe Malaria Elimination 122","status":"ARCHIVED","created":"2017","lastUpdated":"2017","lastActive":"no","area":547.6634062724839,"changesets":1738,"mappers":66,"roads":52.1116858747779,"buildings":16295,"edits":16524,"latest":"2017-07-21T23:45:21.000Z"},"geometry":{"type":"Point","coordinates":[31.6011066011286,-18.9488882313388]}},{"type":"Feature","properties":{"id":2930,"title":"Missing Maps: Zimbabwe Malaria Elimination 110","status":"ARCHIVED","created":"2017","lastUpdated":"2017","lastActive":"no","area":678.7600348417029,"changesets":1522,"mappers":15,"roads":0.0151922955693008,"buildings":16664,"edits":16674,"latest":"2017-05-27T01:56:43.000Z"},"geometry":{"type":"Point","coordinates":[28.8533761401118,-18.232939711933]}},{"type":"Feature","properties":{"id":2941,"title":"Missing Maps: Zimbabwe Malaria Elimination 114","status":"ARCHIVED","created":"2017","lastUpdated":"2017","lastActive":"no","area":836.3498563796146,"changesets":1818,"mappers":72,"roads":20.1361360377823,"buildings":21309,"edits":21537,"latest":"2017-08-17T10:26:46.000Z"},"geometry":{"type":"Point","coordinates":[29.222457298371,-18.5487700719139]}},{"type":"Feature","properties":{"id":2949,"title":"Missing Maps: Zimbabwe Malaria Elimination 120","status":"ARCHIVED","created":"2017","lastUpdated":"2017","lastActive":"no","area":1404.8127933253527,"changesets":1781,"mappers":95,"roads":30.2994533953136,"buildings":11885,"edits":12233,"latest":"2017-05-11T07:36:13.000Z"},"geometry":{"type":"Point","coordinates":[30.5920731524007,-18.9055060637847]}},{"type":"Feature","properties":{"id":2946,"title":"Missing Maps: Zimbabwe Malaria Elimination 118","status":"ARCHIVED","created":"2017","lastUpdated":"2017","lastActive":"no","area":1014.6572139193219,"changesets":1368,"mappers":19,"roads":0.495611215276909,"buildings":16692,"edits":16734,"latest":"2017-05-05T20:02:40.000Z"},"geometry":{"type":"Point","coordinates":[29.5554679434188,-18.79509627157]}},{"type":"Feature","properties":{"id":3015,"title":"Missing Maps: Zimbabwe Malaria Elimination 144","status":"ARCHIVED","created":"2017","lastUpdated":"2017","lastActive":"no","area":792.5148279888792,"changesets":1883,"mappers":52,"roads":36.7819791267178,"buildings":18172,"edits":18328,"latest":"2017-05-24T14:28:42.000Z"},"geometry":{"type":"Point","coordinates":[30.2063325087928,-19.9151332695338]}},{"type":"Feature","properties":{"id":3042,"title":"Missing Maps: Zimbabwe Malaria Elimination 146","status":"ARCHIVED","created":"2017","lastUpdated":"2017","lastActive":"no","area":620.367888492036,"changesets":1205,"mappers":37,"roads":1.58015881348076,"buildings":22591,"edits":22822,"latest":"2017-05-23T06:07:42.000Z"},"geometry":{"type":"Point","coordinates":[30.0515324417814,-20.2578473669188]}},{"type":"Feature","properties":{"id":3013,"title":"Missing Maps: Zimbabwe Malaria Elimination 142","status":"ARCHIVED","created":"2017","lastUpdated":"2017","lastActive":"no","area":951.5267715664739,"changesets":2005,"mappers":114,"roads":220.788374419228,"buildings":22053,"edits":22760,"latest":"2017-05-31T22:07:57.000Z"},"geometry":{"type":"Point","coordinates":[30.37435373283,-19.6945231476376]}},