{"totalEdits":40168961,"totalBuildings":33025710,"totalRoads":853459.534397746,"mappersOnline":28,"totalTasksMapped":1590649,"totalMappers":132704,"totalProjects":3811,"Indonesia":[{"type":"Feature","properties":{"lastActive":"no","title":"Missing Maps: Pakal Sub Districs #PDC Surabaya","id":2089,"area":18.81794956875589,"year":"2017","lastUpdated":"2017-02-23T07:42:22.556993","changesets":159,"mappers":14,"roads":31.8629722924841,"buildings":14942,"edits":15936,"latest":"2017-02-23T07:17:46.000Z"},"geometry":{"type":"Point","coordinates":[112.6167061186063,-7.232053287736258]}},{"type":"Feature","properties":{"lastActive":"no","title":"Missing Maps: Tegalsari Sub Districts #PDC Surabaya","id":2068,"area":4.352705367877991,"year":"2017","lastUpdated":"2017-02-23T06:43:46.092824","changesets":811,"mappers":19,"roads":14.4948079330338,"buildings":19707,"edits":21119,"latest":"2017-02-23T06:43:22.000Z"},"geometry":{"type":"Point","coordinates":[112.7365915059586,-7.273679192932742]}},{"type":"Feature","properties":{"lastActive":"no","title":"Missing Maps: Tandes Sub Districs #PDC Surabaya","id":2086,"area":9.59192105411639,"year":"2017","lastUpdated":"2017-03-13T03:23:58.528244","changesets":282,"mappers":6,"roads":19.6289853943348,"buildings":19034,"edits":20892,"latest":"2017-03-13T03:23:29.000Z"},"geometry":{"type":"Point","coordinates":[112.67159149108815,-7.256986692636868]}},{"type":"Feature","properties":{"lastActive":"no","title":"Missing Maps: Tenggilis Mejoyo Sub Districts #PDC Surabaya","id":2076,"area":5.81606387737379,"year":"2017","lastUpdated":"2017-02-24T09:39:19.741414","changesets":231,"mappers":7,"roads":20.1319289322623,"buildings":17498,"edits":19337,"latest":"2017-02-24T07:01:54.000Z"},"geometry":{"type":"Point","coordinates":[112.75470075658156,-7.321207920804776]}},{"type":"Feature","properties":{"lastActive":"no","title":"Missing Maps: Wonocolo Sub Districs #PDC Surabaya","id":2084,"area":6.440117053980919,"year":"2017","lastUpdated":"2017-03-13T07:14:43.049967","changesets":272,"mappers":4,"roads":0.830678729600805,"buildings":19566,"edits":19821,"latest":"2017-03-13T07:14:37.000Z"},"geometry":{"type":"Point","coordinates":[112.74461905720595,-7.319304172665285]}},{"type":"Feature","properties":{"lastActive":"no","title":"Missing Maps: Jambangan Sub Districs #PDC Surabaya","id":2085,"area":4.372352653913602,"year":"2017","lastUpdated":"2017-02-22T08:46:06.144521","changesets":220,"mappers":9,"roads":40.262470357784,"buildings":8408,"edits":10104,"latest":"2017-02-22T08:43:12.000Z"},"geometry":{"type":"Point","coordinates":[112.7142616909127,-7.326209838237415]}},{"type":"Feature","properties":{"lastActive":"no","title":"Missing Maps: Gubeng Sub Districts #PDC Surabaya","id":2067,"area":7.946806546306559,"year":"2017","lastUpdated":"2017-02-02T10:08:15.969845","changesets":983,"mappers":20,"roads":46.6643877577317,"buildings":33562,"edits":34594,"latest":"2017-02-03T04:06:46.000Z"},"geometry":{"type":"Point","coordinates":[112.75751486523683,-7.279906320120404]}},{"type":"Feature","properties":{"lastActive":"no","title":"Missing Maps: Wiyung Sub Districts #PDC Surabaya","id":2083,"area":11.201966005752986,"year":"2017","lastUpdated":"2017-03-09T09:39:06.659261","changesets":1205,"mappers":12,"roads":74.3808535049186,"buildings":21239,"edits":24700,"latest":"2017-03-09T09:38:43.000Z"},"geometry":{"type":"Point","coordinates":[112.68986843301566,-7.310892652807414]}},{"type":"Feature","properties":{"lastActive":"no","title":"Untitled project","id":1178,"area":27.794434799584433,"year":"2015","lastUpdated":"2015-09-06T10:28:04.354627","changesets":0,"mappers":0,"roads":0,"buildings":0,"edits":0,"latest":null},"geometry":{"type":"Point","coordinates":[106.0372066497805,-6.2093326692160495]}},{"type":"Feature","properties":{"lastActive":"no","title":"Exposure Mapping in Lembata District, NTT","id":1149,"area":1267.3428895525565,"year":"2017","lastUpdated":"2017-11-30T20:46:13.768420","changesets":560,"mappers":14,"roads":478.898477952848,"buildings":35341,"edits":38868,"latest":"2018-03-03T19:23:11.000Z"},"geometry":{"type":"Point","coordinates":[123.5224915141611,-8.36570330756384]}},{"type":"Feature","properties":{"lastActive":"no","title":"Aktivitas Pengumpulan Data di Kabupaten Timor Tengah Utara (TTU)","id":1031,"area":2631.88847539912,"year":"2015","lastUpdated":"2015-06-15T06:35:31.269787","changesets":9,"mappers":2,"roads":1.51273446172416,"buildings":70,"edits":150,"latest":"2015-05-11T10:23:20.000Z"},"geometry":{"type":"Point","coordinates":[124.5221661307698,-9.397753251018983]}},{"type":"Feature","properties":{"lastActive":"no","title":"Raung Volcano - Indonesia","id":1148,"area":3396.384172396099,"year":"2015","lastUpdated":"2015-08-03T16:23:17.683156","changesets":5,"mappers":3,"roads":2.00355167127096,"buildings":79,"edits":92,"latest":"2015-10-21T20:55:26.000Z"},"geometry":{"type":"Point","coordinates":[114.01749492584383,-8.152091317033381]}},{"type":"Feature","properties":{"lastActive":"no","title":"Lokon Eruption, Tomohon, North Sulawesi","id":1064,"area":301.05854055841337,"year":"2017","lastUpdated":"2017-04-14T12:51:54.457575","changesets":107,"mappers":8,"roads":103.342312368624,"buildings":1987,"edits":2744,"latest":"2015-07-30T02:44:33.000Z"},"geometry":{"type":"Point","coordinates":[124.7894439697266,1.364234886982102]}},{"type":"Feature","properties":{"lastActive":"no","title":"Aktivitas Pengumpulan Data di sekitar Danau Tempe dan Ancaman Gempa Bumi ","id":1012,"area":8700.19532526336,"year":"2015","lastUpdated":"2015-07-15T09:00:26.145126","changesets":83,"mappers":5,"roads":149.429711120035,"buildings":6158,"edits":7632,"latest":"2015-07-15T09:20:41.000Z"},"geometry":{"type":"Point","coordinates":[119.976822781247,-4.19899635363682]}},{"type":"Feature","properties":{"lastActive":"no","title":"INSIST II ( Integrated Services for Infrastructure and Sanitation Technology ) II - Kelurahan Penjaringan","id":781,"area":23.838971811308195,"year":"2016","lastUpdated":"2016-05-13T06:39:44.793613","changesets":7,"mappers":5,"roads":1.94467321112018,"buildings":69,"edits":116,"latest":"2018-03-20T04:52:40.000Z"},"geometry":{"type":"Point","coordinates":[106.7956066131595,-6.117938977838495]}},{"type":"Feature","properties":{"lastActive":"no","title":"Missing Maps: Suko Mangunggal Sub Districs #PDC Surabaya","id":2087,"area":9.242927350922935,"year":"2017","lastUpdated":"2017-01-24T02:36:14.932324","changesets":273,"mappers":7,"roads":10.4724554996487,"buildings":19738,"edits":20413,"latest":"2017-01-24T02:36:08.000Z"},"geometry":{"type":"Point","coordinates":[112.69941822842135,-7.267204015642993]}},{"type":"Feature","properties":{"lastActive":"no","title":"Training BPBD Lembata","id":557,"area":24.269262834900626,"year":"2014","lastUpdated":"2014-06-08T13:04:36.368893","changesets":2,"mappers":1,"roads":3.8918661867317,"buildings":0,"edits":44,"latest":"2017-12-02T22:22:44.000Z"},"geometry":{"type":"Point","coordinates":[123.433456403716,-8.370876244965109]}},{"type":"Feature","properties":{"lastActive":"no","title":"SA Mini-Project","id":646,"area":7.43912469192682,"year":"2016","lastUpdated":"2016-10-06T05:48:08.036263","changesets":181,"mappers":14,"roads":140.074893209577,"buildings":7059,"edits":7513,"latest":"2018-04-29T08:34:04.000Z"},"geometry":{"type":"Point","coordinates":[124.85313279288144,1.4895341125474886]}},{"type":"Feature","properties":{"lastActive":"no","title":"Help digitize buildings & roads for better emergency response in Mt. Slamet ","id":454,"area":6.940715703178464,"year":"2017","lastUpdated":"2017-04-20T08:27:25.433288","changesets":0,"mappers":0,"roads":0,"buildings":0,"edits":0,"latest":null},"geometry":{"type":"Point","coordinates":[109.2160835114136,-7.243312629003557]}},{"type":"Feature","properties":{"lastActive":"no","title":"Aktivitas Pengumpulan Data di DAS Jeneberang","id":1011,"area":2353.106322075065,"year":"2015","lastUpdated":"2015-08-12T05:03:07.408034","changesets":83,"mappers":3,"roads":18.9318585168149,"buildings":1318,"edits":2128,"latest":"2015-08-12T05:02:39.000Z"},"geometry":{"type":"Point","coordinates":[119.64719559385553,-5.252323773489938]}},{"type":"Feature","properties":{"lastActive":"no","title":"Data Preparedness Activity in Kabupaten Malang, East Java, Indonesia","id":877,"area":3608.974911525084,"year":"2017","lastUpdated":"2017-09-13T09:40:09.513007","changesets":323,"mappers":29,"roads":96.0386433508552,"buildings":4919,"edits":6130,"latest":"2017-03-08T12:35:23.000Z"},"geometry":{"type":"Point","coordinates":[112.62696664877575,-8.1452933519069]}},{"type":"Feature","properties":{"lastActive":"no","title":"Missing Maps: Semarang Timur Sub Districts #PDC Semarang","id":4055,"area":5.66841480349367,"year":"2018","lastUpdated":"2018-08-06T05:33:06.537261","changesets":216,"mappers":3,"roads":35.0623491422408,"buildings":6138,"edits":6856,"latest":"2018-06-25T06:09:27.000Z"},"geometry":{"type":"Point","coordinates":[110.43868322335223,-6.978062177513326]}},{"type":"Feature","properties":{"lastActive":"no","title":"Missing Maps: Gunung Pati Sub Districts #PDC Semarang","id":4049,"area":60.18197606655719,"year":"2018","lastUpdated":"2018-08-06T06:05:43.662075","changesets":327,"mappers":18,"roads":173.74975489,"buildings":28455,"edits":29910,"latest":"2018-07-05T08:44:40.000Z"},"geometry":{"type":"Point","coordinates":[110.37206963878795,-7.068530346689254]}},{"type":"Feature","properties":{"lastActive":"no","title":"Missing Maps: Ngaliyan Sub Districts #PDC Semarang","id":4051,"area":44.8476968659584,"year":"2018","lastUpdated":"2018-08-06T05:37:48.045712","changesets":232,"mappers":10,"roads":46.1065645937855,"buildings":25146,"edits":25826,"latest":"2018-07-23T03:29:53.000Z"},"geometry":{"type":"Point","coordinates":[110.3218925230059,-6.999948654879286]}},{"type":"Feature","properties":{"lastActive":"no","title":"Missing Maps: Tugu Sub Districts #PDC Semarang","id":4059,"area":30.007635401369544,"year":"2018","lastUpdated":"2018-08-06T05:30:02.157373","changesets":150,"mappers":22,"roads":33.7110607357028,"buildings":7137,"edits":7618,"latest":"2018-07-09T08:38:35.000Z"},"geometry":{"type":"Point","coordinates":[110.32800888807617,-6.962720276824648]}},{"type":"Feature","properties":{"lastActive":"no","title":"Missing Maps: Semarang Utara Sub Districts #PDC Semarang","id":4057,"area":11.395719492311404,"year":"2018","lastUpdated":"2018-08-06T08:37:04.145430","changesets":219,"mappers":6,"roads":50.7096016227286,"buildings":3929,"edits":4597,"latest":"2018-06-25T10:56:51.000Z"},"geometry":{"type":"Point","coordinates":[110.42189014231293,-6.952410328346385]}},{"type":"Feature","properties":{"lastActive":"no","title":"Missing Maps: Palmerah Sub Districs #PDC Jakarta","id":2753,"area":7.419272470955236,"year":"2017","lastUpdated":"2017-08-11T11:05:29.377292","changesets":800,"mappers":6,"roads":165.927571905199,"buildings":31494,"edits":41934,"latest":"2017-08-11T08:17:08.000Z"},"geometry":{"type":"Point","coordinates":[106.79863347416256,-6.190577766277111]}},{"type":"Feature","properties":{"lastActive":"no","title":"Missing Maps: Pedurungan Sub Districts #PDC Semarang","id":4052,"area":22.337854701407565,"year":"2018","lastUpdated":"2018-08-06T08:11:55.988987","changesets":481,"mappers":31,"roads":46.6776194885713,"buildings":47970,"edits":49143,"latest":"2018-07-23T03:01:55.000Z"},"geometry":{"type":"Point","coordinates":[110.47735180032089,-7.013569200550371]}},{"type":"Feature","properties":{"lastActive":"no","title":"Missing Maps: Makasar Sub Districs #PDC Jakarta","id":2745,"area":21.702895230187877,"year":"2017","lastUpdated":"2017-10-03T11:45:38.471947","changesets":192,"mappers":5,"roads":8.0530548112001,"buildings":48332,"edits":49771,"latest":"2017-10-03T12:26:17.000Z"},"geometry":{"type":"Point","coordinates":[106.88881091182112,-6.265671671932517]}},{"type":"Feature","properties":{"lastActive":"no","title":"Missing Maps: Cilandak Sub Districs #PDC Jakarta","id":3025,"area":17.826440731180615,"year":"2017","lastUpdated":"2017-09-18T02:20:23.748734","changesets":183,"mappers":4,"roads":28.6590632722901,"buildings":26772,"edits":28477,"latest":"2017-09-18T02:21:25.000Z"},"geometry":{"type":"Point","coordinates":[106.79037014001176,-6.296312723975643]}},{"type":"Feature","properties":{"lastActive":"no","title":"Missing Maps: Semarang Tengah Sub Districts #PDC Semarang","id":4056,"area":5.39883144937884,"year":"2018","lastUpdated":"2018-08-06T05:32:51.954042","changesets":47,"mappers":3,"roads":1.56794116826866,"buildings":550,"edits":773,"latest":"2018-06-28T02:48:20.000Z"},"geometry":{"type":"Point","coordinates":[110.41925996194038,-6.980409007902033]}},{"type":"Feature","properties":{"lastActive":"no","title":"Missing Maps: Semarang Barat Sub Districts #PDC Semarang","id":4053,"area":22.83940614309307,"year":"2018","lastUpdated":"2018-08-06T05:36:31.569832","changesets":397,"mappers":3,"roads":63.8038792305447,"buildings":6232,"edits":7341,"latest":"2018-07-23T08:57:57.000Z"},"geometry":{"type":"Point","coordinates":[110.38159997378555,-6.981158175453452]}},{"type":"Feature","properties":{"lastActive":"no","title":"Missing Maps: Gambir Sub Districs #PDC Jakarta","id":2751,"area":7.532639425068289,"year":"2017","lastUpdated":"2017-07-19T06:19:51.641498","changesets":233,"mappers":6,"roads":17.4080305784869,"buildings":17606,"edits":19317,"latest":"2017-07-19T06:19:32.000Z"},"geometry":{"type":"Point","coordinates":[106.8203718552543,-6.171154719702192]}},{"type":"Feature","properties":{"lastActive":"no","title":"Missing Maps: Pulo Gadung Sub Districs #PDC Jakarta","id":2750,"area":15.017768102585904,"year":"2017","lastUpdated":"2017-09-12T04:32:22.990641","changesets":314,"mappers":4,"roads":6.68953063373833,"buildings":40209,"edits":41840,"latest":"2017-08-03T08:07:09.000Z"},"geometry":{"type":"Point","coordinates":[106.89690086619048,-6.197625972508872]}},{"type":"Feature","properties":{"lastActive":"no","title":"Missing Maps: Matraman Sub Districs #PDCJakarta","id":2688,"area":4.852162587562553,"year":"2017","lastUpdated":"2017-08-12T01:42:47.179637","changesets":558,"mappers":6,"roads":38.9919910337758,"buildings":33387,"edits":36523,"latest":"2017-08-12T01:41:26.000Z"},"geometry":{"type":"Point","coordinates":[106.86403250941883,-6.203846861545857]}},{"type":"Feature","properties":{"lastActive":"no","title":"Missing Maps: Banyumanik Sub Districts #PDC Semarang","id":4043,"area":31.263404954853762,"year":"2018","lastUpdated":"2018-08-06T05:31:51.701740","changesets":619,"mappers":13,"roads":288.064224597288,"buildings":29152,"edits":34454,"latest":"2018-07-17T04:20:43.000Z"},"geometry":{"type":"Point","coordinates":[110.41843549074818,-7.071346815035978]}},{"type":"Feature","properties":{"lastActive":"no","title":"Missing Maps: Tanjung Priok Sub Districs #PDC Jakarta","id":3034,"area":20.15061201281578,"year":"2017","lastUpdated":"2017-10-13T02:54:50.651974","changesets":374,"mappers":16,"roads":1.28290461708598,"buildings":54267,"edits":55399,"latest":"2017-10-13T02:51:12.000Z"},"geometry":{"type":"Point","coordinates":[106.87526847320747,-6.130059077764465]}},{"type":"Feature","properties":{"lastActive":"no","title":"Missing Maps: Taman Sari Sub Districs #PDC Jakarta","id":3020,"area":4.54761799681661,"year":"2017","lastUpdated":"2017-08-28T06:22:18.369496","changesets":109,"mappers":3,"roads":19.8164513461639,"buildings":12721,"edits":14125,"latest":"2017-08-28T03:47:21.000Z"},"geometry":{"type":"Point","coordinates":[106.81827530072084,-6.147442455303543]}},{"type":"Feature","properties":{"lastActive":"no","title":"Missing Maps: Gayamsari Sub Districts #PDC Semarang","id":4047,"area":6.330304124274967,"year":"2018","lastUpdated":"2018-08-06T06:08:31.641215","changesets":235,"mappers":4,"roads":19.1323572715271,"buildings":6573,"edits":7030,"latest":"2018-06-14T09:04:51.000Z"},"geometry":{"type":"Point","coordinates":[110.44484753630528,-6.981306206750869]}},{"type":"Feature","properties":{"lastActive":"no","title":"Missing Maps: Tambora Sub Districs #PDC Jakarta","id":2754,"area":5.505383816688497,"year":"2017","lastUpdated":"2017-10-04T05:20:54.609413","changesets":880,"mappers":38,"roads":182.465308905547,"buildings":47577,"edits":56756,"latest":"2017-10-04T05:20:50.000Z"},"geometry":{"type":"Point","coordinates":[106.80424273255694,-6.149033169746716]}},{"type":"Feature","properties":{"lastActive":"no","title":"Missing Maps: Senen Sub Districs #PDC Jakarta","id":2748,"area":4.380864638256325,"year":"2017","lastUpdated":"2017-07-19T06:02:23.722496","changesets":147,"mappers":4,"roads":20.1052342060612,"buildings":9397,"edits":11318,"latest":"2017-07-19T06:02:29.000Z"},"geometry":{"type":"Point","coordinates":[106.84384035549951,-6.184160457399865]}},{"type":"Feature","properties":{"lastActive":"no","title":"Missing Maps: Kramat Jati Sub Districs #PDCJakarta","id":2686,"area":13.129244982799834,"year":"2018","lastUpdated":"2018-08-06T05:31:15.162284","changesets":567,"mappers":19,"roads":285.753576206208,"buildings":102534,"edits":113731,"latest":"2017-08-18T10:11:25.000Z"},"geometry":{"type":"Point","coordinates":[106.8640847348396,-6.279779783507652]}},{"type":"Feature","properties":{"lastActive":"no","title":"Missing Maps: Menteng Sub Districs #PDCJakarta","id":2689,"area":6.49624219448772,"year":"2017","lastUpdated":"2017-07-19T03:19:33.622225","changesets":218,"mappers":7,"roads":31.9405292719671,"buildings":12253,"edits":16293,"latest":"2017-07-19T03:15:12.000Z"},"geometry":{"type":"Point","coordinates":[106.84043106438419,-6.196744143490816]}},{"type":"Feature","properties":{"lastActive":"no","title":"Missing Maps: Mampang Prapatan Sub Districs #PDC Jakarta","id":2682,"area":7.937678176628443,"year":"2017","lastUpdated":"2017-10-02T03:46:00.485797","changesets":322,"mappers":8,"roads":27.7159762684502,"buildings":34460,"edits":37381,"latest":"2017-09-25T07:37:28.000Z"},"geometry":{"type":"Point","coordinates":[106.82049338007799,-6.250523258124998]}},{"type":"Feature","properties":{"lastActive":"no","title":"Missing Maps: Jagakarsa Sub Districs #PDC Jakarta","id":3023,"area":25.42210309140762,"year":"2018","lastUpdated":"2018-01-23T02:28:08.519441","changesets":402,"mappers":4,"roads":291.254137097454,"buildings":60355,"edits":74341,"latest":"2017-09-27T08:09:19.000Z"},"geometry":{"type":"Point","coordinates":[106.82841968879188,-6.324855071706323]}},{"type":"Feature","properties":{"lastActive":"no","title":"Missing Maps: Koja Sub Districs #PDC Jakarta","id":3035,"area":9.89511853564706,"year":"2017","lastUpdated":"2017-10-06T01:23:56.938775","changesets":450,"mappers":10,"roads":18.8340571467575,"buildings":50848,"edits":53904,"latest":"2017-10-06T01:23:57.000Z"},"geometry":{"type":"Point","coordinates":[106.90884623358154,-6.124801110636465]}},{"type":"Feature","properties":{"lastActive":"no","title":"Missing Maps: Sambikerep Sub Districs #PDC Surabaya","id":2090,"area":15.750260933436985,"year":"2017","lastUpdated":"2017-03-09T08:03:33.740317","changesets":533,"mappers":22,"roads":22.4715844008338,"buildings":19822,"edits":21122,"latest":"2017-03-09T07:31:00.000Z"},"geometry":{"type":"Point","coordinates":[112.65460709418588,-7.273196028391399]}},{"type":"Feature","properties":{"lastActive":"no","title":"Missing Maps: Kemayoran Sub Districs #PDC Jakarta","id":2749,"area":7.795259817267811,"year":"2017","lastUpdated":"2017-10-04T05:34:29.124895","changesets":251,"mappers":4,"roads":14.5073181796966,"buildings":32519,"edits":34144,"latest":"2017-10-04T05:34:24.000Z"},"geometry":{"type":"Point","coordinates":[106.85533616313427,-6.1631393311236415]}},{"type":"Feature","properties":{"lastActive":"no","title":"Bukittinggi","id":561,"area":22.79253327213511,"year":"2018","lastUpdated":"2018-05-24T04:21:21.478995","changesets":144,"mappers":15,"roads":2.5745083230407,"buildings":2871,"edits":2902,"latest":"2018-05-24T05:43:54.000Z"},"geometry":{"type":"Point","coordinates":[100.36787174500279,-0.2991184507048943]}},{"type":"Feature","properties":{"lastActive":"no","title":"Missing Maps: Johar Baru Sub Districs #PDCJakarta","id":2690,"area":2.4040925614066637,"year":"2017","lastUpdated":"2017-06-02T07:47:04.065474","changesets":287,"mappers":7,"roads":10.3530194607153,"buildings":16558,"edits":19052,"latest":"2017-06-02T07:47:00.000Z"},"geometry":{"type":"Point","coordinates":[106.85444253329875,-6.180135227021557]}},{"type":"Feature","properties":{"lastActive":"no","title":"Pesisir Selatan - Landuse and infrastructure digitation ","id":707,"area":1043.4121305079773,"year":"2017","lastUpdated":"2017-09-14T06:46:26.295160","changesets":39,"mappers":10,"roads":17.7384625381326,"buildings":129,"edits":201,"latest":"2017-12-21T06:19:14.000Z"},"geometry":{"type":"Point","coordinates":[100.2155194963728,-0.5975655163029528]}},{"type":"Feature","properties":{"lastActive":"no","title":"Missing Maps: Penjaringan Sub Districs #PDC Jakarta","id":2486,"area":35.136973393611804,"year":"2018","lastUpdated":"2018-08-06T08:40:40.350562","changesets":226,"mappers":48,"roads":5.15657196033728,"buildings":2162,"edits":2753,"latest":"2018-03-06T14:48:38.000Z"},"geometry":{"type":"Point","coordinates":[106.77073897084878,-6.114211098892986]}},{"type":"Feature","properties":{"lastActive":"no","title":"Latihan Digitasi Gowa","id":271,"area":281.11005048623855,"year":"2014","lastUpdated":"2014-06-19T04:50:20.344888","changesets":2,"mappers":1,"roads":1.43564638457318,"buildings":0,"edits":6,"latest":"2014-12-16T13:49:24.000Z"},"geometry":{"type":"Point","coordinates":[119.41915510421575,-5.301210720840578]}},{"type":"Feature","properties":{"lastActive":"no","title":"Data Preparedness Activity in Kabupaten Sampang, East Java, Indonesia","id":864,"area":1233.9947430769478,"year":"2017","lastUpdated":"2017-08-07T01:01:31.179379","changesets":51,"mappers":18,"roads":21.219693482163,"buildings":1416,"edits":1570,"latest":"2018-07-02T15:44:18.000Z"},"geometry":{"type":"Point","coordinates":[113.23486225654037,-7.074234002607051]}},{"type":"Feature","properties":{"lastActive":"no","title":"Badan Geologi - Buildings and Roads Mapping Around Bromo","id":769,"area":620.501398306766,"year":"2017","lastUpdated":"2017-11-20T22:03:45.416177","changesets":88,"mappers":14,"roads":52.5930484749957,"buildings":1074,"edits":1455,"latest":"2017-11-24T03:16:54.000Z"},"geometry":{"type":"Point","coordinates":[112.99045894456948,-7.897870851576267]}},{"type":"Feature","properties":{"lastActive":"no","title":"The entire extent of July 2 earthquake zone (Above MMI5)","id":300,"area":2961.7402540220824,"year":"2017","lastUpdated":"2017-02-10T15:04:24.106276","changesets":0,"mappers":0,"roads":0,"buildings":0,"edits":0,"latest":null},"geometry":{"type":"Point","coordinates":[96.68815611447091,4.717837241689422]}},{"type":"Feature","properties":{"lastActive":"no","title":"Aceh Project Area 3","id":298,"area":6.038222593149481,"year":"2014","lastUpdated":"2014-02-10T00:13:56.577213","changesets":220,"mappers":15,"roads":180.530277037065,"buildings":1451,"edits":3788,"latest":"2017-04-03T22:58:32.000Z"},"geometry":{"type":"Point","coordinates":[96.7408725058942,4.679586947311554]}},{"type":"Feature","properties":{"lastActive":"no","title":"Data Preparedness Activity in Kabupaten Trenggalek, East Java, Indonesia","id":876,"area":1255.0878808500752,"year":"2015","lastUpdated":"2015-05-10T14:29:04.169571","changesets":7,"mappers":2,"roads":2.21069754399156,"buildings":33,"edits":43,"latest":"2017-10-19T08:57:19.000Z"},"geometry":{"type":"Point","coordinates":[111.62574405583699,-8.164920591189842]}},{"type":"Feature","properties":{"lastActive":"no","title":"Slamet Volcano (Level 3 Alert) - Data Preparedness for Slamet Volcano","id":657,"area":207.68726125337642,"year":"2018","lastUpdated":"2018-08-01T08:29:28.179684","changesets":73,"mappers":10,"roads":21.3452473119089,"buildings":198,"edits":281,"latest":"2018-08-01T08:27:45.000Z"},"geometry":{"type":"Point","coordinates":[109.27358150023801,-7.2688629599229255]}},{"type":"Feature","properties":{"lastActive":"no","title":"Aceh Project Area 1","id":295,"area":9.138886115765386,"year":"2014","lastUpdated":"2014-02-10T00:13:55.590445","changesets":0,"mappers":0,"roads":0,"buildings":0,"edits":0,"latest":null},"geometry":{"type":"Point","coordinates":[96.75236462199615,4.720937317109335]}},{"type":"Feature","properties":{"lastActive":"no","title":"Indonesian Red Cross Flood Risk Mapping (Bidara Cina)","id":577,"area":3.31536323642304,"year":"2014","lastUpdated":"2014-11-25T04:22:35.815646","changesets":143,"mappers":18,"roads":206.053469817669,"buildings":2548,"edits":3560,"latest":"2018-03-16T14:57:09.000Z"},"geometry":{"type":"Point","coordinates":[106.86719849573021,-6.234907142441561]}},{"type":"Feature","properties":{"lastActive":"no","title":"Scan for buildings not digitized - Aceh","id":301,"area":3375.758806919696,"year":"2016","lastUpdated":"2016-11-06T07:40:05.589909","changesets":36,"mappers":11,"roads":0,"buildings":61,"edits":62,"latest":"2016-11-10T08:59:19.000Z"},"geometry":{"type":"Point","coordinates":[96.70882087453181,4.722070342013595]}},{"type":"Feature","properties":{"lastActive":"no","title":"PMI Beginner Training","id":235,"area":2.861515775509014,"year":"2014","lastUpdated":"2014-02-10T00:13:42.101409","changesets":24,"mappers":2,"roads":7.40112671884598,"buildings":242,"edits":332,"latest":"2016-08-03T10:17:34.000Z"},"geometry":{"type":"Point","coordinates":[106.83411239092601,-6.2471101330350916]}},{"type":"Feature","properties":{"lastActive":"no","title":"Exposure Mapping Raung Volcano, East Java","id":1150,"area":2699.759445094531,"year":"2018","lastUpdated":"2018-02-15T21:02:54.849031","changesets":1898,"mappers":203,"roads":584.272666864601,"buildings":36866,"edits":42038,"latest":"2018-08-15T06:47:19.000Z"},"geometry":{"type":"Point","coordinates":[114.0118408203125,-8.140367946296045]}},{"type":"Feature","properties":{"lastActive":"no","title":"Help Digitize Tebet and Jatinegara for Jakarta Disaster Hackathon Competition","id":536,"area":30.978061269977502,"year":"2014","lastUpdated":"2014-05-22T08:43:48.720739","changesets":0,"mappers":0,"roads":0,"buildings":0,"edits":0,"latest":null},"geometry":{"type":"Point","coordinates":[106.85774801674499,-6.22904207625788]}},{"type":"Feature","properties":{"lastActive":"no","title":"Sidoarjo mud flow or Lapindo mud","id":105,"area":35.26109381384408,"year":"2018","lastUpdated":"2018-06-07T16:28:13.165642","changesets":15,"mappers":2,"roads":46.2228096467824,"buildings":105,"edits":330,"latest":"2018-06-07T16:27:51.000Z"},"geometry":{"type":"Point","coordinates":[112.70739373580666,-7.531908743544046]}},{"type":"Feature","properties":{"lastActive":"no","title":"Mount Sinabung USAID/OFDA & VDAP (New 2016 Imagery)","id":750,"area":170.26266065591648,"year":"2018","lastUpdated":"2018-07-03T07:55:03.314458","changesets":1446,"mappers":183,"roads":511.96897979068,"buildings":14336,"edits":21195,"latest":"2018-07-03T07:54:40.000Z"},"geometry":{"type":"Point","coordinates":[98.4939422607422,3.151757325034956]}},{"type":"Feature","properties":{"lastActive":"no","title":"Papandayan_Garut","id":242,"area":1049.3592609346736,"year":"2014","lastUpdated":"2014-02-10T00:13:42.274426","changesets":2,"mappers":1,"roads":1.73559658416444,"buildings":73,"edits":77,"latest":"2015-02-24T17:37:47.000Z"},"geometry":{"type":"Point","coordinates":[107.7480010836302,-7.367901585962504]}},{"type":"Feature","properties":{"lastActive":"no","title":"Indonesian Red Cross Flood Risk Mapping (Kedoya Utara & Kedoya Selatan)","id":576,"area":9.572161893358784,"year":"2017","lastUpdated":"2017-02-24T07:44:22.407544","changesets":59,"mappers":2,"roads":22.6293584517575,"buildings":1959,"edits":2049,"latest":"2017-02-24T07:43:42.000Z"},"geometry":{"type":"Point","coordinates":[106.75943509387957,-6.167587868325415]}},{"type":"Feature","properties":{"lastActive":"no","title":"Latihan Digitasi Kabupaten Bantaeng","id":257,"area":344.63955532746286,"year":"2017","lastUpdated":"2017-07-28T15:48:12.414454","changesets":173,"mappers":22,"roads":79.5374852011001,"buildings":330,"edits":1285,"latest":"2017-07-28T15:45:56.000Z"},"geometry":{"type":"Point","coordinates":[119.89062603564251,-5.556373098324156]}},{"type":"Feature","properties":{"lastActive":"no","title":"Latihan Digitasi","id":255,"area":38.4512878111956,"year":"2014","lastUpdated":"2014-02-10T00:13:43.744963","changesets":34,"mappers":8,"roads":8.8614900822867,"buildings":137,"edits":231,"latest":"2016-09-16T23:51:51.000Z"},"geometry":{"type":"Point","coordinates":[119.443616850439,-5.410901853339192]}},{"type":"Feature","properties":{"lastActive":"no","title":"Aceh Project Area 2","id":297,"area":35.388245837435974,"year":"2014","lastUpdated":"2014-02-10T00:13:56.170907","changesets":0,"mappers":0,"roads":0,"buildings":0,"edits":0,"latest":null},"geometry":{"type":"Point","coordinates":[96.85229300105163,4.718948308435477]}},{"type":"Feature","properties":{"lastActive":"no","title":"Let's fix Makassar!","id":160,"area":78.44017500255143,"year":"2014","lastUpdated":"2014-09-16T03:22:21.096065","changesets":264,"mappers":4,"roads":1.41987988599116,"buildings":188,"edits":443,"latest":"2016-03-25T08:46:55.000Z"},"geometry":{"type":"Point","coordinates":[119.42298887497651,-5.155344160142781]}},{"type":"Feature","properties":{"lastActive":"no","title":"Depok Red Cross / Tulane Mapping","id":204,"area":2.628292622844075,"year":"2014","lastUpdated":"2014-02-10T00:13:40.252854","changesets":0,"mappers":0,"roads":0,"buildings":0,"edits":0,"latest":null},"geometry":{"type":"Point","coordinates":[106.81034265463012,-6.3866765318811485]}},{"type":"Feature","properties":{"lastActive":"no","title":"Earthquake Response Kecamatan Ketol in Aceh","id":272,"area":495.55191652131555,"year":"2016","lastUpdated":"2016-11-06T07:45:51.730434","changesets":33,"mappers":1,"roads":15.4670984211259,"buildings":626,"edits":728,"latest":"2013-07-24T02:23:01.000Z"},"geometry":{"type":"Point","coordinates":[96.65088530348979,4.755831249820112]}},{"type":"Feature","properties":{"lastActive":"no","title":"Latihan Kabupaten Buton Utara","id":258,"area":14.951899744441585,"year":"2016","lastUpdated":"2016-04-26T17:26:57.318330","changesets":26,"mappers":20,"roads":2.93991534674924,"buildings":0,"edits":46,"latest":"2017-09-07T14:41:09.000Z"},"geometry":{"type":"Point","coordinates":[122.98526415412888,-4.772875248184541]}},{"type":"Feature","properties":{"lastActive":"no","title":"North Padang","id":96,"area":24.10763674645945,"year":"2016","lastUpdated":"2016-09-22T05:02:17.536703","changesets":637,"mappers":12,"roads":5.65796193987904,"buildings":234,"edits":896,"latest":"2016-04-24T09:08:39.000Z"},"geometry":{"type":"Point","coordinates":[100.3477992871682,-0.8759023199375913]}},{"type":"Feature","properties":{"lastActive":"no","title":"North Jakarta Red Cross / Tulane Mapping","id":203,"area":14.38620966520452,"year":"2014","lastUpdated":"2014-02-10T00:13:40.212294","changesets":15,"mappers":4,"roads":12.5963799401587,"buildings":322,"edits":453,"latest":"2018-07-28T20:56:47.000Z"},"geometry":{"type":"Point","coordinates":[106.83286570013442,-6.124472334448163]}},{"type":"Feature","properties":{"lastActive":"no","title":"Latihan Digitasi Jeneponto","id":270,"area":777.2106709731412,"year":"2016","lastUpdated":"2016-10-04T01:45:32.354652","changesets":1,"mappers":1,"roads":0,"buildings":0,"edits":0,"latest":"2016-10-04T01:44:34.000Z"},"geometry":{"type":"Point","coordinates":[119.66534204179281,-5.597032725136906]}},{"type":"Feature","properties":{"lastActive":"no","title":"Missing Maps: Tembalang Sub Districts #PDC Semarang","id":4058,"area":40.54145098859969,"year":"2018","lastUpdated":"2018-08-06T07:18:14.078940","changesets":665,"mappers":56,"roads":264.065386297172,"buildings":45216,"edits":48320,"latest":"2018-07-23T04:57:28.000Z"},"geometry":{"type":"Point","coordinates":[110.46827357314604,-7.0502292738300385]}},{"type":"Feature","properties":{"lastActive":"no","title":"Missing Maps: Pademangan Sub Districs #PDC Jakarta","id":3022,"area":17.827098830040605,"year":"2017","lastUpdated":"2017-10-26T09:36:56.855699","changesets":346,"mappers":8,"roads":153.407026575275,"buildings":30590,"edits":39877,"latest":"2017-10-26T09:33:55.000Z"},"geometry":{"type":"Point","coordinates":[106.84784907954632,-6.127350602279412]}},{"type":"Feature","properties":{"lastActive":"no","title":"Missing Maps: Kebayoran Lama Sub Districs #PDC Jakarta","id":3028,"area":19.26976843037759,"year":"2017","lastUpdated":"2017-09-27T03:20:10.675498","changesets":335,"mappers":8,"roads":62.00245880754,"buildings":47777,"edits":51474,"latest":"2017-09-27T03:17:09.000Z"},"geometry":{"type":"Point","coordinates":[106.77866423065161,-6.246290224810534]}},{"type":"Feature","properties":{"lastActive":"no","title":"Sentinel Asia Mini-Project: Tarogong, Garut, Indonesia","id":1378,"area":0.6008014497431968,"year":"2017","lastUpdated":"2017-11-29T19:42:32.121650","changesets":41,"mappers":9,"roads":26.8721401721233,"buildings":615,"edits":812,"latest":"2018-01-20T04:30:59.000Z"},"geometry":{"type":"Point","coordinates":[107.87681363157894,-7.194415578947369]}},{"type":"Feature","properties":{"lastActive":"no","title":"Missing Maps: Benowo Sub Districts #PDC Surabaya","id":2061,"area":23.449075266218717,"year":"2017","lastUpdated":"2017-03-09T08:04:57.300754","changesets":270,"mappers":5,"roads":183.471536478751,"buildings":22830,"edits":26345,"latest":"2017-02-10T02:55:18.000Z"},"geometry":{"type":"Point","coordinates":[112.64916272152706,-7.236855331522551]}},{"type":"Feature","properties":{"lastActive":"no","title":"Missing Maps: Gunung Anyar Sub Districts #PDC Surabaya","id":2077,"area":10.067519848590187,"year":"2017","lastUpdated":"2017-03-10T03:10:02.165314","changesets":531,"mappers":7,"roads":29.8302520765722,"buildings":21519,"edits":23315,"latest":"2017-03-07T10:12:37.000Z"},"geometry":{"type":"Point","coordinates":[112.79033475380193,-7.340583959366914]}},{"type":"Feature","properties":{"lastActive":"no","title":"Missing Maps: Pasar Rebo Sub Districs #PDC Jakarta","id":3017,"area":12.342260215364801,"year":"2017","lastUpdated":"2017-10-12T05:28:24.640276","changesets":351,"mappers":5,"roads":10.8466904443053,"buildings":37866,"edits":39283,"latest":"2017-10-06T07:49:46.000Z"},"geometry":{"type":"Point","coordinates":[106.85632580810972,-6.324300629578716]}},{"type":"Feature","properties":{"lastActive":"no","title":"Missing Maps: Ciracas Sub Districs #PDC Jakarta","id":3029,"area":16.66387875779246,"year":"2017","lastUpdated":"2017-10-25T03:29:45.455827","changesets":490,"mappers":7,"roads":211.138527419401,"buildings":57133,"edits":67829,"latest":"2017-10-25T03:29:42.000Z"},"geometry":{"type":"Point","coordinates":[106.87612466756241,-6.325648702398721]}},{"type":"Feature","properties":{"lastActive":"no","title":"Missing Maps: Kebayoran Baru Sub Districs #PDC Jakarta","id":3027,"area":12.766082803531393,"year":"2017","lastUpdated":"2017-11-08T08:23:02.692301","changesets":306,"mappers":16,"roads":4.65841257609875,"buildings":25429,"edits":27872,"latest":"2017-11-08T08:22:59.000Z"},"geometry":{"type":"Point","coordinates":[106.80188071625855,-6.243987715716354]}},{"type":"Feature","properties":{"lastActive":"no","title":"Missing Maps: Tebet Sub Districs #PDC Jakarta","id":2684,"area":9.408890607713326,"year":"2017","lastUpdated":"2017-07-19T04:00:28.850502","changesets":497,"mappers":20,"roads":19.6793730101626,"buildings":31333,"edits":34092,"latest":"2017-07-19T03:42:49.000Z"},"geometry":{"type":"Point","coordinates":[106.85360291317762,-6.2262045054249855]}},{"type":"Feature","properties":{"lastActive":"no","title":"Missing Maps: Cempaka Putih Sub Districs #PDCJakarta","id":2691,"area":4.778549026419479,"year":"2017","lastUpdated":"2017-08-12T05:41:25.858062","changesets":434,"mappers":19,"roads":59.0535390938455,"buildings":19115,"edits":22286,"latest":"2017-08-12T05:38:39.000Z"},"geometry":{"type":"Point","coordinates":[106.86969383897531,-6.1821635971076905]}},{"type":"Feature","properties":{"lastActive":"no","title":"Missing Maps: Setiabudi Sub Districs #PDCJakarta","id":2685,"area":8.932975151497558,"year":"2017","lastUpdated":"2017-08-07T07:55:47.435500","changesets":688,"mappers":5,"roads":46.1882909657013,"buildings":23820,"edits":30885,"latest":"2017-08-07T16:17:37.000Z"},"geometry":{"type":"Point","coordinates":[106.83086788193923,-6.2162576455900345]}},{"type":"Feature","properties":{"lastActive":"no","title":"Missing Maps: Jatinegara Sub Districs #PDCJakarta","id":2687,"area":10.387964772587344,"year":"2017","lastUpdated":"2017-07-04T03:31:33.135772","changesets":411,"mappers":8,"roads":34.1880286676882,"buildings":32672,"edits":35555,"latest":"2017-07-04T03:37:09.000Z"},"geometry":{"type":"Point","coordinates":[106.874935460549,-6.225754308453492]}},{"type":"Feature","properties":{"lastActive":"no","title":"Missing Maps: Pasar Minggu Sub Districs #PDC Jakarta","id":3024,"area":21.761532552185738,"year":"2017","lastUpdated":"2017-11-06T03:44:56.773927","changesets":1083,"mappers":5,"roads":165.606518286917,"buildings":59648,"edits":71407,"latest":"2017-11-06T03:43:48.000Z"},"geometry":{"type":"Point","coordinates":[106.83320132036903,-6.289915276215382]}},{"type":"Feature","properties":{"lastActive":"no","title":"Missing Maps: Sawah Besar Sub Districs #PDC Jakarta","id":3030,"area":5.440310267845165,"year":"2017","lastUpdated":"2017-08-04T04:30:52.003551","changesets":133,"mappers":3,"roads":15.8262917961787,"buildings":12940,"edits":13867,"latest":"2017-08-04T04:30:15.000Z"},"geometry":{"type":"Point","coordinates":[106.83330205987895,-6.155313278099123]}},{"type":"Feature","properties":{"lastActive":"no","title":"Missing Maps: Semarang Selatan Sub Districts #PDC Semarang","id":4054,"area":6.216206220761751,"year":"2018","lastUpdated":"2018-08-06T05:36:10.732239","changesets":317,"mappers":4,"roads":104.549294432283,"buildings":7273,"edits":9672,"latest":"2018-06-28T09:25:52.000Z"},"geometry":{"type":"Point","coordinates":[110.42482039142376,-6.997570745448896]}},{"type":"Feature","properties":{"lastActive":"no","title":"Training Institut Teknologi Medan","id":563,"area":112.12145232801778,"year":"2017","lastUpdated":"2017-02-13T02:53:38.194472","changesets":1768,"mappers":20,"roads":1583.15524998772,"buildings":256653,"edits":266599,"latest":"2018-05-02T07:56:02.000Z"},"geometry":{"type":"Point","coordinates":[98.67610930021645,3.5706880135207824]}},{"type":"Feature","properties":{"lastActive":"no","title":"Training UNHAS Makassar","id":555,"area":18.272629889754338,"year":"2014","lastUpdated":"2014-09-16T03:28:36.724083","changesets":0,"mappers":0,"roads":0,"buildings":0,"edits":0,"latest":null},"geometry":{"type":"Point","coordinates":[119.49361259727421,-5.1320717145838]}},{"type":"Feature","properties":{"lastActive":"no","title":"Missing Maps: Genuk Sub Districts #PDC Semarang","id":4048,"area":26.89138122809543,"year":"2018","lastUpdated":"2018-08-07T02:00:21.903906","changesets":337,"mappers":17,"roads":211.651213602355,"buildings":30048,"edits":32607,"latest":"2018-07-23T04:32:20.000Z"},"geometry":{"type":"Point","coordinates":[110.47950721245812,-6.962021972866799]}},{"type":"Feature","properties":{"lastActive":"no","title":"Missing Maps: Kelapa Gading Sub Districs #PDC Jakarta","id":3036,"area":15.528538143753476,"year":"2017","lastUpdated":"2017-10-02T04:01:19.281003","changesets":117,"mappers":4,"roads":149.40801202277,"buildings":31103,"edits":37501,"latest":"2017-10-02T03:57:46.000Z"},"geometry":{"type":"Point","coordinates":[106.9093928072389,-6.164721674240688]}},{"type":"Feature","properties":{"lastActive":"no","title":"Mapping Disaster Prone Area for Papandayan and Guntur Volcano","id":256,"area":910.4873497253371,"year":"2017","lastUpdated":"2017-09-07T11:57:12.916809","changesets":80,"mappers":19,"roads":28.1075296649536,"buildings":1376,"edits":1623,"latest":"2018-03-22T19:59:44.000Z"},"geometry":{"type":"Point","coordinates":[107.82536845749352,-7.208099283922688]}},{"type":"Feature","properties":{"lastActive":"no","title":"Aceh Project Area 4","id":299,"area":26.996912641232914,"year":"2016","lastUpdated":"2016-11-06T08:14:30.610114","changesets":0,"mappers":0,"roads":0,"buildings":0,"edits":0,"latest":null},"geometry":{"type":"Point","coordinates":[96.83228586757305,4.624431665685236]}},{"type":"Feature","properties":{"lastActive":"no","title":"Missing Maps: Karang Pilang Sub Districts #PDC Surabaya","id":2082,"area":9.73798164199747,"year":"2017","lastUpdated":"2017-02-24T06:02:30.027860","changesets":679,"mappers":8,"roads":25.8296648923577,"buildings":21870,"edits":24773,"latest":"2017-02-06T09:38:03.000Z"},"geometry":{"type":"Point","coordinates":[112.69261378037726,-7.33240264164763]}},{"type":"Feature","properties":{"lastActive":"no","title":"Missing Maps: Dukuh Pakis Sub Districts #PDC Surabaya","id":2064,"area":10.670068972482527,"year":"2017","lastUpdated":"2017-03-13T02:52:02.417687","changesets":330,"mappers":6,"roads":11.5774127841071,"buildings":16983,"edits":18105,"latest":"2017-03-13T02:51:56.000Z"},"geometry":{"type":"Point","coordinates":[112.70392786916287,-7.291044066244551]}},{"type":"Feature","properties":{"lastActive":"no","title":"Mapping Bengkulu","id":305,"area":10.304714027034251,"year":"2016","lastUpdated":"2016-06-15T11:24:58.157319","changesets":0,"mappers":0,"roads":0,"buildings":0,"edits":0,"latest":null},"geometry":{"type":"Point","coordinates":[102.26665590767763,-3.792052116710844]}},{"type":"Feature","properties":{"lastActive":"no","title":"Mont Agung (Bali, Indonesia)","id":3638,"area":1441.56284076509,"year":"2017","lastUpdated":"2017-10-19T22:10:41.975139","changesets":0,"mappers":0,"roads":0,"buildings":0,"edits":0,"latest":null},"geometry":{"type":"Point","coordinates":[115.52055358886712,-8.421067549258453]}},{"type":"Feature","properties":{"lastActive":"no","title":"Missing Maps: Kembangan Sub Districs #PDC Jakarta","id":2752,"area":25.229228382556542,"year":"2017","lastUpdated":"2017-10-06T07:17:22.677865","changesets":1726,"mappers":6,"roads":261.075363905223,"buildings":77494,"edits":96219,"latest":"2017-10-06T07:17:24.000Z"},"geometry":{"type":"Point","coordinates":[106.74357924074232,-6.193109400909085]}},{"type":"Feature","properties":{"lastActive":"no","title":"Missing Maps: Pancoran Sub Districs #PDC Jakarta","id":2683,"area":8.932455561387133,"year":"2017","lastUpdated":"2017-08-08T10:48:57.605545","changesets":1195,"mappers":5,"roads":146.859901413294,"buildings":51134,"edits":59754,"latest":"2017-08-09T02:24:30.000Z"},"geometry":{"type":"Point","coordinates":[106.84510601527884,-6.255463737841122]}},{"type":"Feature","properties":{"lastActive":"no","title":"Bandung City, West Java, Indonesia","id":1336,"area":262.89341640647143,"year":"2017","lastUpdated":"2017-04-29T04:03:26.357689","changesets":1171,"mappers":128,"roads":105.599907444344,"buildings":20301,"edits":21971,"latest":"2017-04-29T07:43:37.000Z"},"geometry":{"type":"Point","coordinates":[107.5979383368241,-6.9034536539085645]}},{"type":"Feature","properties":{"lastActive":"no","title":"Indonesian Fires 2015 | South Kalimantan - Bahaur","id":1339,"area":5440.689877501984,"year":"2017","lastUpdated":"2017-12-18T16:27:17.374621","changesets":476,"mappers":59,"roads":244.667077033554,"buildings":1578,"edits":2529,"latest":"2018-03-01T22:41:21.000Z"},"geometry":{"type":"Point","coordinates":[113.93609617099693,-3.045595136632177]}},{"type":"Feature","properties":{"lastActive":"no","title":"Indonesia OSM Community Mapathon - Pontianak, West Kalimantan","id":849,"area":299.0802254542062,"year":"2018","lastUpdated":"2018-08-10T04:15:49.301682","changesets":18039005,"mappers":831017,"roads":11802903.707098,"buildings":292327594,"edits":374100435,"latest":"2018-08-18T05:33:58.000Z"},"geometry":{"type":"Point","coordinates":[109.3354644693899,-0.06771033471326508]}},{"type":"Feature","properties":{"lastActive":"no","title":"Missing Maps: Bogor","id":2278,"area":105.95848593815685,"year":"2017","lastUpdated":"2017-10-20T02:09:01.674251","changesets":1920,"mappers":154,"roads":20.9793348838668,"buildings":13870,"edits":14971,"latest":"2017-03-09T16:57:18.000Z"},"geometry":{"type":"Point","coordinates":[106.79768857920793,-6.582211509900992]}},{"type":"Feature","properties":{"lastActive":"no","title":"Missing Maps: Candisari Sub Districts #PDC Semarang","id":4045,"area":6.584154314154103,"year":"2018","lastUpdated":"2018-08-06T05:59:51.599320","changesets":231,"mappers":4,"roads":50.7813785654947,"buildings":5331,"edits":6527,"latest":"2018-06-28T08:06:40.000Z"},"geometry":{"type":"Point","coordinates":[110.42733293227269,-7.012433435353471]}},{"type":"Feature","properties":{"lastActive":"no","title":"Missing Maps: Gajah Mungkur Sub Districts #PDC Semarang","id":4046,"area":9.7825467368316,"year":"2018","lastUpdated":"2018-08-06T06:08:48.756556","changesets":119,"mappers":3,"roads":24.996948716469,"buildings":6160,"edits":7312,"latest":"2018-06-26T09:46:00.000Z"},"geometry":{"type":"Point","coordinates":[110.40541227519552,-7.010449927251178]}},{"type":"Feature","properties":{"lastActive":"no","title":"Missing Maps: Mijen Sub Districts #PDC Semarang","id":4050,"area":58.38424258359907,"year":"2018","lastUpdated":"2018-08-06T05:32:30.813455","changesets":641,"mappers":16,"roads":248.15917317191,"buildings":44462,"edits":48895,"latest":"2018-07-17T03:41:21.000Z"},"geometry":{"type":"Point","coordinates":[110.31919823752393,-7.056211126134134]}},{"type":"Feature","properties":{"lastActive":"no","title":"Mapping Selayar Island Indonesia for Preparedness","id":135,"area":718.4990620335725,"year":"2018","lastUpdated":"2018-07-02T15:38:21.491175","changesets":491,"mappers":15,"roads":636.051965853487,"buildings":11415,"edits":16506,"latest":"2018-07-02T15:37:14.000Z"},"geometry":{"type":"Point","coordinates":[120.4981207914487,-6.187275687490874]}},{"type":"Feature","properties":{"lastActive":"no","title":"Help Digitize Tasikmalaya District for Landslide Assessment ","id":95,"area":685.6501175075578,"year":"2017","lastUpdated":"2017-08-06T23:10:34.271905","changesets":2,"mappers":1,"roads":4.60261610734993,"buildings":1,"edits":13,"latest":"2014-09-12T19:23:16.000Z"},"geometry":{"type":"Point","coordinates":[108.0246162264145,-7.459991376830135]}},{"type":"Feature","properties":{"lastActive":"no","title":"Samarinda City Tasking -  OSM Training Samarinda","id":902,"area":265.6469267745536,"year":"2016","lastUpdated":"2016-01-25T18:07:18.650262","changesets":10,"mappers":3,"roads":3.36536555083597,"buildings":358,"edits":428,"latest":"2016-01-27T10:36:16.000Z"},"geometry":{"type":"Point","coordinates":[117.15404711271577,-0.5307510352929602]}},{"type":"Feature","properties":{"lastActive":"no","title":"Kota Depok","id":628,"area":233.66077112635446,"year":"2018","lastUpdated":"2018-08-07T05:46:30.396155","changesets":133,"mappers":37,"roads":10.1458824440017,"buildings":9609,"edits":9802,"latest":"2018-08-13T01:33:31.000Z"},"geometry":{"type":"Point","coordinates":[106.83125982707669,-6.37275016037116]}}],"totalArea":2408769110.1069508,"Mongolia":[{"type":"Feature","properties":{"lastActive":"no","title":"Mapping Ulaanbaatar, Mongolia - Su'xbaatar and Chingeltei Districts","id":2022,"area":296.9698603173244,"year":"2018","lastUpdated":"2018-03-17T22:02:23.400060","changesets":0,"mappers":0,"roads":0,"buildings":0,"edits":0,"latest":null},"geometry":{"type":"Point","coordinates":[106.92217922330099,48.03787994660196]}},{"type":"Feature","properties":{"lastActive":"no","title":"Erdenet, Mongol","id":357,"area":215.91089210282914,"year":"2016","lastUpdated":"2016-06-20T18:39:28.914318","changesets":1,"mappers":1,"roads":1.56510359569705,"buildings":14,"edits":49,"latest":"2013-12-17T23:11:57.000Z"},"geometry":{"type":"Point","coordinates":[104.07159803848825,49.012281251038225]}},{"type":"Feature","properties":{"lastActive":"no","title":"Hashaat sum","id":3617,"area":2589.6325478030785,"year":"2018","lastUpdated":"2018-03-28T21:48:27.461960","changesets":82,"mappers":14,"roads":458.829261849085,"buildings":264,"edits":1123,"latest":"2018-03-28T21:48:02.000Z"},"geometry":{"type":"Point","coordinates":[103.20555800281657,47.43599268738683]}},{"type":"Feature","properties":{"lastActive":"no","title":"Mapping Ulaanbaatar, Mongolia - Bayanzu'rx and Nalaix Districts","id":2254,"area":1698.1376834942735,"year":"2018","lastUpdated":"2018-04-27T14:18:02.391298","changesets":0,"mappers":0,"roads":0,"buildings":0,"edits":0,"latest":null},"geometry":{"type":"Point","coordinates":[107.4150030446948,47.9413245060865]}},{"type":"Feature","properties":{"lastActive":"no","title":"Bulgan sum","id":3622,"area":3259.9412271023048,"year":"2017","lastUpdated":"2017-11-08T03:54:53.820994","changesets":755,"mappers":16,"roads":652.269737190044,"buildings":1730,"edits":2943,"latest":"2017-11-04T08:06:59.000Z"},"geometry":{"type":"Point","coordinates":[101.03539235665707,47.012723943812425]}},{"type":"Feature","properties":{"lastActive":"no","title":"ÐÑÐ»Ð³Ð°Ð½ ","id":359,"area":12.605946634014538,"year":"2017","lastUpdated":"2017-11-01T14:11:23.434266","changesets":21,"mappers":6,"roads":23.5669670973381,"buildings":452,"edits":614,"latest":"2017-11-01T14:13:06.000Z"},"geometry":{"type":"Point","coordinates":[103.530487046123,48.81432228307163]}},{"type":"Feature","properties":{"lastActive":"no","title":"Tsetserleg sum","id":3611,"area":2481.406043518446,"year":"2017","lastUpdated":"2017-11-03T10:56:45.281961","changesets":2,"mappers":1,"roads":0,"buildings":14,"edits":14,"latest":"2017-11-06T09:16:39.000Z"},"geometry":{"type":"Point","coordinates":[100.80596861826358,49.0399797360591]}},{"type":"Feature","properties":{"lastActive":"no","title":"Erdenebulgan sum","id":3783,"area":61.75209371627156,"year":"2018","lastUpdated":"2018-07-26T02:36:52.748412","changesets":300,"mappers":32,"roads":75.8290664256473,"buildings":820,"edits":1300,"latest":"2018-07-26T02:35:32.000Z"},"geometry":{"type":"Point","coordinates":[101.47483737653846,47.51158596915389]}},{"type":"Feature","properties":{"lastActive":"no","title":"Ulziit sum","id":3608,"area":1691.2232764727976,"year":"2017","lastUpdated":"2017-12-16T14:55:25.499980","changesets":8,"mappers":2,"roads":28.9655597348063,"buildings":375,"edits":397,"latest":"2017-12-16T16:56:24.000Z"},"geometry":{"type":"Point","coordinates":[102.50110500797966,48.06102034864942]}},{"type":"Feature","properties":{"lastActive":"no","title":"Tsenkher sum","id":3612,"area":3166.989134861274,"year":"2018","lastUpdated":"2018-08-11T15:07:12.874609","changesets":349,"mappers":13,"roads":1268.45912138723,"buildings":1156,"edits":2027,"latest":"2018-08-13T07:28:17.000Z"},"geometry":{"type":"Point","coordinates":[101.68685399247293,47.168898601818455]}},{"type":"Feature","properties":{"lastActive":"no","title":"Improve Ulaanbaatar, Mongolia with new satellite imagery for improved urban services delivery","id":703,"area":1835.4019199000866,"year":"2016","lastUpdated":"2016-10-19T16:39:47.265962","changesets":0,"mappers":0,"roads":0,"buildings":0,"edits":0,"latest":null},"geometry":{"type":"Point","coordinates":[106.92742417111465,47.89832405173615]}},{"type":"Feature","properties":{"lastActive":"no","title":"ÑÑÐ´ÑÐ½ÑÑ-Ð¼Ð¾Ð½Ð³Ð¾Ð»","id":358,"area":698.0222003669743,"year":"2018","lastUpdated":"2018-01-27T19:00:52.602514","changesets":3,"mappers":3,"roads":1.07403042992152,"buildings":31,"edits":33,"latest":"2018-01-27T18:57:07.000Z"},"geometry":{"type":"Point","coordinates":[104.06195066910041,48.96986066915052]}},{"type":"Feature","properties":{"lastActive":"no","title":"Ulaanbaatar, Mongolia - ÐÐ¾Ð½Ð³Ð¾Ð» Ð£Ð»ÑÑÐ½ Ð£Ð»Ð°Ð°Ð½Ð±Ð°Ð°ÑÐ°Ñ ÑÐ¾Ñ","id":324,"area":414.8209175618219,"year":"2016","lastUpdated":"2016-03-11T16:44:23.957574","changesets":407,"mappers":33,"roads":43.0490672387733,"buildings":6286,"edits":8441,"latest":"2016-03-11T16:41:13.000Z"},"geometry":{"type":"Point","coordinates":[106.8725967258019,47.95574033709165]}},{"type":"Feature","properties":{"lastActive":"no","title":"Erdenebulgan Soum Center","id":3847,"area":65.67714091334696,"year":"2018","lastUpdated":"2018-05-13T08:46:53.565217","changesets":523,"mappers":50,"roads":108.39722771687,"buildings":1712,"edits":2619,"latest":"2018-05-13T08:45:31.000Z"},"geometry":{"type":"Point","coordinates":[101.4685454682905,47.465522048388706]}}],"Tanzania":[{"type":"Feature","properties":{"lastActive":"no","title":"MSD & JSI/USAID Tanzania Road Import - Dodoma region","id":2012,"area":30070.63156173727,"year":"2016","lastUpdated":"2016-09-16T13:16:37.526872","changesets":0,"mappers":0,"roads":0,"buildings":0,"edits":0,"latest":null},"geometry":{"type":"Point","coordinates":[35.84633163505444,-5.8241716175440175]}},{"type":"Feature","properties":{"lastActive":"no","title":"MSD & JSI/USAID Tanzania Road Import - Singida region","id":1999,"area":26074.754451063287,"year":"2016","lastUpdated":"2016-09-25T10:42:24.947931","changesets":0,"mappers":0,"roads":0,"buildings":0,"edits":0,"latest":null},"geometry":{"type":"Point","coordinates":[34.50140704015796,-5.676229952710943]}},{"type":"Feature","properties":{"lastActive":"no","title":"MSD & JSI/USAID Tanzania Road Import - Arusha region","id":1971,"area":31245.987566415035,"year":"2017","lastUpdated":"2017-07-24T23:13:32.143193","changesets":0,"mappers":0,"roads":0,"buildings":0,"edits":0,"latest":null},"geometry":{"type":"Point","coordinates":[35.98178328230096,-2.99082315747327]}},{"type":"Feature","properties":{"lastActive":"no","title":"MSD & JSI/USAID Tanzania Road Import - Kagera region","id":2000,"area":20054.048144070715,"year":"2017","lastUpdated":"2017-08-17T15:35:09.385364","changesets":0,"mappers":0,"roads":0,"buildings":0,"edits":0,"latest":null},"geometry":{"type":"Point","coordinates":[31.041926812127926,-2.3254413013888326]}},{"type":"Feature","properties":{"lastActive":"no","title":"Missing Maps: Dar es Salaam - Ramani Huria4","id":1543,"area":6.586859089516285,"year":"2016","lastUpdated":"2016-08-30T14:36:32.836306","changesets":1158,"mappers":78,"roads":650.511318632513,"buildings":20178,"edits":24608,"latest":"2016-09-01T08:17:43.000Z"},"geometry":{"type":"Point","coordinates":[39.28279625696989,-6.904387474285868]}},{"type":"Feature","properties":{"lastActive":"no","title":"Peace Corps Tanzania -- Lushoto","id":1903,"area":69.21165370312055,"year":"2017","lastUpdated":"2017-09-19T04:44:26.195543","changesets":640,"mappers":88,"roads":126.39665147357,"buildings":9101,"edits":10836,"latest":"2017-07-28T23:41:56.000Z"},"geometry":{"type":"Point","coordinates":[38.303773299507476,-4.810238891566513]}},{"type":"Feature","properties":{"lastActive":"no","title":"Tanzania Development Trust: Serengeti district mapping project","id":1788,"area":13584.124479203561,"year":"2018","lastUpdated":"2018-08-16T16:22:03.146742","changesets":0,"mappers":0,"roads":0,"buildings":0,"edits":0,"latest":null},"geometry":{"type":"Point","coordinates":[34.658088684082024,-1.9070894696788552]}},{"type":"Feature","properties":{"lastActive":"no","title":"Missing Maps: Dar es Salaam - Ramani Huria5","id":1544,"area":5.586401873878637,"year":"2016","lastUpdated":"2016-09-01T11:57:41.829182","changesets":1381,"mappers":124,"roads":368.316305127799,"buildings":20873,"edits":24593,"latest":"2016-09-07T11:12:52.000Z"},"geometry":{"type":"Point","coordinates":[39.230513040279384,-6.878683401104242]}},{"type":"Feature","properties":{"lastActive":"no","title":"Missing Maps: Dar es Salaam - Ramani Huria3","id":1446,"area":3.927576109372564,"year":"2016","lastUpdated":"2016-08-23T12:34:02.327526","changesets":1055,"mappers":99,"roads":43.1420034197716,"buildings":19364,"edits":20646,"latest":"2016-11-05T09:26:49.000Z"},"geometry":{"type":"Point","coordinates":[39.24710273923288,-6.8778754977826715]}},{"type":"Feature","properties":{"lastActive":"no","title":"MSD & JSI/USAID Tanzania Road Import - Rukwa and Katavi regions","id":1462,"area":23601.174016426638,"year":"2016","lastUpdated":"2016-11-09T18:57:37.926429","changesets":0,"mappers":0,"roads":0,"buildings":0,"edits":0,"latest":null},"geometry":{"type":"Point","coordinates":[31.18854567490904,-7.033630568874043]}},{"type":"Feature","properties":{"lastActive":"no","title":"MSD & JSI/USAID Tanzania Road Import - Tanga region","id":1921,"area":26453.26230241192,"year":"2016","lastUpdated":"2016-11-26T18:48:48.999774","changesets":0,"mappers":0,"roads":0,"buildings":0,"edits":0,"latest":null},"geometry":{"type":"Point","coordinates":[38.09654675335962,-5.362412457676792]}},{"type":"Feature","properties":{"lastActive":"no","title":"MSD & JSI/USAID Tanzania Road Import - West Ruvuma region","id":1256,"area":10512.14514732082,"year":"2016","lastUpdated":"2016-04-04T16:27:39.061397","changesets":0,"mappers":0,"roads":0,"buildings":0,"edits":0,"latest":null},"geometry":{"type":"Point","coordinates":[35.73071423073114,-10.644452430898227]}},{"type":"Feature","properties":{"lastActive":"no","title":"MSD & JSI/USAID Tanzania Road Import - Mtwara & Lindi Regions + Tunduru District","id":1194,"area":59075.33727007736,"year":"2016","lastUpdated":"2016-05-20T14:26:58.661670","changesets":0,"mappers":0,"roads":0,"buildings":0,"edits":0,"latest":null},"geometry":{"type":"Point","coordinates":[38.17747568450677,-10.184904231832341]}},{"type":"Feature","properties":{"lastActive":"no","title":"MSD & JSI/USAID Tanzania Road Import - Kigoma and Tabora regions","id":1233,"area":55716.44775664574,"year":"2017","lastUpdated":"2017-09-08T08:29:26.684641","changesets":89,"mappers":5,"roads":7164.0075520837,"buildings":137,"edits":14011,"latest":"2015-10-15T16:49:58.000Z"},"geometry":{"type":"Point","coordinates":[32.221144436424595,-4.716038295525221]}},{"type":"Feature","properties":{"lastActive":"no","title":"Missing Maps: Ushirombo, Tanzania","id":955,"area":734.2330870305057,"year":"2017","lastUpdated":"2017-10-20T01:32:28.873351","changesets":5658,"mappers":205,"roads":2686.98537358062,"buildings":25007,"edits":61755,"latest":"2015-10-29T23:37:03.000Z"},"geometry":{"type":"Point","coordinates":[31.8888473510742,-3.4409345655296097]}},{"type":"Feature","properties":{"lastActive":"no","title":"Missing Maps: Masasa, Tanzania","id":974,"area":30.35388422411191,"year":"2017","lastUpdated":"2017-10-20T01:34:03.877391","changesets":362,"mappers":37,"roads":573.257983913129,"buildings":5562,"edits":11439,"latest":"2015-06-17T16:21:53.000Z"},"geometry":{"type":"Point","coordinates":[31.527259826660163,-3.33096181195886]}},{"type":"Feature","properties":{"lastActive":"no","title":"Missing Maps: Dar es Salaam (drone imagery)","id":1120,"area":40.83231488189995,"year":"2017","lastUpdated":"2017-10-20T01:36:35.999283","changesets":537,"mappers":49,"roads":42.810331637783,"buildings":9160,"edits":10112,"latest":"2015-09-28T15:01:19.000Z"},"geometry":{"type":"Point","coordinates":[39.24809915521,-6.796170852968]}},{"type":"Feature","properties":{"lastActive":"no","title":"Ngorongoro Conservation Area","id":1040,"area":8640.922363295951,"year":"2017","lastUpdated":"2017-04-25T12:38:43.230359","changesets":0,"mappers":0,"roads":0,"buildings":0,"edits":0,"latest":null},"geometry":{"type":"Point","coordinates":[35.421957288469606,-3.139810074677604]}},{"type":"Feature","properties":{"lastActive":"no","title":"Tanzania Development Trust: Kakuraijo Karagwe Community Mapping Project","id":4325,"area":26.03432942227103,"year":"2018","lastUpdated":"2018-03-19T18:46:49.850824","changesets":294,"mappers":21,"roads":200.728606871569,"buildings":2268,"edits":3280,"latest":"2018-03-19T17:29:04.000Z"},"geometry":{"type":"Point","coordinates":[31.00089119100916,-1.7632949477366702]}},{"type":"Feature","properties":{"lastActive":"no","title":"Tanzania Development Trust: Chabuhora Karagwe Community Mapping Project","id":4329,"area":29.098942849205926,"year":"2018","lastUpdated":"2018-03-24T09:47:06.756563","changesets":337,"mappers":36,"roads":136.59546293545,"buildings":2260,"edits":3376,"latest":"2018-03-20T08:56:00.000Z"},"geometry":{"type":"Point","coordinates":[30.980348718025006,-1.781460401949769]}},{"type":"Feature","properties":{"lastActive":"no","title":"Tanzania Development Trust: Burungura Community Mapping Project","id":4307,"area":12.132811235880215,"year":"2018","lastUpdated":"2018-03-16T08:40:50.498915","changesets":422,"mappers":60,"roads":224.496584040424,"buildings":934,"edits":2752,"latest":"2018-03-15T22:38:18.000Z"},"geometry":{"type":"Point","coordinates":[31.4895543968305,-1.89296888874358]}},{"type":"Feature","properties":{"lastActive":"no","title":"Tanzania Development Trust: Kyaibumba Community Mapping Project","id":4406,"area":14.678296379059542,"year":"2018","lastUpdated":"2018-04-09T13:11:38.149943","changesets":158,"mappers":30,"roads":133.357573789262,"buildings":795,"edits":1536,"latest":"2018-04-09T12:26:56.000Z"},"geometry":{"type":"Point","coordinates":[31.456471880110026,-1.9067563010508193]}},{"type":"Feature","properties":{"lastActive":"no","title":"MSD & JSI/USAID Tanzania Road Import - Shinyaga region","id":2049,"area":35039.611042625445,"year":"2016","lastUpdated":"2016-08-22T11:27:17.050654","changesets":0,"mappers":0,"roads":0,"buildings":0,"edits":0,"latest":null},"geometry":{"type":"Point","coordinates":[34.09181497141662,-3.1247602533541907]}},{"type":"Feature","properties":{"lastActive":"no","title":"Tanzania Development Trust: Nshamba Community Mapping Project","id":4315,"area":20.728217465742752,"year":"2018","lastUpdated":"2018-03-18T17:02:10.199901","changesets":502,"mappers":54,"roads":258.414508170386,"buildings":5488,"edits":8174,"latest":"2018-03-18T15:53:19.000Z"},"geometry":{"type":"Point","coordinates":[31.549447784570173,-1.8026633776959973]}},{"type":"Feature","properties":{"lastActive":"no","title":"Tanzania Development Trust: Rushwa Community Mapping Project","id":4405,"area":28.44762453258442,"year":"2018","lastUpdated":"2018-04-12T15:18:37.886694","changesets":298,"mappers":40,"roads":300.470888123495,"buildings":1582,"edits":3500,"latest":"2018-04-12T05:58:16.000Z"},"geometry":{"type":"Point","coordinates":[31.4923784200843,-1.7859331969493364]}},{"type":"Feature","properties":{"lastActive":"no","title":"Tanzania Development Trust: Rungwe Kasulu Community Mapping Project","id":4357,"area":1013.1767777919853,"year":"2018","lastUpdated":"2018-06-17T13:13:26.143001","changesets":5552,"mappers":409,"roads":4999.48387166668,"buildings":20822,"edits":49162,"latest":"2018-06-17T14:10:03.000Z"},"geometry":{"type":"Point","coordinates":[30.230117797851562,-4.804368255129022]}},{"type":"Feature","properties":{"lastActive":"no","title":"Tanzania Development Trust: Nshamba Community Mapping Project","id":3459,"area":46.014908284249266,"year":"2017","lastUpdated":"2017-09-10T16:34:51.967640","changesets":0,"mappers":0,"roads":0,"buildings":0,"edits":0,"latest":null},"geometry":{"type":"Point","coordinates":[31.56281089782716,-1.7321403531956654]}},{"type":"Feature","properties":{"lastActive":"no","title":"Tanzania Development Trust: Chamchuzi Karagwe Community Mapping Project","id":4326,"area":14.620352225319428,"year":"2018","lastUpdated":"2018-03-19T08:49:59.326747","changesets":96,"mappers":13,"roads":118.753544967723,"buildings":625,"edits":1031,"latest":"2018-03-18T21:53:31.000Z"},"geometry":{"type":"Point","coordinates":[30.867244944483133,-1.7939690514934368]}},{"type":"Feature","properties":{"lastActive":"no","title":"Tanzania Development Trust: Kamishango Community Mapping Project","id":4282,"area":9.427409216356606,"year":"2018","lastUpdated":"2018-03-13T15:14:18.925056","changesets":237,"mappers":26,"roads":63.4951655647916,"buildings":946,"edits":1796,"latest":"2018-03-27T14:29:57.000Z"},"geometry":{"type":"Point","coordinates":[31.61319814490828,-1.836625824864492]}},{"type":"Feature","properties":{"lastActive":"no","title":"Tanzania Development Trust: Rubale Community Mapping Project","id":4710,"area":2.8694421907196968,"year":"2018","lastUpdated":"2018-06-11T09:48:35.474821","changesets":223,"mappers":15,"roads":47.6921069447722,"buildings":1026,"edits":1672,"latest":"2018-06-10T20:40:39.000Z"},"geometry":{"type":"Point","coordinates":[31.519512141903665,-1.602677271748226]}},{"type":"Feature","properties":{"lastActive":"no","title":"Tanzania Development Trust: Kiyebe Community Mapping Project","id":4404,"area":14.54425632534702,"year":"2018","lastUpdated":"2018-04-13T10:31:49.691976","changesets":165,"mappers":25,"roads":179.882131248454,"buildings":904,"edits":2112,"latest":"2018-04-12T18:26:16.000Z"},"geometry":{"type":"Point","coordinates":[31.521735144541836,-2.015196338503591]}},{"type":"Feature","properties":{"lastActive":"no","title":"Tanzania Development Trust: Mingoyo Community Mapping Project","id":4336,"area":6.093244915676354,"year":"2018","lastUpdated":"2018-03-26T14:05:02.495927","changesets":452,"mappers":71,"roads":108.978266720093,"buildings":3373,"edits":5105,"latest":"2018-03-25T17:50:56.000Z"},"geometry":{"type":"Point","coordinates":[39.61633826605983,-10.108581804574179]}},{"type":"Feature","properties":{"lastActive":"no","title":"Tanzania Development Trust: Ihemi Iringa Community Mapping Project","id":4334,"area":17.979652120471023,"year":"2018","lastUpdated":"2018-03-24T09:40:04.137238","changesets":138,"mappers":17,"roads":162.956597880068,"buildings":1531,"edits":2481,"latest":"2018-03-20T18:15:43.000Z"},"geometry":{"type":"Point","coordinates":[35.50712517039255,-8.010443258155288]}},{"type":"Feature","properties":{"lastActive":"no","title":"Tanzania Development Trust: Ngara Community Mapping Project","id":4316,"area":5.680090353476652,"year":"2018","lastUpdated":"2018-03-31T15:18:18.809399","changesets":293,"mappers":44,"roads":80.4486420340574,"buildings":3478,"edits":4114,"latest":"2018-03-30T14:34:54.000Z"},"geometry":{"type":"Point","coordinates":[30.65613336424582,-2.5121206470289716]}},{"type":"Feature","properties":{"lastActive":"no","title":"Tanzania Development Trust: Morogoro Community Mapping Project","id":4368,"area":6.725652855463129,"year":"2018","lastUpdated":"2018-07-11T09:23:52.366860","changesets":1281,"mappers":89,"roads":81.8895955188457,"buildings":19328,"edits":20942,"latest":"2018-07-08T14:32:19.000Z"},"geometry":{"type":"Point","coordinates":[37.655545157671455,-6.820197141947183]}},{"type":"Feature","properties":{"lastActive":"no","title":"Tanzania Development Trust: Kihurio Community Mapping Project","id":4440,"area":25.149218397883203,"year":"2018","lastUpdated":"2018-04-22T11:26:59.833557","changesets":424,"mappers":67,"roads":255.735874916018,"buildings":3520,"edits":4623,"latest":"2018-04-21T23:10:25.000Z"},"geometry":{"type":"Point","coordinates":[38.072545036239674,-4.476424584119681]}},{"type":"Feature","properties":{"lastActive":"no","title":"Tanzania Development Trust: Nyaishozi Karagwe Community Mapping Project","id":4292,"area":34.276689435879305,"year":"2018","lastUpdated":"2018-03-19T08:49:27.827278","changesets":399,"mappers":36,"roads":474.815969390101,"buildings":2973,"edits":4948,"latest":"2018-03-18T21:40:04.000Z"},"geometry":{"type":"Point","coordinates":[31.119289394002386,-1.744719570697227]}},{"type":"Feature","properties":{"lastActive":"no","title":"Tanzania Development Trust: Tunduma, Songwe Community Mapping Project","id":4212,"area":8.348830576332833,"year":"2018","lastUpdated":"2018-04-13T22:50:46.343876","changesets":1309,"mappers":102,"roads":131.172852446918,"buildings":16144,"edits":18573,"latest":"2018-04-16T10:35:52.000Z"},"geometry":{"type":"Point","coordinates":[32.774272226160925,-9.308786709029619]}},{"type":"Feature","properties":{"lastActive":"no","title":"Tanzania Development Trust: Morogoro Community Mapping Project","id":4852,"area":11.997049798456361,"year":"2018","lastUpdated":"2018-08-11T14:05:20.330367","changesets":622,"mappers":100,"roads":78.3855802816594,"buildings":14035,"edits":15045,"latest":"2018-08-16T10:47:50.000Z"},"geometry":{"type":"Point","coordinates":[37.68097780644893,-6.8100910041755895]}},{"type":"Feature","properties":{"lastActive":"no","title":"Tanzania Development Trust: Kashenge Community Mapping Project","id":4283,"area":16.271801267146635,"year":"2018","lastUpdated":"2018-05-10T09:24:01.242386","changesets":316,"mappers":27,"roads":117.504567662701,"buildings":856,"edits":1867,"latest":"2018-05-01T11:36:25.000Z"},"geometry":{"type":"Point","coordinates":[31.65720503840668,-1.6933442552031022]}},{"type":"Feature","properties":{"lastActive":"no","title":"Tanzania Development Trust: Mubunda Muleba Community Mapping Project","id":4294,"area":7.587230914571072,"year":"2018","lastUpdated":"2018-03-15T13:48:49.258339","changesets":306,"mappers":43,"roads":177.651635751973,"buildings":1516,"edits":2786,"latest":"2018-03-16T04:45:19.000Z"},"geometry":{"type":"Point","coordinates":[31.51548156689384,-1.9451495452817127]}},{"type":"Feature","properties":{"lastActive":"no","title":"Tanzania Development Trust: Kayanga Karagwe Community Mapping Project","id":4211,"area":9.817134429272661,"year":"2018","lastUpdated":"2018-06-25T21:19:44.063647","changesets":2030,"mappers":111,"roads":257.875156407586,"buildings":6739,"edits":9339,"latest":"2018-06-25T20:44:51.000Z"},"geometry":{"type":"Point","coordinates":[31.15177658226455,-1.5339286697300876]}},{"type":"Feature","properties":{"lastActive":"no","title":"Tanzania Development Trust: Kamachumu Community Mapping Project","id":3430,"area":46.24964449397239,"year":"2018","lastUpdated":"2018-06-19T14:08:07.967912","changesets":0,"mappers":0,"roads":0,"buildings":0,"edits":0,"latest":null},"geometry":{"type":"Point","coordinates":[31.625518798828143,-1.6019138987425647]}},{"type":"Feature","properties":{"lastActive":"no","title":"Tanzania Development Trust: Ihanda Community Mapping Project","id":3826,"area":84.22986494226826,"year":"2018","lastUpdated":"2018-06-21T21:22:03.277307","changesets":0,"mappers":0,"roads":0,"buildings":0,"edits":0,"latest":null},"geometry":{"type":"Point","coordinates":[31.078376770019542,-1.55232657905958]}},{"type":"Feature","properties":{"lastActive":"no","title":"Tanzania Development Trust: Biharamulo Community Mapping Project","id":4235,"area":6.039818387380115,"year":"2018","lastUpdated":"2018-06-24T21:28:45.587527","changesets":765,"mappers":51,"roads":284.739876449328,"buildings":4189,"edits":5785,"latest":"2018-06-24T19:09:43.000Z"},"geometry":{"type":"Point","coordinates":[31.31195608131076,-2.632473718530842]}},{"type":"Feature","properties":{"lastActive":"no","title":"Tanzania Development Trust: Manyoni district mapping project part 2","id":3389,"area":7477.8484249126495,"year":"2018","lastUpdated":"2018-08-16T10:51:42.793405","changesets":0,"mappers":0,"roads":0,"buildings":0,"edits":0,"latest":null},"geometry":{"type":"Point","coordinates":[35.27572631835939,-4.379171736396492]}},{"type":"Feature","properties":{"lastActive":"no","title":"Missing Maps: Dar es Salaam - Ramani Huria 2.0 - 06","id":3351,"area":42.09056201926153,"year":"2017","lastUpdated":"2017-09-18T13:32:44.404729","changesets":1060,"mappers":98,"roads":583.340797762564,"buildings":2543,"edits":21480,"latest":"2017-09-18T13:34:28.000Z"},"geometry":{"type":"Point","coordinates":[39.08745002746582,-6.700853885903787]}},{"type":"Feature","properties":{"lastActive":"no","title":"Tanzania Development Trust: Urambo Community Mapping Project","id":4335,"area":22.72434812488303,"year":"2018","lastUpdated":"2018-03-25T19:18:49.557524","changesets":539,"mappers":76,"roads":209.42903890829,"buildings":7236,"edits":9333,"latest":"2018-03-25T09:46:55.000Z"},"geometry":{"type":"Point","coordinates":[32.07588610607672,-5.080698963057181]}},{"type":"Feature","properties":{"lastActive":"no","title":"Tanzania Development Trust: Ishunju, Ishozi and Gera districts community mapping project ","id":3078,"area":117.52166194056245,"year":"2018","lastUpdated":"2018-07-03T16:14:49.729215","changesets":0,"mappers":0,"roads":0,"buildings":0,"edits":0,"latest":null},"geometry":{"type":"Point","coordinates":[31.756309546976297,-1.1950660061594969]}},{"type":"Feature","properties":{"lastActive":"no","title":"Tanzania Development Trust: Rubya Muleba Community Mapping Project","id":4210,"area":3.8004410986879655,"year":"2018","lastUpdated":"2018-03-06T09:40:00.625793","changesets":0,"mappers":0,"roads":0,"buildings":0,"edits":0,"latest":null},"geometry":{"type":"Point","coordinates":[31.6199231424252,-1.752193108226015]}},{"type":"Feature","properties":{"lastActive":"no","title":"Tanzania Development Trust: Kome Island Community Mapping Project","id":4245,"area":385.79192833306934,"year":"2018","lastUpdated":"2018-03-24T09:56:26.533502","changesets":1556,"mappers":136,"roads":903.993377006292,"buildings":11792,"edits":17458,"latest":"2018-03-23T13:14:21.000Z"},"geometry":{"type":"Point","coordinates":[32.479526409781094,-2.3327996133903914]}},{"type":"Feature","properties":{"lastActive":"no","title":"Tanzania Development Trust - Shinyanga District","id":2343,"area":3427.959635629754,"year":"2017","lastUpdated":"2017-03-03T22:08:54.805661","changesets":0,"mappers":0,"roads":0,"buildings":0,"edits":0,"latest":null},"geometry":{"type":"Point","coordinates":[33.47053527832031,-3.5870712679817935]}},{"type":"Feature","properties":{"lastActive":"no","title":"Tanzania Development Trust: Muzye, Muhunga and Bugaga wards community mapping project ","id":3313,"area":467.01646755665894,"year":"2018","lastUpdated":"2018-06-25T20:57:28.962446","changesets":0,"mappers":0,"roads":0,"buildings":0,"edits":0,"latest":null},"geometry":{"type":"Point","coordinates":[29.996941569562726,-4.632042691063947]}},{"type":"Feature","properties":{"lastActive":"no","title":"Tanzania Development Trust: Kahororo Community Mapping Project","id":3458,"area":15.218926174396286,"year":"2018","lastUpdated":"2018-06-21T20:25:23.969380","changesets":0,"mappers":0,"roads":0,"buildings":0,"edits":0,"latest":null},"geometry":{"type":"Point","coordinates":[31.83640480041505,-1.3036663200004244]}},{"type":"Feature","properties":{"lastActive":"no","title":"Missing Maps: Dar es Salaam - Ramani Huria 2.0 - 07","id":3352,"area":43.602163515930684,"year":"2017","lastUpdated":"2017-07-31T06:23:55.799590","changesets":1015,"mappers":62,"roads":384.282174733634,"buildings":221,"edits":8861,"latest":"2017-08-04T07:19:27.000Z"},"geometry":{"type":"Point","coordinates":[39.12214279174805,-6.724108156452428]}},{"type":"Feature","properties":{"lastActive":"no","title":"Tanzania Development Trust: Sawida District","id":4118,"area":924.6478975466252,"year":"2018","lastUpdated":"2018-08-16T19:16:45.721993","changesets":13281,"mappers":937,"roads":9611.6620358267,"buildings":149708,"edits":219207,"latest":"2018-08-16T19:15:25.000Z"},"geometry":{"type":"Point","coordinates":[33.663075852494615,-2.8525551326607483]}},{"type":"Feature","properties":{"lastActive":"no","title":"Tanzania Development Trust: Simiyu district mapping project part 1 - Updated Imagery","id":3177,"area":1361.7036746910928,"year":"2018","lastUpdated":"2018-08-10T13:34:34.742163","changesets":0,"mappers":0,"roads":0,"buildings":0,"edits":0,"latest":null},"geometry":{"type":"Point","coordinates":[34.246062786235,-2.4162541152175003]}},{"type":"Feature","properties":{"lastActive":"no","title":"Tanzania Development Trust: Masasi district, Mtwara Region","id":3251,"area":1622.139093292662,"year":"2018","lastUpdated":"2018-02-17T10:13:50.185746","changesets":0,"mappers":0,"roads":0,"buildings":0,"edits":0,"latest":null},"geometry":{"type":"Point","coordinates":[38.77120971679688,-10.7730228886694]}},{"type":"Feature","properties":{"lastActive":"no","title":"PEPFAR Tanzania: Kyela (Coast)","id":3204,"area":267.9000890686287,"year":"2018","lastUpdated":"2018-08-15T19:26:01.198470","changesets":2083,"mappers":221,"roads":832.891207775881,"buildings":19676,"edits":28593,"latest":"2018-08-10T19:28:34.000Z"},"geometry":{"type":"Point","coordinates":[33.86047686452975,-9.648327731192193]}},{"type":"Feature","properties":{"lastActive":"no","title":"Shinyanga_Tabora_Geita","id":4076,"area":3994.8430365253507,"year":"2018","lastUpdated":"2018-03-16T14:29:11.097041","changesets":47,"mappers":13,"roads":0.000161002645333808,"buildings":2061,"edits":2064,"latest":"2018-03-16T14:28:46.000Z"},"geometry":{"type":"Point","coordinates":[32.00242391521419,-4.080067283243879]}},{"type":"Feature","properties":{"lastActive":"no","title":"Missing Maps: Dar es Salaam - Ramani Huria 6","id":2096,"area":15.749826830743899,"year":"2016","lastUpdated":"2016-09-21T08:34:56.451091","changesets":908,"mappers":68,"roads":1301.94233531873,"buildings":18208,"edits":21266,"latest":"2016-09-07T03:04:09.000Z"},"geometry":{"type":"Point","coordinates":[39.195130483783785,-6.8682784659159175]}},{"type":"Feature","properties":{"lastActive":"no","title":"Tanzania Development Trust: Maswa district mapping project part 1","id":2578,"area":159.57894576974346,"year":"2017","lastUpdated":"2017-10-19T10:37:48.653512","changesets":0,"mappers":0,"roads":0,"buildings":0,"edits":0,"latest":null},"geometry":{"type":"Point","coordinates":[33.817882557580745,-3.2813052403453997]}},{"type":"Feature","properties":{"lastActive":"no","title":"Missing Maps: Dar es Salaam - Ramani Huria 2.0 - 08","id":3353,"area":41.71271249600479,"year":"2017","lastUpdated":"2017-11-09T16:12:23.807841","changesets":1277,"mappers":107,"roads":341.752455858356,"buildings":1180,"edits":8988,"latest":"2017-08-21T10:19:51.000Z"},"geometry":{"type":"Point","coordinates":[39.156131744384766,-6.7504090079766605]}},{"type":"Feature","properties":{"lastActive":"no","title":"MSD & JSI/USAID Tanzania Road Import - Mwanza region","id":2138,"area":18452.858077930265,"year":"2017","lastUpdated":"2017-09-04T11:31:29.126756","changesets":149,"mappers":15,"roads":3770.57157796073,"buildings":105,"edits":5447,"latest":"2016-11-14T12:29:58.000Z"},"geometry":{"type":"Point","coordinates":[32.94155795664897,-2.648829790193047]}},{"type":"Feature","properties":{"lastActive":"no","title":"MSD & JSI/USAID Tanzania Road Import - Mbeya region","id":2111,"area":19769.484038509396,"year":"2016","lastUpdated":"2016-09-26T19:17:08.424814","changesets":79,"mappers":5,"roads":2211.37645137462,"buildings":3314,"edits":7568,"latest":"2016-10-05T18:18:41.000Z"},"geometry":{"type":"Point","coordinates":[33.53129587985334,-8.652609274565219]}},{"type":"Feature","properties":{"lastActive":"no","title":"MSD & JSI/USAID Tanzania Road Import - Iringa region","id":2157,"area":30284.59973311939,"year":"2016","lastUpdated":"2016-10-20T13:22:29.952382","changesets":85,"mappers":13,"roads":2909.39047680426,"buildings":712,"edits":3579,"latest":"2016-10-19T21:15:43.000Z"},"geometry":{"type":"Point","coordinates":[35.12966588259462,-8.90039717715023]}},{"type":"Feature","properties":{"lastActive":"no","title":"MSD & JSI/USAID Tanzania Road Import - Mara region","id":2095,"area":18583.120612545095,"year":"2016","lastUpdated":"2016-12-02T22:50:50.785436","changesets":0,"mappers":0,"roads":0,"buildings":0,"edits":0,"latest":null},"geometry":{"type":"Point","coordinates":[34.25431061911746,-1.7219985711602823]}},{"type":"Feature","properties":{"lastActive":"no","title":"PEPFAR Tanzania: Shinyanga","id":2301,"area":565.5201463076456,"year":"2017","lastUpdated":"2017-11-16T23:33:37.890014","changesets":5198,"mappers":302,"roads":2277.42607148261,"buildings":46163,"edits":71621,"latest":"2017-11-16T23:33:01.000Z"},"geometry":{"type":"Point","coordinates":[33.44573190915658,-3.633071239733379]}},{"type":"Feature","properties":{"lastActive":"no","title":"Ramani Huria and GreenWaste Colaboration","id":4976,"area":0.8606536928715187,"year":"2018","lastUpdated":"2018-08-14T16:20:17.797701","changesets":452,"mappers":12,"roads":0.303793935716114,"buildings":1699,"edits":2153,"latest":"2018-08-09T09:46:52.000Z"},"geometry":{"type":"Point","coordinates":[39.281588661377796,-6.822544597740107]}},{"type":"Feature","properties":{"lastActive":"no","title":"Tanzania Development Trust: Simiyu district mapping project part 1","id":2501,"area":6430.819090940454,"year":"2018","lastUpdated":"2018-01-24T12:18:11.755027","changesets":0,"mappers":0,"roads":0,"buildings":0,"edits":0,"latest":null},"geometry":{"type":"Point","coordinates":[33.963684082031236,-2.4816321015734735]}},{"type":"Feature","properties":{"lastActive":"no","title":"MSD & JSI/USAID Tanzania Road Import - Pwani region","id":2110,"area":21135.143831005626,"year":"2016","lastUpdated":"2016-11-09T09:08:14.321577","changesets":0,"mappers":0,"roads":0,"buildings":0,"edits":0,"latest":null},"geometry":{"type":"Point","coordinates":[38.66302671069425,-7.24398878152632]}},{"type":"Feature","properties":{"lastActive":"no","title":"PEPFAR Tanzania: Mbeya CC West","id":2364,"area":313.7964362335892,"year":"2017","lastUpdated":"2017-02-16T17:25:40.264625","changesets":723,"mappers":60,"roads":144.308325077846,"buildings":11368,"edits":14015,"latest":"2017-02-16T17:25:26.000Z"},"geometry":{"type":"Point","coordinates":[33.41577529907225,-8.919824739955914]}},{"type":"Feature","properties":{"lastActive":"no","title":"Serengeti National Park","id":834,"area":13370.038280033767,"year":"2017","lastUpdated":"2017-07-05T09:52:49.480984","changesets":0,"mappers":0,"roads":0,"buildings":0,"edits":0,"latest":null},"geometry":{"type":"Point","coordinates":[34.71995007142858,-1.969435597802197]}},{"type":"Feature","properties":{"lastActive":"no","title":"Priority Villages, Kigoma Region, Tanzania Mini Grids Project","id":4779,"area":2340.2938543456194,"year":"2018","lastUpdated":"2018-06-27T23:26:21.748956","changesets":1670,"mappers":48,"roads":0.846639744708577,"buildings":80160,"edits":80298,"latest":"2018-06-28T06:27:08.000Z"},"geometry":{"type":"Point","coordinates":[30.81891173150636,-3.4042847246900707]}},{"type":"Feature","properties":{"lastActive":"no","title":"Msigani, Dar es Salaam - Ramani Huria 2.0","id":4955,"area":14.732300581422955,"year":"2018","lastUpdated":"2018-08-09T12:56:59.375027","changesets":74,"mappers":19,"roads":0.408947956373816,"buildings":764,"edits":787,"latest":"2018-08-09T12:55:27.000Z"},"geometry":{"type":"Point","coordinates":[39.11566161595127,-6.805183804383767]}},{"type":"Feature","properties":{"lastActive":"no","title":"Songea Rural, Ruvuma, Tanzania Mini Grids Project 07","id":4721,"area":2150.916415219976,"year":"2018","lastUpdated":"2018-08-16T06:41:19.408285","changesets":529,"mappers":56,"roads":0.110758162123934,"buildings":9687,"edits":9700,"latest":"2018-08-16T06:38:13.000Z"},"geometry":{"type":"Point","coordinates":[35.565031022546556,-11.40219846168882]}},{"type":"Feature","properties":{"lastActive":"yes","title":"Tanzania Development Trust: Salesforce Manyara FGM 2","id":4894,"area":2355.6428351187137,"year":"2018","lastUpdated":"2018-08-17T19:08:07.531003","changesets":1085,"mappers":86,"roads":72.2341730626408,"buildings":9404,"edits":9686,"latest":"2018-08-17T14:17:48.000Z"},"geometry":{"type":"Point","coordinates":[36.51992230814733,-5.409890486997332]}},{"type":"Feature","properties":{"lastActive":"no","title":"Chemba and Bahi Districts, Tanzania Mini Grids Project 03","id":4654,"area":1954.525377556312,"year":"2018","lastUpdated":"2018-06-06T01:13:39.569207","changesets":1245,"mappers":41,"roads":0.106920348528221,"buildings":20636,"edits":20657,"latest":"2018-06-05T14:25:23.000Z"},"geometry":{"type":"Point","coordinates":[35.36975679869405,-5.440254667200012]}},{"type":"Feature","properties":{"lastActive":"no","title":"Chemba and Bahi Districts, Tanzania Mini Grids Project 05","id":4656,"area":1943.7393401406555,"year":"2018","lastUpdated":"2018-06-14T09:06:01.145611","changesets":2139,"mappers":66,"roads":1.37724754241375,"buildings":26302,"edits":26408,"latest":"2018-06-14T08:37:58.000Z"},"geometry":{"type":"Point","coordinates":[35.24210727602255,-5.287224282992947]}},{"type":"Feature","properties":{"lastActive":"no","title":"Lindi, Lindi, Tanzania Mini Grids Project 02","id":4488,"area":1271.4706951916876,"year":"2018","lastUpdated":"2018-07-10T07:57:50.042617","changesets":883,"mappers":66,"roads":0.580704859074677,"buildings":12370,"edits":12419,"latest":"2018-07-10T07:18:13.000Z"},"geometry":{"type":"Point","coordinates":[39.32480989462478,-9.704243210868535]}},{"type":"Feature","properties":{"lastActive":"no","title":"Njombe Region, Tanzania Mini Grids Project 06","id":4752,"area":1905.0649927180077,"year":"2018","lastUpdated":"2018-07-02T08:50:20.108931","changesets":959,"mappers":31,"roads":0.380572673185507,"buildings":29189,"edits":29249,"latest":"2018-07-02T08:52:44.000Z"},"geometry":{"type":"Point","coordinates":[34.200867682325345,-9.406954299233199]}},{"type":"Feature","properties":{"lastActive":"no","title":"Songea Rural, Ruvuma, Tanzania Mini Grids Project 03","id":4704,"area":2223.7007441409824,"year":"2018","lastUpdated":"2018-06-11T13:01:49.315620","changesets":559,"mappers":53,"roads":1.3997523367762,"buildings":4565,"edits":4600,"latest":"2018-07-26T11:48:10.000Z"},"geometry":{"type":"Point","coordinates":[35.59727510395192,-10.089441618006344]}},{"type":"Feature","properties":{"lastActive":"no","title":"Lituhi, Luhagara, Ruanda Villages, Tanzania Mini Grids Project","id":4648,"area":8.186367673131722,"year":"2018","lastUpdated":"2018-06-03T23:08:15.625404","changesets":107,"mappers":30,"roads":0.135942160373434,"buildings":3904,"edits":3924,"latest":"2018-06-02T13:59:59.000Z"},"geometry":{"type":"Point","coordinates":[34.82083073630402,-10.542318168502002]}},{"type":"Feature","properties":{"lastActive":"no","title":"Heru Shingo Ward, Kigoma, Tanzania Mini Grids Project 01","id":4387,"area":789.0955168862893,"year":"2018","lastUpdated":"2018-06-27T06:10:33.707732","changesets":1455,"mappers":37,"roads":4.58334806253399,"buildings":33003,"edits":33301,"latest":"2018-06-01T13:26:31.000Z"},"geometry":{"type":"Point","coordinates":[30.310435947907735,-4.113678655615293]}},{"type":"Feature","properties":{"lastActive":"no","title":"Njombe Region, Tanzania Mini Grids Project 07","id":4753,"area":2035.3854283933017,"year":"2018","lastUpdated":"2018-07-02T08:04:40.510728","changesets":870,"mappers":31,"roads":0.492269625730374,"buildings":19332,"edits":19400,"latest":"2018-07-02T08:36:50.000Z"},"geometry":{"type":"Point","coordinates":[34.51311154966009,-9.51145731750423]}},{"type":"Feature","properties":{"lastActive":"no","title":"S. Monduli, Simanjiro, Tanzania Mini Grids - MapSwipe Project 01","id":4422,"area":918.2087603729018,"year":"2018","lastUpdated":"2018-05-08T13:55:46.077666","changesets":4703,"mappers":86,"roads":7.83174281046291,"buildings":50610,"edits":50723,"latest":"2018-05-11T06:32:20.000Z"},"geometry":{"type":"Point","coordinates":[36.6096116860842,-3.632909796231658]}},{"type":"Feature","properties":{"lastActive":"no","title":"Central Singida, Singida, Tanzania Mini Grids Project 01 East","id":4509,"area":1475.3604875927692,"year":"2018","lastUpdated":"2018-06-28T10:09:05.303438","changesets":937,"mappers":67,"roads":0.0165898988823745,"buildings":11972,"edits":11978,"latest":"2018-06-28T10:08:59.000Z"},"geometry":{"type":"Point","coordinates":[34.041140687827536,-5.126694160175507]}},{"type":"Feature","properties":{"lastActive":"no","title":"Central Singida, Singida, Tanzania Mini Grids Project 00 North","id":4508,"area":2138.0235797080213,"year":"2018","lastUpdated":"2018-07-13T13:11:39.577533","changesets":2429,"mappers":66,"roads":2.19560796896209,"buildings":85349,"edits":85596,"latest":"2018-07-13T13:11:37.000Z"},"geometry":{"type":"Point","coordinates":[34.85630752643853,-4.7195257307215375]}},{"type":"Feature","properties":{"lastActive":"yes","title":"Tanzania Development Trust: Salesforce Manyara FGM 3","id":4896,"area":2283.4732623040454,"year":"2018","lastUpdated":"2018-08-17T16:08:31.667086","changesets":325,"mappers":30,"roads":55.7228782273043,"buildings":5728,"edits":5826,"latest":"2018-08-17T21:31:56.000Z"},"geometry":{"type":"Point","coordinates":[37.05802023052,-5.535989971496]}},{"type":"Feature","properties":{"lastActive":"no","title":"Chemba District Villages, Tanzania Mini Grids Project","id":4646,"area":4.696678039184461,"year":"2018","lastUpdated":"2018-06-03T23:08:33.498188","changesets":75,"mappers":22,"roads":0.00801516130593583,"buildings":2731,"edits":2732,"latest":"2018-06-03T12:03:34.000Z"},"geometry":{"type":"Point","coordinates":[35.84642170190889,-5.1555243929266625]}},{"type":"Feature","properties":{"lastActive":"no","title":"Kasulu, Kasulu, Tanzania Mini Grids Project 04","id":4571,"area":2136.1760422465886,"year":"2018","lastUpdated":"2018-07-16T06:27:37.607948","changesets":2501,"mappers":67,"roads":13.8254831502391,"buildings":55848,"edits":56667,"latest":"2018-07-16T06:27:29.000Z"},"geometry":{"type":"Point","coordinates":[29.98247064013143,-4.6984841931908]}},{"type":"Feature","properties":{"lastActive":"no","title":"Songea Rural, Ruvuma, Tanzania Mini Grids Project 01","id":4703,"area":1371.4453556338517,"year":"2018","lastUpdated":"2018-06-11T08:41:44.101036","changesets":58,"mappers":25,"roads":0,"buildings":427,"edits":427,"latest":"2018-06-11T08:40:02.000Z"},"geometry":{"type":"Point","coordinates":[35.7822148323556,-9.35501676850386]}},{"type":"Feature","properties":{"lastActive":"no","title":"Tabora, Tabora, Tanzania Mini Grids Project 06","id":4613,"area":1436.2802264029842,"year":"2018","lastUpdated":"2018-07-02T12:07:55.077015","changesets":1238,"mappers":65,"roads":0.181888238898926,"buildings":23073,"edits":23084,"latest":"2018-07-02T12:11:10.000Z"},"geometry":{"type":"Point","coordinates":[33.948245197465845,-5.104981749651359]}},{"type":"Feature","properties":{"lastActive":"no","title":"Rufiji, Pwani, Tanzania Mini Grids Project 04","id":4624,"area":1796.0668599205555,"year":"2018","lastUpdated":"2018-06-26T06:14:51.811334","changesets":465,"mappers":41,"roads":0.0542000845535752,"buildings":8375,"edits":8384,"latest":"2018-06-25T13:58:27.000Z"},"geometry":{"type":"Point","coordinates":[38.53147573879938,-7.800372604775588]}},{"type":"Feature","properties":{"lastActive":"no","title":"Chato District Villages, Geita Region, Tanzania Mini Grids Project","id":4778,"area":4421.105608459506,"year":"2018","lastUpdated":"2018-08-02T09:44:18.926182","changesets":4930,"mappers":59,"roads":55.2059060410998,"buildings":266071,"edits":266569,"latest":"2018-08-02T09:44:15.000Z"},"geometry":{"type":"Point","coordinates":[31.98540590093474,-2.8573699057934006]}},{"type":"Feature","properties":{"lastActive":"no","title":"Manyoni, Singida, Tanzania Mini Grids Project 01","id":4531,"area":1326.5528682624965,"year":"2018","lastUpdated":"2018-05-19T20:47:16.371655","changesets":589,"mappers":58,"roads":0.134107026616461,"buildings":7569,"edits":7586,"latest":"2018-05-18T10:04:10.000Z"},"geometry":{"type":"Point","coordinates":[34.5086017651493,-5.53508090379479]}},{"type":"Feature","properties":{"lastActive":"no","title":"Priority Villages, Arusha Region, Tanzania Mini Grids Project","id":4799,"area":188.40438855389118,"year":"2018","lastUpdated":"2018-06-27T23:22:29.583572","changesets":190,"mappers":24,"roads":0.065129375727978,"buildings":5995,"edits":6000,"latest":"2018-06-27T08:53:12.000Z"},"geometry":{"type":"Point","coordinates":[35.78268792390038,-2.52751411105647]}},{"type":"Feature","properties":{"lastActive":"no","title":"Rungwe, Mbeya, Tanzania Mini Grids Project 02","id":4393,"area":1149.0351365244592,"year":"2018","lastUpdated":"2018-04-30T01:32:30.188814","changesets":2056,"mappers":60,"roads":12.5724590121885,"buildings":72408,"edits":72612,"latest":"2018-04-27T14:03:47.000Z"},"geometry":{"type":"Point","coordinates":[33.85995773044913,-9.28097728849757]}},{"type":"Feature","properties":{"lastActive":"no","title":"Mbozi, Mbeya, Tanzania Mini Grids Project 01","id":4286,"area":1427.754247465411,"year":"2018","lastUpdated":"2018-06-07T08:27:39.601646","changesets":3571,"mappers":68,"roads":3017.76610954661,"buildings":84064,"edits":91962,"latest":"2018-06-14T11:11:25.000Z"},"geometry":{"type":"Point","coordinates":[32.815140600291976,-9.28818806240448]}},{"type":"Feature","properties":{"lastActive":"no","title":"Chamwino Village, Tanzania Mini Grids Project","id":4748,"area":13.678881091028838,"year":"2018","lastUpdated":"2018-06-13T13:18:58.993239","changesets":156,"mappers":50,"roads":0.0404579971976971,"buildings":5494,"edits":5498,"latest":"2018-06-13T13:52:23.000Z"},"geometry":{"type":"Point","coordinates":[36.039147334095,-6.10061474426]}},{"type":"Feature","properties":{"lastActive":"no","title":"Mivumoni Village, Pangani District, Tanzania Mini Grids Project","id":4699,"area":0.818188879689272,"year":"2018","lastUpdated":"2018-06-07T14:22:25.703646","changesets":78,"mappers":17,"roads":0.0276900086096642,"buildings":366,"edits":370,"latest":"2018-06-07T14:01:00.000Z"},"geometry":{"type":"Point","coordinates":[38.903763126037596,-5.307186790941633]}},{"type":"Feature","properties":{"lastActive":"no","title":"Itona_Kilosa","id":4179,"area":741.6959938125862,"year":"2018","lastUpdated":"2018-04-11T06:43:22.814485","changesets":409,"mappers":55,"roads":1.35885332610885,"buildings":3691,"edits":3744,"latest":"2018-04-11T07:21:08.000Z"},"geometry":{"type":"Point","coordinates":[35.53547612786605,-8.535150251339573]}},{"type":"Feature","properties":{"lastActive":"no","title":"Tabora, Tabora, Tanzania Mini Grids Project 02","id":4584,"area":2042.6757607922066,"year":"2018","lastUpdated":"2018-06-20T13:56:00.211684","changesets":1784,"mappers":62,"roads":5.15594602627106,"buildings":37695,"edits":38500,"latest":"2018-06-20T13:55:11.000Z"},"geometry":{"type":"Point","coordinates":[33.55636968293966,-4.778208007358041]}},{"type":"Feature","properties":{"lastActive":"no","title":"Mkakatih Village, Tanzania Mini Grids Project","id":4637,"area":33.36735469325082,"year":"2018","lastUpdated":"2018-06-03T23:09:45.716750","changesets":73,"mappers":32,"roads":0.0531955537922062,"buildings":1062,"edits":1067,"latest":"2018-06-03T11:19:19.000Z"},"geometry":{"type":"Point","coordinates":[35.361299461125,-5.900049521220015]}},{"type":"Feature","properties":{"lastActive":"no","title":"Urambo, Tabora, Tanzania Mini Grids Project 04","id":4366,"area":1540.7875686482291,"year":"2018","lastUpdated":"2018-04-23T12:46:20.979070","changesets":1920,"mappers":73,"roads":6.26198278193171,"buildings":42229,"edits":42283,"latest":"2018-04-23T12:45:52.000Z"},"geometry":{"type":"Point","coordinates":[31.8072741219125,-5.113293963680001]}},{"type":"Feature","properties":{"lastActive":"no","title":"Mara","id":4073,"area":3.087873440053216,"year":"2018","lastUpdated":"2018-01-29T14:51:44.742950","changesets":0,"mappers":0,"roads":0,"buildings":0,"edits":0,"latest":null},"geometry":{"type":"Point","coordinates":[33.70828711361714,-1.4058350861409175]}},{"type":"Feature","properties":{"lastActive":"no","title":"Kigoma_8","id":4089,"area":3.170194931843662,"year":"2018","lastUpdated":"2018-02-14T08:58:00.280285","changesets":175,"mappers":7,"roads":0.00164720947993757,"buildings":5558,"edits":5558,"latest":"2018-02-15T13:52:57.000Z"},"geometry":{"type":"Point","coordinates":[29.77626862798747,-6.004675849692375]}},{"type":"Feature","properties":{"lastActive":"no","title":"Lamaiti Village, Tanzania Mini Grids Project","id":4636,"area":287.18127360801236,"year":"2018","lastUpdated":"2018-06-03T23:10:02.617305","changesets":510,"mappers":69,"roads":0.067806508631528,"buildings":6540,"edits":6550,"latest":"2018-06-04T09:04:54.000Z"},"geometry":{"type":"Point","coordinates":[35.4794601137225,-5.801276271989993]}},{"type":"Feature","properties":{"lastActive":"no","title":"Songea Rural, Ruvuma, Tanzania Mini Grids Project 06","id":4720,"area":2093.4548563322423,"year":"2018","lastUpdated":"2018-08-16T08:47:47.617122","changesets":1609,"mappers":64,"roads":0.38231113496823,"buildings":15223,"edits":15257,"latest":"2018-08-16T09:02:58.000Z"},"geometry":{"type":"Point","coordinates":[35.31103412395969,-11.03686797344467]}},{"type":"Feature","properties":{"lastActive":"no","title":"Kigoma_2","id":4083,"area":1.965158778543636,"year":"2018","lastUpdated":"2018-01-30T14:05:17.983249","changesets":127,"mappers":2,"roads":0,"buildings":458,"edits":458,"latest":"2018-01-30T14:04:27.000Z"},"geometry":{"type":"Point","coordinates":[30.490210022071953,-6.813742245754607]}},{"type":"Feature","properties":{"lastActive":"no","title":"Kigoma_3","id":4084,"area":5.097450161720606,"year":"2018","lastUpdated":"2018-02-01T07:42:27.258246","changesets":288,"mappers":6,"roads":2.31764270978854,"buildings":6302,"edits":6359,"latest":"2018-02-08T07:46:42.000Z"},"geometry":{"type":"Point","coordinates":[30.406732561710204,-6.745298521099169]}},{"type":"Feature","properties":{"lastActive":"no","title":"Priority Villages, Shinyanga Region, Tanzania Mini Grids Project","id":4804,"area":1465.614946569395,"year":"2018","lastUpdated":"2018-06-30T09:05:38.841863","changesets":1318,"mappers":44,"roads":0.119656619425065,"buildings":61843,"edits":61882,"latest":"2018-06-30T09:36:52.000Z"},"geometry":{"type":"Point","coordinates":[32.9753779163862,-4.003000230638431]}},{"type":"Feature","properties":{"lastActive":"no","title":"Muheza and Pangani Districts, Tanzania Mini Grids Project","id":4698,"area":2694.389967520607,"year":"2018","lastUpdated":"2018-06-27T14:24:37.688991","changesets":1847,"mappers":63,"roads":19.9499914416186,"buildings":72673,"edits":72965,"latest":"2018-06-27T14:24:02.000Z"},"geometry":{"type":"Point","coordinates":[38.745500951805305,-5.157344994683181]}},{"type":"Feature","properties":{"lastActive":"no","title":"Tabora, Tabora, Tanzania Mini Grids Project 01","id":4583,"area":1907.1663208860407,"year":"2018","lastUpdated":"2018-06-21T06:39:06.778869","changesets":1628,"mappers":58,"roads":1.72537869257951,"buildings":34604,"edits":34909,"latest":"2018-06-21T06:45:40.000Z"},"geometry":{"type":"Point","coordinates":[32.59170617851557,-4.606714194976095]}},{"type":"Feature","properties":{"lastActive":"no","title":"Manyoni, Singida, Tanzania Mini Grids Project 02","id":4532,"area":1743.3360624738941,"year":"2018","lastUpdated":"2018-05-21T06:12:05.383529","changesets":885,"mappers":62,"roads":0.198161772673363,"buildings":17096,"edits":17116,"latest":"2018-05-21T06:05:53.000Z"},"geometry":{"type":"Point","coordinates":[34.272985485616104,-5.75358385726637]}},{"type":"Feature","properties":{"lastActive":"no","title":"Central Singida, Singida, Tanzania Mini Grids Project 02","id":4518,"area":1414.1192851427202,"year":"2018","lastUpdated":"2018-05-17T11:04:47.566760","changesets":882,"mappers":58,"roads":0.0239845493890909,"buildings":17063,"edits":17069,"latest":"2018-05-17T08:50:47.000Z"},"geometry":{"type":"Point","coordinates":[34.41588549629685,-5.109440949915025]}},{"type":"Feature","properties":{"lastActive":"no","title":"Tabora, Tabora, Tanzania Mini Grids Project 03","id":4585,"area":1693.3910497782038,"year":"2018","lastUpdated":"2018-05-31T12:30:55.852006","changesets":1678,"mappers":65,"roads":5.09675418876548,"buildings":25872,"edits":26598,"latest":"2018-05-30T13:54:08.000Z"},"geometry":{"type":"Point","coordinates":[32.49827423592803,-5.097769430191667]}},{"type":"Feature","properties":{"lastActive":"no","title":"Tunduru, Ruvuma, Tanzania Mini Grids Project 03","id":4378,"area":1369.2568876847938,"year":"2018","lastUpdated":"2018-05-03T12:58:11.041494","changesets":1018,"mappers":60,"roads":0.263537837490913,"buildings":23394,"edits":23430,"latest":"2018-05-03T13:14:28.000Z"},"geometry":{"type":"Point","coordinates":[37.28765739124834,-11.152541317436667]}},