{"mappersOnline":34,"totalTasksMapped":1734029,"totalMappers":149323,"totalEdits":43707817,"totalBuildings":36323304,"totalRoads":919276.815677459,"totalProjects":4243,"Russia":[{"type":"Feature","properties":{"id":5075,"title":"Lipetsk, RU - Road Alignment","status":"PUBLISHED","created":"2018","lastUpdated":"2018","lastActive":"no","area":12.278823639779748,"changesets":24,"mappers":1,"roads":2.47261798372648,"buildings":281,"edits":652,"latest":"2018-11-10T00:49:57.000Z"},"geometry":{"type":"Point","coordinates":[39.1004986289472,52.6545859654903]}},{"type":"Feature","properties":{"id":5077,"title":"Ivanovo, RU - Road Alignment","status":"PUBLISHED","created":"2018","lastUpdated":"2018","lastActive":"no","area":13.702294049661324,"changesets":36,"mappers":1,"roads":1.82352967283976,"buildings":5,"edits":214,"latest":"2018-11-20T10:31:06.000Z"},"geometry":{"type":"Point","coordinates":[41.5762520611261,56.9819705148539]}},{"type":"Feature","properties":{"id":5101,"title":"Orenburg, RU - Road Alignment","status":"PUBLISHED","created":"2018","lastUpdated":"2018","lastActive":"no","area":62.971849944699215,"changesets":22,"mappers":1,"roads":3.45699288107569,"buildings":53,"edits":181,"latest":"2018-10-24T08:43:40.000Z"},"geometry":{"type":"Point","coordinates":[54.8065548783445,52.0610390047715]}},{"type":"Feature","properties":{"id":5038,"title":"Novgorod, RU - Road Alignment","status":"PUBLISHED","created":"2018","lastUpdated":"2018","lastActive":"no","area":10.46150373873454,"changesets":0,"mappers":0,"roads":0,"buildings":0,"edits":0,"latest":null},"geometry":{"type":"Point","coordinates":[31.9263050659094,58.2489414609353]}},{"type":"Feature","properties":{"id":5119,"title":"Sakha, RU - Road Alignment","status":"PUBLISHED","created":"2018","lastUpdated":"2018","lastActive":"no","area":33.426355275199285,"changesets":0,"mappers":0,"roads":0,"buildings":0,"edits":0,"latest":null},"geometry":{"type":"Point","coordinates":[124.725706215512,61.3401873829566]}},{"type":"Feature","properties":{"id":5115,"title":"Krasnoyarsk, RU - Road Alignment","status":"PUBLISHED","created":"2018","lastUpdated":"2018","lastActive":"no","area":22.824888459707374,"changesets":78,"mappers":1,"roads":15.4802476295007,"buildings":108,"edits":630,"latest":"2018-10-20T05:40:12.000Z"},"geometry":{"type":"Point","coordinates":[93.4116099617817,57.0117959504218]}},{"type":"Feature","properties":{"id":5036,"title":"Kalingrad, RU - Road Alignment","status":"PUBLISHED","created":"2018","lastUpdated":"2018","lastActive":"no","area":8.85709870763704,"changesets":62,"mappers":4,"roads":21.3250871322619,"buildings":42,"edits":1565,"latest":"2018-11-29T21:32:22.000Z"},"geometry":{"type":"Point","coordinates":[21.2683677067525,54.7166459195005]}},{"type":"Feature","properties":{"id":5083,"title":"Saratov, RU - Road Alignment","status":"PUBLISHED","created":"2018","lastUpdated":"2018","lastActive":"no","area":32.40097117720466,"changesets":34,"mappers":1,"roads":0.77353210229752,"buildings":6,"edits":341,"latest":"2018-10-28T13:14:20.000Z"},"geometry":{"type":"Point","coordinates":[46.1811223773877,51.5916763633425]}},{"type":"Feature","properties":{"id":5032,"title":"Murmansk, RU - Road Alignment","status":"PUBLISHED","created":"2018","lastUpdated":"2018","lastActive":"no","area":6.135141048257239,"changesets":5,"mappers":4,"roads":0.164080254170546,"buildings":0,"edits":14,"latest":"2018-11-29T16:11:27.000Z"},"geometry":{"type":"Point","coordinates":[32.1535937499972,68.1519441236096]}},{"type":"Feature","properties":{"id":5044,"title":"Arkhangelsk, RU - Road Alignment","status":"PUBLISHED","created":"2018","lastUpdated":"2018","lastActive":"no","area":12.606328751411732,"changesets":7,"mappers":1,"roads":0.839928983903169,"buildings":6,"edits":251,"latest":"2018-11-06T15:55:43.000Z"},"geometry":{"type":"Point","coordinates":[42.0930614019958,62.114544765511]}},{"type":"Feature","properties":{"id":5040,"title":"Tver, RU - Road Alignment","status":"PUBLISHED","created":"2018","lastUpdated":"2018","lastActive":"no","area":23.79800173254469,"changesets":30,"mappers":1,"roads":4.08514426550506,"buildings":13,"edits":377,"latest":"2018-11-06T18:49:45.000Z"},"geometry":{"type":"Point","coordinates":[34.6891817016017,56.9824041620985]}},{"type":"Feature","properties":{"id":5034,"title":"Leningrad, RU - Road Alignment","status":"PUBLISHED","created":"2018","lastUpdated":"2018","lastActive":"no","area":23.54027298174626,"changesets":2,"mappers":1,"roads":0.0224792879778619,"buildings":0,"edits":6,"latest":"2018-10-28T21:26:36.000Z"},"geometry":{"type":"Point","coordinates":[30.839409774744,60.1248894787618]}},{"type":"Feature","properties":{"id":5072,"title":"Oryol, RU - Road Alignment","status":"PUBLISHED","created":"2018","lastUpdated":"2018","lastActive":"no","area":16.540756268279804,"changesets":0,"mappers":0,"roads":0,"buildings":0,"edits":0,"latest":null},"geometry":{"type":"Point","coordinates":[36.5339864599229,52.7957040500738]}},{"type":"Feature","properties":{"id":5046,"title":"Komi, RU - Road Alignment","status":"PUBLISHED","created":"2018","lastUpdated":"2018","lastActive":"no","area":14.971932687664575,"changesets":1,"mappers":1,"roads":0.00554685444333487,"buildings":0,"edits":3,"latest":"2018-10-09T20:34:56.000Z"},"geometry":{"type":"Point","coordinates":[54.8314035068119,63.1269365587441]}},{"type":"Feature","properties":{"id":5079,"title":"Nizhny Novgorod, RU - Road Alignment","status":"PUBLISHED","created":"2018","lastUpdated":"2018","lastActive":"no","area":23.49516750453581,"changesets":5,"mappers":1,"roads":0.0220785561293529,"buildings":0,"edits":10,"latest":"2018-10-08T13:09:31.000Z"},"geometry":{"type":"Point","coordinates":[44.5683003348931,55.6787726091367]}},{"type":"Feature","properties":{"id":5081,"title":"Tambov, RU - Road Alignment","status":"PUBLISHED","created":"2018","lastUpdated":"2018","lastActive":"no","area":26.18715669406076,"changesets":2,"mappers":2,"roads":0.00403649833909725,"buildings":1,"edits":32,"latest":"2018-11-19T18:17:20.000Z"},"geometry":{"type":"Point","coordinates":[41.3729375849855,52.7601922019812]}},{"type":"Feature","properties":{"id":5048,"title":"Bryansk, RU - Road Alignment","status":"PUBLISHED","created":"2018","lastUpdated":"2018","lastActive":"no","area":30.262723825140842,"changesets":8,"mappers":1,"roads":1.09229506192473,"buildings":1,"edits":39,"latest":"2018-10-28T12:49:03.000Z"},"geometry":{"type":"Point","coordinates":[33.4570235672206,53.0043322730238]}},{"type":"Feature","properties":{"id":5037,"title":"Pskov, RU - Road Alignment","status":"PUBLISHED","created":"2018","lastUpdated":"2018","lastActive":"no","area":6.7397348411403035,"changesets":0,"mappers":0,"roads":0,"buildings":0,"edits":0,"latest":null},"geometry":{"type":"Point","coordinates":[28.7196206931114,57.4529744401669]}},{"type":"Feature","properties":{"id":5090,"title":"Karachay-Cherkessia, RU - Road Alignment","status":"PUBLISHED","created":"2018","lastUpdated":"2018","lastActive":"no","area":4.740680221856723,"changesets":11,"mappers":1,"roads":0.140718881160977,"buildings":0,"edits":63,"latest":"2018-10-31T12:53:50.000Z"},"geometry":{"type":"Point","coordinates":[42.2305210915177,44.0364671504869]}},{"type":"Feature","properties":{"id":5035,"title":"St. Petersburg, RU - Road Alignment","status":"PUBLISHED","created":"2018","lastUpdated":"2018","lastActive":"no","area":8.561300785249289,"changesets":332,"mappers":1,"roads":19.7571350087767,"buildings":150,"edits":4218,"latest":"2018-11-24T13:02:54.000Z"},"geometry":{"type":"Point","coordinates":[30.23445185656,59.9410578806373]}},{"type":"Feature","properties":{"id":5120,"title":"JAO, RU - Road Alignment","status":"PUBLISHED","created":"2018","lastUpdated":"2018","lastActive":"no","area":5.488146548063193,"changesets":4,"mappers":1,"roads":0.0327054624556719,"buildings":1,"edits":20,"latest":"2018-10-24T16:47:52.000Z"},"geometry":{"type":"Point","coordinates":[132.011691687188,48.253714915435]}},{"type":"Feature","properties":{"id":5116,"title":"Buryatia, RU - Road Alignment","status":"PUBLISHED","created":"2018","lastUpdated":"2018","lastActive":"no","area":11.921423464616145,"changesets":7,"mappers":2,"roads":3.08056904568076,"buildings":19,"edits":104,"latest":"2018-10-19T08:54:02.000Z"},"geometry":{"type":"Point","coordinates":[107.505299618937,51.7364622992778]}},{"type":"Feature","properties":{"id":5110,"title":"Yamalia, RU - Road Alignment","status":"PUBLISHED","created":"2018","lastUpdated":"2018","lastActive":"no","area":8.273190558193892,"changesets":6,"mappers":3,"roads":8.28800679414206,"buildings":20,"edits":130,"latest":"2018-11-20T10:22:28.000Z"},"geometry":{"type":"Point","coordinates":[75.2427001306948,65.7007370208771]}},{"type":"Feature","properties":{"id":5045,"title":"Nenetsia, RU - Road Alignment","status":"PUBLISHED","created":"2018","lastUpdated":"2018","lastActive":"no","area":1.271696291426983,"changesets":7,"mappers":2,"roads":8.39223990109274,"buildings":130,"edits":410,"latest":"2018-11-05T20:55:39.000Z"},"geometry":{"type":"Point","coordinates":[56.0799294668555,67.3851766016729]}},{"type":"Feature","properties":{"id":5102,"title":"Udmurtia, RU - Road Alignment","status":"PUBLISHED","created":"2018","lastUpdated":"2018","lastActive":"no","area":15.013904617904839,"changesets":11,"mappers":1,"roads":0.256342391628613,"buildings":1,"edits":279,"latest":"2018-10-24T15:26:13.000Z"},"geometry":{"type":"Point","coordinates":[53.1292263202367,56.6504098059281]}},{"type":"Feature","properties":{"id":5041,"title":"Yaroslavl, RU - Road Alignment","status":"PUBLISHED","created":"2018","lastUpdated":"2018","lastActive":"no","area":4.819215675862653,"changesets":39,"mappers":1,"roads":2.74991066466789,"buildings":47,"edits":479,"latest":"2018-11-06T18:47:40.000Z"},"geometry":{"type":"Point","coordinates":[39.1443497130268,57.5982859823097]}},{"type":"Feature","properties":{"id":5068,"title":"Kursk, RU - Road Alignment","status":"PUBLISHED","created":"2018","lastUpdated":"2018","lastActive":"no","area":11.035515934842362,"changesets":8,"mappers":1,"roads":0.0390462728168895,"buildings":0,"edits":58,"latest":"2018-11-01T10:06:42.000Z"},"geometry":{"type":"Point","coordinates":[36.0226384904065,51.6480514245577]}},{"type":"Feature","properties":{"id":5049,"title":"Kaluga, RU - Road Alignment","status":"PUBLISHED","created":"2018","lastUpdated":"2018","lastActive":"no","area":10.587303562416615,"changesets":1,"mappers":1,"roads":0.159744480365076,"buildings":0,"edits":43,"latest":"2018-10-29T12:17:28.000Z"},"geometry":{"type":"Point","coordinates":[35.7221561476756,54.5927443769091]}},{"type":"Feature","properties":{"id":5078,"title":"Vladmi, RU - Road Alignment","status":"PUBLISHED","created":"2018","lastUpdated":"2018","lastActive":"no","area":19.39018729280983,"changesets":11,"mappers":1,"roads":0.0993819937216351,"buildings":0,"edits":136,"latest":"2018-11-15T20:12:22.000Z"},"geometry":{"type":"Point","coordinates":[41.4000375718571,56.0011972964679]}},{"type":"Feature","properties":{"id":5098,"title":"Kirov, RU - Road Alignment","status":"PUBLISHED","created":"2018","lastUpdated":"2018","lastActive":"no","area":15.917259356789708,"changesets":17,"mappers":1,"roads":36.6975410331902,"buildings":163,"edits":874,"latest":"2018-10-25T09:45:05.000Z"},"geometry":{"type":"Point","coordinates":[49.5005171491877,58.0035735138105]}},{"type":"Feature","properties":{"id":5082,"title":"Mordovia, RU - Road Alignment","status":"PUBLISHED","created":"2018","lastUpdated":"2018","lastActive":"no","area":21.05104067660312,"changesets":26,"mappers":1,"roads":1.76891272292416,"buildings":13,"edits":455,"latest":"2018-11-18T18:15:46.000Z"},"geometry":{"type":"Point","coordinates":[44.471800865344,54.2889054581946]}},{"type":"Feature","properties":{"id":5086,"title":"Chechnya, RU - Road Alignment","status":"PUBLISHED","created":"2018","lastUpdated":"2018","lastActive":"no","area":28.795408595275685,"changesets":23,"mappers":1,"roads":1.74231355153121,"buildings":0,"edits":137,"latest":"2018-10-28T12:22:09.000Z"},"geometry":{"type":"Point","coordinates":[45.8158908939478,43.2733108142613]}},{"type":"Feature","properties":{"id":5114,"title":"Tuva, RU - Road Alignment","status":"PUBLISHED","created":"2018","lastUpdated":"2018","lastActive":"no","area":2.5382251706946253,"changesets":11,"mappers":1,"roads":0.699784508480752,"buildings":20,"edits":104,"latest":"2018-10-19T10:22:55.000Z"},"geometry":{"type":"Point","coordinates":[94.0463114123556,51.781508254766]}},{"type":"Feature","properties":{"id":5074,"title":"Voronezh, RU - Road Alignment","status":"PUBLISHED","created":"2018","lastUpdated":"2018","lastActive":"no","area":51.88857016130644,"changesets":34,"mappers":1,"roads":0.812561863103931,"buildings":19,"edits":545,"latest":"2018-11-16T10:34:45.000Z"},"geometry":{"type":"Point","coordinates":[40.2695201655274,50.9627839626112]}},{"type":"Feature","properties":{"id":5106,"title":"Tyumen, RU - Road Alignment","status":"PUBLISHED","created":"2018","lastUpdated":"2018","lastActive":"no","area":29.90850085590972,"changesets":47,"mappers":1,"roads":2.73852519030308,"buildings":8,"edits":368,"latest":"2018-10-24T15:51:05.000Z"},"geometry":{"type":"Point","coordinates":[68.2637832952442,56.3385442704502]}},{"type":"Feature","properties":{"id":5108,"title":"Novosibirsk, RU - Road Alignment","status":"PUBLISHED","created":"2018","lastUpdated":"2018","lastActive":"no","area":42.469762848735236,"changesets":118,"mappers":1,"roads":3.0941878614093,"buildings":20,"edits":482,"latest":"2018-10-03T10:15:18.000Z"},"geometry":{"type":"Point","coordinates":[80.3670447235961,54.8613031461299]}},{"type":"Feature","properties":{"id":5100,"title":"Tatarstan, RU - Road Alignment","status":"PUBLISHED","created":"2018","lastUpdated":"2018","lastActive":"no","area":38.441103871968686,"changesets":78,"mappers":1,"roads":9.18679789220927,"buildings":48,"edits":656,"latest":"2018-11-14T22:07:11.000Z"},"geometry":{"type":"Point","coordinates":[51.8502575724872,55.4741248014356]}},{"type":"Feature","properties":{"id":5104,"title":"Sverdlovsk, RU - Road Alignment","status":"PUBLISHED","created":"2018","lastUpdated":"2018","lastActive":"no","area":17.833303273592076,"changesets":82,"mappers":1,"roads":1.41269675484537,"buildings":18,"edits":539,"latest":"2018-10-04T16:03:26.000Z"},"geometry":{"type":"Point","coordinates":[60.7296830055128,57.3551621895813]}},{"type":"Feature","properties":{"id":5096,"title":"Chuvashia, RU - Road Alignment","status":"PUBLISHED","created":"2018","lastUpdated":"2018","lastActive":"no","area":7.0000954431448505,"changesets":8,"mappers":1,"roads":0.192223935155805,"buildings":0,"edits":41,"latest":"2018-11-05T21:08:48.000Z"},"geometry":{"type":"Point","coordinates":[47.0169444267199,55.6395929732244]}},{"type":"Feature","properties":{"id":5094,"title":"Rostov, RU - Road Alignment","status":"PUBLISHED","created":"2018","lastUpdated":"2018","lastActive":"no","area":62.059436486990585,"changesets":18,"mappers":1,"roads":0.459103509151284,"buildings":1,"edits":86,"latest":"2018-10-09T12:50:48.000Z"},"geometry":{"type":"Point","coordinates":[40.7358927267966,47.7150064178919]}},{"type":"Feature","properties":{"id":5118,"title":"Amur, RU - Road Alignment","status":"PUBLISHED","created":"2018","lastUpdated":"2018","lastActive":"no","area":19.385680339287482,"changesets":7,"mappers":1,"roads":5.53178454751479,"buildings":28,"edits":99,"latest":"2018-10-17T10:54:27.000Z"},"geometry":{"type":"Point","coordinates":[127.669291747133,51.1636667407178]}},{"type":"Feature","properties":{"id":5092,"title":"Krasnodar, RU - Road Alignment","status":"PUBLISHED","created":"2018","lastUpdated":"2018","lastActive":"yes","area":65.77382796758191,"changesets":563,"mappers":2,"roads":75.2759166158948,"buildings":3740,"edits":8805,"latest":"2018-11-30T16:20:08.000Z"},"geometry":{"type":"Point","coordinates":[39.4116507753946,45.4518856931549]}},{"type":"Feature","properties":{"id":5050,"title":"Moscow, RU - Road Alignment","status":"PUBLISHED","created":"2018","lastUpdated":"2018","lastActive":"no","area":67.22729165523474,"changesets":388,"mappers":29,"roads":134.579730807153,"buildings":592,"edits":4404,"latest":"2018-11-15T15:24:08.000Z"},"geometry":{"type":"Point","coordinates":[37.5334085802161,55.6984793925584]}},{"type":"Feature","properties":{"id":5121,"title":"Sakhalin, RU - Road Alignment","status":"PUBLISHED","created":"2018","lastUpdated":"2018","lastActive":"no","area":5.566677215936195,"changesets":5,"mappers":1,"roads":1.36468434946041,"buildings":3,"edits":40,"latest":"2018-10-24T17:19:44.000Z"},"geometry":{"type":"Point","coordinates":[142.738432590344,48.9062608568148]}},{"type":"Feature","properties":{"id":5112,"title":"Kemerovo, RU - Road Alignment","status":"PUBLISHED","created":"2018","lastUpdated":"2018","lastActive":"no","area":21.798294661428333,"changesets":45,"mappers":1,"roads":2.23533517272834,"buildings":3,"edits":261,"latest":"2018-10-28T12:56:04.000Z"},"geometry":{"type":"Point","coordinates":[86.6571581706989,54.816528983781]}}],"totalArea":2402599046.698764,"Bangladesh":[{"type":"Feature","properties":{"id":3673,"title":"Missing Maps: Kurigram, Bangladesh 1","status":"PUBLISHED","created":"2017","lastUpdated":"2018","lastActive":"no","area":899.6888154386502,"changesets":6907,"mappers":623,"roads":2966.70870450638,"buildings":154502,"edits":180552,"latest":"2018-11-10T11:38:00.000Z"},"geometry":{"type":"Point","coordinates":[89.6521537853908,25.7482328833387]}},{"type":"Feature","properties":{"id":3676,"title":"Missing Maps: Kurigram, Bangladesh 2","status":"PUBLISHED","created":"2017","lastUpdated":"2018","lastActive":"no","area":829.0799917696243,"changesets":4967,"mappers":329,"roads":2263.75141747765,"buildings":101153,"edits":115088,"latest":"2018-11-16T16:31:19.000Z"},"geometry":{"type":"Point","coordinates":[89.691792930978,26.0022392334667]}},{"type":"Feature","properties":{"id":1097,"title":"Missing Maps: Durgapur Upazila, Bangladesh (a Y Care Int DRR & Health Project) BUILDINGS TASK","status":"ARCHIVED","created":"2015","lastUpdated":"2015","lastActive":"no","area":23.94116250003314,"changesets":271,"mappers":9,"roads":53.0256921219507,"buildings":1250,"edits":1659,"latest":"2015-07-09T12:21:03.000Z"},"geometry":{"type":"Point","coordinates":[90.6745502578593,25.1172870900599]}},{"type":"Feature","properties":{"id":4605,"title":"Bangladesh Refugee Crisis camp mapping - Charkmarkul camp","status":"ARCHIVED","created":"2018","lastUpdated":"2018","lastActive":"no","area":38.2691530955905,"changesets":981,"mappers":44,"roads":96.5154776252042,"buildings":13624,"edits":16111,"latest":"2018-07-10T20:46:08.000Z"},"geometry":{"type":"Point","coordinates":[92.1719303368657,21.1287523168181]}},{"type":"Feature","properties":{"id":5478,"title":"Missing Maps: Teknaf, Cox's Bazar, Bangladesh (2)","status":"PUBLISHED","created":"2018","lastUpdated":"2018","lastActive":"yes","area":29.654833641202238,"changesets":448,"mappers":58,"roads":70.6977109150015,"buildings":1555,"edits":2452,"latest":"2018-11-30T17:27:55.000Z"},"geometry":{"type":"Point","coordinates":[92.3060051117919,20.8144810746799]}},{"type":"Feature","properties":{"id":4797,"title":"Bangladesh Refugee Crisis camp mapping - NW of megacamp 2 Update","status":"ARCHIVED","created":"2018","lastUpdated":"2018","lastActive":"no","area":0.22455568991710326,"changesets":338,"mappers":36,"roads":18.9723021238568,"buildings":1545,"edits":2749,"latest":"2018-07-03T14:31:24.000Z"},"geometry":{"type":"Point","coordinates":[92.1421345434211,21.2064290590785]}},{"type":"Feature","properties":{"id":4473,"title":"Bangladesh Refugee Crisis - Kutupalong camp shelters (new area 18)","status":"ARCHIVED","created":"2018","lastUpdated":"2018","lastActive":"no","area":2.007783828831955,"changesets":622,"mappers":91,"roads":28.4368366133859,"buildings":6510,"edits":8396,"latest":"2018-05-27T17:52:35.000Z"},"geometry":{"type":"Point","coordinates":[92.1420695382031,21.1932191290579]}},{"type":"Feature","properties":{"id":4006,"title":"Bangladesh Refugee Crisis - Kutupalong camp roads (global update)","status":"ARCHIVED","created":"2018","lastUpdated":"2018","lastActive":"no","area":37.58708302411728,"changesets":1462,"mappers":88,"roads":855.744077342015,"buildings":15897,"edits":56880,"latest":"2018-01-31T15:39:32.000Z"},"geometry":{"type":"Point","coordinates":[92.1512344720882,21.1911921601746]}},{"type":"Feature","properties":{"id":4030,"title":"Bangladesh Refugee Crisis - Kutupalong camp shelters (area 2)","status":"ARCHIVED","created":"2018","lastUpdated":"2018","lastActive":"no","area":0.2723513470762284,"changesets":500,"mappers":50,"roads":10.7746943143898,"buildings":4248,"edits":4380,"latest":"2018-01-17T20:58:43.000Z"},"geometry":{"type":"Point","coordinates":[92.1526544026047,21.208510937612]}},{"type":"Feature","properties":{"id":4651,"title":"Bangladesh Refugee Crisis - Teknaf camp shelters (new area 21)","status":"ARCHIVED","created":"2018","lastUpdated":"2018","lastActive":"no","area":0.338285962560821,"changesets":276,"mappers":18,"roads":6.52330328892298,"buildings":2044,"edits":2286,"latest":"2018-06-07T11:51:31.000Z"},"geometry":{"type":"Point","coordinates":[92.2537198202293,20.9585820642033]}},{"type":"Feature","properties":{"id":4101,"title":"Bangladesh Refugee Crisis - Kutupalong camp shelters (new area 10)","status":"ARCHIVED","created":"2018","lastUpdated":"2018","lastActive":"no","area":2.725485656539492,"changesets":1719,"mappers":124,"roads":9.25662480329568,"buildings":28026,"edits":29793,"latest":"2018-02-02T07:58:57.000Z"},"geometry":{"type":"Point","coordinates":[92.1449948161645,21.1617641787275]}},{"type":"Feature","properties":{"id":4578,"title":"Bangladesh Refugee Crisis - Teknaf camp shelters (new area 20)","status":"ARCHIVED","created":"2018","lastUpdated":"2018","lastActive":"no","area":1.7077918888633548,"changesets":360,"mappers":21,"roads":16.5980527629591,"buildings":5289,"edits":5748,"latest":"2018-06-03T21:25:53.000Z"},"geometry":{"type":"Point","coordinates":[92.2602092870735,20.9381257997458]}},{"type":"Feature","properties":{"id":4063,"title":"Bangladesh Refugee Crisis - Kutupalong camp shelters (new area 6)","status":"ARCHIVED","created":"2018","lastUpdated":"2018","lastActive":"no","area":0.6557090054624053,"changesets":663,"mappers":45,"roads":2.84719413861605,"buildings":3972,"edits":4289,"latest":"2018-01-25T11:10:53.000Z"},"geometry":{"type":"Point","coordinates":[92.1473609876732,21.201114668552]}},{"type":"Feature","properties":{"id":3580,"title":"Bangladesh Floods: Ghoraghat, Dinajpur","status":"ARCHIVED","created":"2017","lastUpdated":"2017","lastActive":"no","area":151.14083195125795,"changesets":916,"mappers":71,"roads":716.853596077042,"buildings":780,"edits":8986,"latest":"2017-09-20T11:39:52.000Z"},"geometry":{"type":"Point","coordinates":[89.2142113441278,25.2864946936718]}},{"type":"Feature","properties":{"id":4143,"title":"Bangladesh Refugee Crisis - Kutupalong camp shelters (new area 13)","status":"ARCHIVED","created":"2018","lastUpdated":"2018","lastActive":"no","area":0.43804531230520205,"changesets":299,"mappers":37,"roads":3.29874808660354,"buildings":5835,"edits":6433,"latest":"2018-02-05T03:53:17.000Z"},"geometry":{"type":"Point","coordinates":[92.1628945486189,21.2069335354152]}},{"type":"Feature","properties":{"id":4117,"title":"Bangladesh Refugee Crisis - Kutupalong camp shelters (new area 11)","status":"ARCHIVED","created":"2018","lastUpdated":"2018","lastActive":"no","area":0.7890758538219015,"changesets":555,"mappers":66,"roads":2.88641338019215,"buildings":6688,"edits":7640,"latest":"2018-02-03T15:57:22.000Z"},"geometry":{"type":"Point","coordinates":[92.1682255424455,21.2040223577882]}},{"type":"Feature","properties":{"id":4146,"title":"Bangladesh Refugee Crisis - Kutupalong camp shelters (new area 15)","status":"ARCHIVED","created":"2018","lastUpdated":"2018","lastActive":"no","area":1.1711380424532771,"changesets":828,"mappers":98,"roads":11.4060399496943,"buildings":9940,"edits":10857,"latest":"2018-02-13T14:03:16.000Z"},"geometry":{"type":"Point","coordinates":[92.1643718910906,21.1924972954646]}},{"type":"Feature","properties":{"id":4067,"title":"Bangladesh Refugee Crisis - Kutupalong camp shelters (new area 8)","status":"ARCHIVED","created":"2018","lastUpdated":"2018","lastActive":"no","area":1.8199746017972194,"changesets":771,"mappers":81,"roads":12.2703185613898,"buildings":11463,"edits":12641,"latest":"2018-01-27T16:19:38.000Z"},"geometry":{"type":"Point","coordinates":[92.1410262715345,21.1807598113435]}},{"type":"Feature","properties":{"id":4040,"title":"Bangladesh Refugee Crisis - Kutupalong camp shelters (new area 4)","status":"ARCHIVED","created":"2018","lastUpdated":"2018","lastActive":"no","area":0.6259929529305098,"changesets":430,"mappers":52,"roads":1.88416159791042,"buildings":9476,"edits":9830,"latest":"2018-01-24T09:33:40.000Z"},"geometry":{"type":"Point","coordinates":[92.1554038558946,21.205509142876]}},{"type":"Feature","properties":{"id":3636,"title":"Bangladesh Floods: Birampur, Dinajpur","status":"ARCHIVED","created":"2017","lastUpdated":"2017","lastActive":"no","area":214.00709510313644,"changesets":1025,"mappers":79,"roads":1085.94805721375,"buildings":1332,"edits":14801,"latest":"2018-01-03T00:04:00.000Z"},"geometry":{"type":"Point","coordinates":[88.9633234339553,25.3798285622054]}},{"type":"Feature","properties":{"id":5252,"title":"Bangladesh Refugee Crisis camp mapping - Update (3)","status":"ARCHIVED","created":"2018","lastUpdated":"2018","lastActive":"no","area":0.012926602231904005,"changesets":14,"mappers":3,"roads":2.80921812093854,"buildings":357,"edits":426,"latest":"2018-09-26T11:01:06.000Z"},"geometry":{"type":"Point","coordinates":[92.1638024899217,21.2076188045245]}},{"type":"Feature","properties":{"id":5251,"title":"Delete -squares are too small","status":"ARCHIVED","created":"2018","lastUpdated":"2018","lastActive":"no","area":0.012926602231904005,"changesets":6,"mappers":1,"roads":0.0548106953006689,"buildings":29,"edits":35,"latest":"2018-09-20T17:18:03.000Z"},"geometry":{"type":"Point","coordinates":[92.1638024899217,21.2076188045245]}},{"type":"Feature","properties":{"id":4891,"title":"Bangladesh Refugee Crisis camp mapping - NW of megacamp 3 Update","status":"ARCHIVED","created":"2018","lastUpdated":"2018","lastActive":"no","area":0.4833315559159053,"changesets":125,"mappers":15,"roads":17.3371883879362,"buildings":5254,"edits":6040,"latest":"2018-08-09T09:18:16.000Z"},"geometry":{"type":"Point","coordinates":[92.1428704148335,21.2111616930025]}},{"type":"Feature","properties":{"id":4796,"title":"Bangladesh Refugee Crisis camp mapping - NW of megacamp 1 Update","status":"ARCHIVED","created":"2018","lastUpdated":"2018","lastActive":"no","area":0.21214589831320188,"changesets":167,"mappers":29,"roads":13.9014035246205,"buildings":288,"edits":651,"latest":"2018-06-27T09:06:10.000Z"},"geometry":{"type":"Point","coordinates":[92.1381699557021,21.2124977008707]}},{"type":"Feature","properties":{"id":3439,"title":"Mapping Flood Affected Community in Bangladesh (Kajla and Kamalpur district) - additional data","status":"PUBLISHED","created":"2017","lastUpdated":"2017","lastActive":"no","area":89.3773764699791,"changesets":218,"mappers":52,"roads":168.93574156142,"buildings":5049,"edits":6999,"latest":"2017-09-10T19:43:46.000Z"},"geometry":{"type":"Point","coordinates":[89.628360802902,24.8883441744202]}},{"type":"Feature","properties":{"id":968,"title":"Madan/Atpara Upazilas, Bangladesh Health Workers Map","status":"PUBLISHED","created":"2015","lastUpdated":"2018","lastActive":"no","area":425.14427175378165,"changesets":1373,"mappers":86,"roads":1292.93529551555,"buildings":58064,"edits":63648,"latest":"2018-09-22T09:15:29.000Z"},"geometry":{"type":"Point","coordinates":[90.9251916015637,24.7305153109152]}},{"type":"Feature","properties":{"id":3672,"title":"Missing Maps: Kurigram, Bangladesh 3","status":"PUBLISHED","created":"2017","lastUpdated":"2018","lastActive":"no","area":556.4887451906692,"changesets":2197,"mappers":118,"roads":1149.57400028338,"buildings":122342,"edits":127132,"latest":"2018-05-31T05:51:33.000Z"},"geometry":{"type":"Point","coordinates":[89.7679617942303,25.5488366434994]}},{"type":"Feature","properties":{"id":4002,"title":"Missing Maps: Bangladesh, Barisal Sadar West","status":"ARCHIVED","created":"2018","lastUpdated":"2018","lastActive":"no","area":105.30820518035584,"changesets":2106,"mappers":252,"roads":770.254087610049,"buildings":98421,"edits":104839,"latest":"2018-09-22T09:38:51.000Z"},"geometry":{"type":"Point","coordinates":[90.329930590656,22.7145787795814]}},{"type":"Feature","properties":{"id":4005,"title":"Missing Maps: Barguna Sadar Northeast, Bangladesh","status":"ARCHIVED","created":"2018","lastUpdated":"2018","lastActive":"no","area":184.33000832032738,"changesets":2174,"mappers":257,"roads":833.2621098176,"buildings":50886,"edits":54603,"latest":"2018-11-08T13:13:46.000Z"},"geometry":{"type":"Point","coordinates":[90.1457719023543,22.1835531221325]}},{"type":"Feature","properties":{"id":1103,"title":"Missing Maps: Kaligram, Bangladesh (a Y Care Int DRR & Health Project) ","status":"ARCHIVED","created":"2015","lastUpdated":"2015","lastActive":"no","area":10.283199205864989,"changesets":199,"mappers":18,"roads":77.9872603294316,"buildings":1838,"edits":2074,"latest":"2015-08-17T18:38:15.000Z"},"geometry":{"type":"Point","coordinates":[89.9690569341416,23.2138609302256]}},{"type":"Feature","properties":{"id":934,"title":"Khulna Northeast - GWU & USAID Mapping Exercise (Area 2)","status":"ARCHIVED","created":"2015","lastUpdated":"2017","lastActive":"no","area":269.6635364274935,"changesets":3556,"mappers":79,"roads":210.327172939665,"buildings":11808,"edits":13220,"latest":"2017-04-14T03:10:52.000Z"},"geometry":{"type":"Point","coordinates":[89.6996332636041,22.7518781864227]}},{"type":"Feature","properties":{"id":966,"title":"Netrokona Sadar Upazila, Bangladesh Health Workers Map","status":"ARCHIVED","created":"2015","lastUpdated":"2018","lastActive":"no","area":336.33039895503003,"changesets":1470,"mappers":30,"roads":1049.28331346091,"buildings":126943,"edits":132489,"latest":"2018-08-27T11:35:24.000Z"},"geometry":{"type":"Point","coordinates":[90.7373756904843,24.8867548060413]}},{"type":"Feature","properties":{"id":830,"title":"TEST - PLEASE DELETE","status":"ARCHIVED","created":"2015","lastUpdated":"2015","lastActive":"no","area":5.285380020613458,"changesets":0,"mappers":0,"roads":0,"buildings":0,"edits":0,"latest":null},"geometry":{"type":"Point","coordinates":[90.3678377901422,23.7207993455729]}},{"type":"Feature","properties":{"id":1186,"title":"Gandaria, Dhaka, Bangladesh","status":"ARCHIVED","created":"2015","lastUpdated":"2016","lastActive":"no","area":12.929189077024681,"changesets":1836,"mappers":22,"roads":16.1306031406695,"buildings":1570,"edits":3295,"latest":"2016-03-12T03:44:37.000Z"},"geometry":{"type":"Point","coordinates":[90.4252406437414,23.7030670404877]}},{"type":"Feature","properties":{"id":4032,"title":"Missing Maps: Pirojpur Sadar, Bangladesh","status":"ARCHIVED","created":"2018","lastUpdated":"2018","lastActive":"no","area":163.27718741770573,"changesets":993,"mappers":81,"roads":376.604296754097,"buildings":40057,"edits":41522,"latest":"2018-08-04T13:38:46.000Z"},"geometry":{"type":"Point","coordinates":[89.9810714962393,22.6087544216835]}},{"type":"Feature","properties":{"id":5303,"title":"Mapping Hydro-logical features, Road Networks & Households in Polder 43/2B at Amkhola Union under Patuakhali District, Bangladesh","status":"PUBLISHED","created":"2018","lastUpdated":"2018","lastActive":"no","area":57.37618647677307,"changesets":380,"mappers":11,"roads":160.539673997933,"buildings":14208,"edits":16220,"latest":"2018-10-13T15:20:00.000Z"},"geometry":{"type":"Point","coordinates":[90.3726859596052,22.2423257936285]}},{"type":"Feature","properties":{"id":373,"title":"Mapping in Sirajganj, Bangladesh - SA activities","status":"PUBLISHED","created":"2013","lastUpdated":"2016","lastActive":"no","area":12.233787905206839,"changesets":0,"mappers":0,"roads":0,"buildings":0,"edits":0,"latest":null},"geometry":{"type":"Point","coordinates":[89.7053138751845,24.4584878337345]}},{"type":"Feature","properties":{"id":828,"title":"TEST - PLEASE DELETE","status":"ARCHIVED","created":"2014","lastUpdated":"2014","lastActive":"no","area":17.803158894780722,"changesets":0,"mappers":0,"roads":0,"buildings":0,"edits":0,"latest":null},"geometry":{"type":"Point","coordinates":[90.3646605407612,23.734788035174]}},{"type":"Feature","properties":{"id":845,"title":"MissingMaps: Moghbazar, Dhaka","status":"ARCHIVED","created":"2015","lastUpdated":"2017","lastActive":"no","area":2.2870781056501044,"changesets":431,"mappers":35,"roads":13.1378265731026,"buildings":3871,"edits":4588,"latest":"2015-11-23T19:17:57.000Z"},"geometry":{"type":"Point","coordinates":[90.4127142101335,23.758732094763]}},{"type":"Feature","properties":{"id":3544,"title":"Bangladesh Floods: Nawabgonj, Dinajpur","status":"ARCHIVED","created":"2017","lastUpdated":"2017","lastActive":"no","area":317.83190896477026,"changesets":824,"mappers":105,"roads":1919.91884732739,"buildings":1015,"edits":15331,"latest":"2017-09-14T11:25:22.000Z"},"geometry":{"type":"Point","coordinates":[89.0901860852451,25.4199718715204]}},{"type":"Feature","properties":{"id":901,"title":"Kendua, Bangladesh Health Workers Map","status":"PUBLISHED","created":"2015","lastUpdated":"2018","lastActive":"no","area":313.91353811096394,"changesets":5707,"mappers":60,"roads":1544.70863005798,"buildings":92996,"edits":102428,"latest":"2018-10-13T06:14:50.000Z"},"geometry":{"type":"Point","coordinates":[90.8017298707623,24.6774559089141]}},{"type":"Feature","properties":{"id":379,"title":"Mapping in Jamalpur City, Jamalpur District, Bangladesh - SA activities","status":"PUBLISHED","created":"2013","lastUpdated":"2017","lastActive":"no","area":11.305254865523564,"changesets":0,"mappers":0,"roads":0,"buildings":0,"edits":0,"latest":null},"geometry":{"type":"Point","coordinates":[89.9456457469483,24.9206035422861]}},{"type":"Feature","properties":{"id":967,"title":"Madan Upazila, Bangladesh Health Workers Map","status":"ARCHIVED","created":"2015","lastUpdated":"2015","lastActive":"no","area":231.32183096890685,"changesets":0,"mappers":0,"roads":0,"buildings":0,"edits":0,"latest":null},"geometry":{"type":"Point","coordinates":[90.9670769266166,24.6775284129275]}},{"type":"Feature","properties":{"id":3630,"title":"Mapping Flood Affected Communities in Bangladesh (Panchagarh, Rangpur)","status":"PUBLISHED","created":"2017","lastUpdated":"2018","lastActive":"no","area":1368.7065038384933,"changesets":24508,"mappers":1109,"roads":18093.9565792255,"buildings":976050,"edits":1117277,"latest":"2018-11-13T01:32:14.000Z"},"geometry":{"type":"Point","coordinates":[88.5754590338312,26.2851291051997]}},{"type":"Feature","properties":{"id":3651,"title":"can be deleted","status":"ARCHIVED","created":"2017","lastUpdated":"2017","lastActive":"no","area":4472.115634364655,"changesets":0,"mappers":0,"roads":0,"buildings":0,"edits":0,"latest":null},"geometry":{"type":"Point","coordinates":[91.8343689213137,22.4432644673298]}},{"type":"Feature","properties":{"id":4041,"title":"Missing Maps: Satkhira Sadar, Bangladesh","status":"PUBLISHED","created":"2018","lastUpdated":"2018","lastActive":"no","area":399.8501115432759,"changesets":5682,"mappers":315,"roads":1787.02534493688,"buildings":135830,"edits":142447,"latest":"2018-08-26T10:03:01.000Z"},"geometry":{"type":"Point","coordinates":[89.0386376518338,22.7209377247088]}},{"type":"Feature","properties":{"id":3854,"title":"Bangladesh Population Movement - Kutupalong camp and surrounding settlements","status":"ARCHIVED","created":"2017","lastUpdated":"2018","lastActive":"no","area":1.5851833211456114,"changesets":426,"mappers":61,"roads":15.7049207848477,"buildings":6563,"edits":7079,"latest":"2017-12-04T05:39:49.000Z"},"geometry":{"type":"Point","coordinates":[92.1548454994368,21.2012082033631]}},{"type":"Feature","properties":{"id":3893,"title":"Missing Maps: Bangladesh, Bagerhat Sadar","status":"PUBLISHED","created":"2017","lastUpdated":"2018","lastActive":"no","area":312.0883611557927,"changesets":4547,"mappers":419,"roads":77.3472128738285,"buildings":42629,"edits":43301,"latest":"2018-09-21T19:38:18.000Z"},"geometry":{"type":"Point","coordinates":[89.7632937630692,22.6775527819722]}},{"type":"Feature","properties":{"id":3554,"title":"Bangladesh Floods: Hakimpur, Dinajpur","status":"ARCHIVED","created":"2017","lastUpdated":"2017","lastActive":"no","area":101.5610777608057,"changesets":667,"mappers":93,"roads":771.648143961837,"buildings":1068,"edits":9746,"latest":"2018-01-19T05:35:51.000Z"},"geometry":{"type":"Point","coordinates":[89.0595911888746,25.2923414577371]}},{"type":"Feature","properties":{"id":4688,"title":"Bangladesh Refugee Crisis - Teknaf camp shelters (new area 22)","status":"ARCHIVED","created":"2018","lastUpdated":"2018","lastActive":"no","area":1.138173115129849,"changesets":220,"mappers":34,"roads":1.74503399882167,"buildings":3143,"edits":3204,"latest":"2018-06-14T18:30:43.000Z"},"geometry":{"type":"Point","coordinates":[92.2476022941702,20.9704249350178]}},{"type":"Feature","properties":{"id":4604,"title":"Bangladesh Refugee Crisis camp mapping - Unchiprang camp","status":"ARCHIVED","created":"2018","lastUpdated":"2018","lastActive":"no","area":9.756611664171874,"changesets":530,"mappers":39,"roads":30.5415605796341,"buildings":8557,"edits":10537,"latest":"2018-08-30T01:47:42.000Z"},"geometry":{"type":"Point","coordinates":[92.2070766509164,21.0900897143894]}}],"Uruguay":[{"type":"Feature","properties":{"id":4744,"title":"TacuarembÃ³, UY - Missing Roads","status":"PUBLISHED","created":"2018","lastUpdated":"2018","lastActive":"no","area":3.9431238372270627,"changesets":0,"mappers":0,"roads":0,"buildings":0,"edits":0,"latest":null},"geometry":{"type":"Point","coordinates":[-55.8433819359977,-32.1176451285194]}},{"type":"Feature","properties":{"id":4732,"title":"Flores, UY - Missing Roads","status":"PUBLISHED","created":"2018","lastUpdated":"2018","lastActive":"no","area":2.935421764959469,"changesets":1,"mappers":1,"roads":2.31284518748433,"buildings":0,"edits":4,"latest":"2018-06-17T19:42:59.000Z"},"geometry":{"type":"Point","coordinates":[-57.0295949286709,-33.5564665628494]}},{"type":"Feature","properties":{"id":4728,"title":"Canelones, UY - Missing Roads","status":"PUBLISHED","created":"2018","lastUpdated":"2018","lastActive":"no","area":1.2184189098624265,"changesets":1,"mappers":1,"roads":0.911011044352086,"buildings":0,"edits":4,"latest":"2018-06-17T19:49:50.000Z"},"geometry":{"type":"Point","coordinates":[-56.0941894063232,-34.665978511374]}},{"type":"Feature","properties":{"id":4738,"title":"RÃ­o Negro, UY - Missing Roads","status":"PUBLISHED","created":"2018","lastUpdated":"2018","lastActive":"no","area":9.574305456459518,"changesets":2,"mappers":1,"roads":2.73826308813931,"buildings":4,"edits":10,"latest":"2018-06-17T19:33:43.000Z"},"geometry":{"type":"Point","coordinates":[-57.5310709506451,-32.7560247653978]}},{"type":"Feature","properties":{"id":4740,"title":"Rocha, UY - Missing Roads","status":"PUBLISHED","created":"2018","lastUpdated":"2018","lastActive":"no","area":4.100013506717109,"changesets":11,"mappers":2,"roads":23.5724183748576,"buildings":2,"edits":39,"latest":"2018-08-01T08:33:54.000Z"},"geometry":{"type":"Point","coordinates":[-54.0481754640001,-33.7565447813606]}},{"type":"Feature","properties":{"id":4730,"title":"Colonia, UY - Missing Roads","status":"PUBLISHED","created":"2018","lastUpdated":"2018","lastActive":"no","area":2.62523007547703,"changesets":1,"mappers":1,"roads":3.79026182060855,"buildings":0,"edits":11,"latest":"2018-06-17T19:46:45.000Z"},"geometry":{"type":"Point","coordinates":[-57.6889735924435,-34.0573906496792]}},{"type":"Feature","properties":{"id":4731,"title":"Durazno, UY - Missing Roads","status":"PUBLISHED","created":"2018","lastUpdated":"2018","lastActive":"no","area":3.810249057125639,"changesets":1,"mappers":1,"roads":1.77575892862827,"buildings":0,"edits":2,"latest":"2018-06-17T19:41:06.000Z"},"geometry":{"type":"Point","coordinates":[-56.3813909864707,-33.0298559973205]}},{"type":"Feature","properties":{"id":4727,"title":"Artigas, UY - Missing Roads","status":"PUBLISHED","created":"2018","lastUpdated":"2018","lastActive":"no","area":3.215255790249991,"changesets":1,"mappers":1,"roads":6.92770718509792,"buildings":0,"edits":8,"latest":"2018-06-17T19:55:15.000Z"},"geometry":{"type":"Point","coordinates":[-56.8498851002438,-30.5934684656536]}}],"Indonesia":[{"type":"Feature","properties":{"id":1011,"title":"Aktivitas Pengumpulan Data di DAS Jeneberang","status":"PUBLISHED","created":"2015","lastUpdated":"2015","lastActive":"no","area":2353.106322075065,"changesets":83,"mappers":3,"roads":18.9318585168149,"buildings":1318,"edits":2128,"latest":"2015-08-12T05:02:39.000Z"},"geometry":{"type":"Point","coordinates":[119.730948333476,-5.2697108809525]}},{"type":"Feature","properties":{"id":238,"title":"Guntur_Garut","status":"ARCHIVED","created":"2013","lastUpdated":"2014","lastActive":"no","area":1033.3340642967473,"changesets":3,"mappers":1,"roads":0,"buildings":14,"edits":14,"latest":"2016-01-21T11:25:00.000Z"},"geometry":{"type":"Point","coordinates":[107.869024835263,-7.21340771141719]}},{"type":"Feature","properties":{"id":96,"title":"North Padang","status":"PUBLISHED","created":"2012","lastUpdated":"2016","lastActive":"no","area":24.10763674645945,"changesets":186,"mappers":12,"roads":42.0964925786796,"buildings":62221,"edits":62949,"latest":"2017-09-27T07:44:21.000Z"},"geometry":{"type":"Point","coordinates":[100.349105833386,-0.871349778820838]}},{"type":"Feature","properties":{"id":105,"title":"Sidoarjo mud flow or Lapindo mud","status":"PUBLISHED","created":"2012","lastUpdated":"2018","lastActive":"no","area":35.26109381384408,"changesets":1536,"mappers":112,"roads":104.753467597932,"buildings":27806,"edits":31204,"latest":"2018-08-02T19:13:09.000Z"},"geometry":{"type":"Point","coordinates":[112.715788530608,-7.5284579211764]}},{"type":"Feature","properties":{"id":1013,"title":"Aktivitas Pengumpulan Data di Ancaman Gempa Bumi","status":"PUBLISHED","created":"2015","lastUpdated":"2018","lastActive":"no","area":12064.797843912818,"changesets":32,"mappers":3,"roads":44.8710683798205,"buildings":826,"edits":1174,"latest":"2018-10-01T16:08:41.000Z"},"geometry":{"type":"Point","coordinates":[120.769267743527,-2.5142859621583]}},{"type":"Feature","properties":{"id":1032,"title":"Mapping Activity in Nagekeo District, NTT","status":"PUBLISHED","created":"2015","lastUpdated":"2015","lastActive":"no","area":1450.2407534924623,"changesets":0,"mappers":0,"roads":0,"buildings":0,"edits":0,"latest":null},"geometry":{"type":"Point","coordinates":[121.269705764205,-8.68766778892447]}},{"type":"Feature","properties":{"id":3025,"title":"Missing Maps: Cilandak Sub Districs #PDC Jakarta","status":"ARCHIVED","created":"2017","lastUpdated":"2017","lastActive":"no","area":17.826440731180615,"changesets":183,"mappers":4,"roads":28.6590632722901,"buildings":26772,"edits":28477,"latest":"2017-09-18T02:21:25.000Z"},"geometry":{"type":"Point","coordinates":[106.793307284061,-6.29318797958196]}},{"type":"Feature","properties":{"id":3023,"title":"Missing Maps: Jagakarsa Sub Districs #PDC Jakarta","status":"ARCHIVED","created":"2017","lastUpdated":"2018","lastActive":"no","area":25.42210309140762,"changesets":402,"mappers":4,"roads":291.254137097454,"buildings":60355,"edits":74341,"latest":"2017-09-27T08:09:19.000Z"},"geometry":{"type":"Point","coordinates":[106.822686971367,-6.33345822843127]}},{"type":"Feature","properties":{"id":270,"title":"Latihan Digitasi Jeneponto","status":"PUBLISHED","created":"2013","lastUpdated":"2016","lastActive":"no","area":777.2106709731412,"changesets":552,"mappers":22,"roads":847.20249137615,"buildings":28810,"edits":53654,"latest":"2018-01-03T09:05:24.000Z"},"geometry":{"type":"Point","coordinates":[119.714551510091,-5.58306248225377]}},{"type":"Feature","properties":{"id":2085,"title":"Missing Maps: Jambangan Sub Districs #PDC Surabaya","status":"ARCHIVED","created":"2016","lastUpdated":"2017","lastActive":"no","area":4.372352653913602,"changesets":220,"mappers":9,"roads":40.262470357784,"buildings":8408,"edits":10104,"latest":"2017-02-22T08:43:12.000Z"},"geometry":{"type":"Point","coordinates":[112.715697830644,-7.32312667880513]}},{"type":"Feature","properties":{"id":1064,"title":"Lokon Eruption, Tomohon, North Sulawesi","status":"ARCHIVED","created":"2015","lastUpdated":"2017","lastActive":"no","area":301.05854055841337,"changesets":107,"mappers":8,"roads":103.342312368624,"buildings":1987,"edits":2744,"latest":"2015-07-30T02:44:33.000Z"},"geometry":{"type":"Point","coordinates":[124.777879000023,1.37015517859608]}},{"type":"Feature","properties":{"id":235,"title":"PMI Beginner Training","status":"ARCHIVED","created":"2013","lastUpdated":"2014","lastActive":"no","area":2.861515775509014,"changesets":0,"mappers":0,"roads":0,"buildings":0,"edits":0,"latest":null},"geometry":{"type":"Point","coordinates":[106.834059522705,-6.24708390924862]}},{"type":"Feature","properties":{"id":242,"title":"Papandayan_Garut","status":"ARCHIVED","created":"2013","lastUpdated":"2014","lastActive":"no","area":1049.3592609346736,"changesets":0,"mappers":0,"roads":0,"buildings":0,"edits":0,"latest":null},"geometry":{"type":"Point","coordinates":[107.783160742384,-7.35616027202178]}},{"type":"Feature","properties":{"id":4056,"title":"Missing Maps: Semarang Tengah Sub Districts #PDC Semarang","status":"ARCHIVED","created":"2018","lastUpdated":"2018","lastActive":"no","area":5.39883144937884,"changesets":47,"mappers":3,"roads":1.56794116826866,"buildings":550,"edits":773,"latest":"2018-06-28T02:48:20.000Z"},"geometry":{"type":"Point","coordinates":[110.420989498907,-6.98031805440703]}},{"type":"Feature","properties":{"id":4046,"title":"Missing Maps: Gajah Mungkur Sub Districts #PDC Semarang","status":"ARCHIVED","created":"2018","lastUpdated":"2018","lastActive":"no","area":9.7825467368316,"changesets":119,"mappers":3,"roads":24.996948716469,"buildings":6160,"edits":7312,"latest":"2018-06-26T09:46:00.000Z"},"geometry":{"type":"Point","coordinates":[110.405596342639,-7.01275552509079]}},{"type":"Feature","properties":{"id":4043,"title":"Missing Maps: Banyumanik Sub Districts #PDC Semarang","status":"ARCHIVED","created":"2018","lastUpdated":"2018","lastActive":"no","area":31.263404954853762,"changesets":619,"mappers":13,"roads":288.064224597288,"buildings":29152,"edits":34454,"latest":"2018-07-17T04:20:43.000Z"},"geometry":{"type":"Point","coordinates":[110.420634743892,-7.0698505073789]}},{"type":"Feature","properties":{"id":4058,"title":"Missing Maps: Tembalang Sub Districts #PDC Semarang","status":"PUBLISHED","created":"2018","lastUpdated":"2018","lastActive":"no","area":40.54145098859969,"changesets":665,"mappers":56,"roads":264.065386297172,"buildings":45216,"edits":48320,"latest":"2018-07-23T04:57:28.000Z"},"geometry":{"type":"Point","coordinates":[110.460995575373,-7.04854201123433]}},{"type":"Feature","properties":{"id":2068,"title":"Missing Maps: Tegalsari Sub Districts #PDC Surabaya","status":"ARCHIVED","created":"2016","lastUpdated":"2017","lastActive":"no","area":4.352705367877991,"changesets":811,"mappers":19,"roads":14.4948079330338,"buildings":19707,"edits":21119,"latest":"2017-02-23T06:43:22.000Z"},"geometry":{"type":"Point","coordinates":[112.736792302739,-7.27550770658726]}},{"type":"Feature","properties":{"id":2067,"title":"Missing Maps: Gubeng Sub Districts #PDC Surabaya","status":"ARCHIVED","created":"2016","lastUpdated":"2017","lastActive":"no","area":7.946806546306559,"changesets":983,"mappers":20,"roads":46.6643877577317,"buildings":33562,"edits":34594,"latest":"2017-02-03T04:06:46.000Z"},"geometry":{"type":"Point","coordinates":[112.759397144637,-7.27964966209539]}},{"type":"Feature","properties":{"id":2065,"title":"Missing Maps: Gayungan Sub Districts #PDC Surabaya","status":"ARCHIVED","created":"2016","lastUpdated":"2017","lastActive":"no","area":5.876548818039097,"changesets":176,"mappers":6,"roads":27.0570945616169,"buildings":8728,"edits":9604,"latest":"2017-03-14T02:26:35.000Z"},"geometry":{"type":"Point","coordinates":[112.726874868915,-7.32999419948107]}},{"type":"Feature","properties":{"id":2089,"title":"Missing Maps: Pakal Sub Districs #PDC Surabaya","status":"ARCHIVED","created":"2016","lastUpdated":"2017","lastActive":"no","area":18.81794956875589,"changesets":159,"mappers":14,"roads":31.8629722924841,"buildings":14942,"edits":15936,"latest":"2017-02-23T07:17:46.000Z"},"geometry":{"type":"Point","coordinates":[112.616029372875,-7.22967182670023]}},{"type":"Feature","properties":{"id":2081,"title":"Missing Maps: Wonokromo Sub Districs #PDC Surabaya","status":"ARCHIVED","created":"2016","lastUpdated":"2017","lastActive":"no","area":8.295998238077491,"changesets":519,"mappers":12,"roads":2.95752241993943,"buildings":26060,"edits":27183,"latest":"2017-02-24T05:59:42.000Z"},"geometry":{"type":"Point","coordinates":[112.737905821407,-7.29771035810582]}},{"type":"Feature","properties":{"id":1149,"title":"Exposure Mapping in Lembata District, NTT","status":"PUBLISHED","created":"2015","lastUpdated":"2017","lastActive":"no","area":1267.3428895525565,"changesets":560,"mappers":14,"roads":478.898477952848,"buildings":35341,"edits":38868,"latest":"2018-03-03T19:23:11.000Z"},"geometry":{"type":"Point","coordinates":[123.54234419197,-8.38028074282829]}},{"type":"Feature","properties":{"id":908,"title":"Karangetang Volcano Mitigation and Preparedness","status":"PUBLISHED","created":"2015","lastUpdated":"2017","lastActive":"no","area":126.20571151989787,"changesets":451,"mappers":33,"roads":27.2139922947724,"buildings":1850,"edits":2105,"latest":"2017-09-07T16:46:00.000Z"},"geometry":{"type":"Point","coordinates":[125.401234797259,2.73690010041481]}},{"type":"Feature","properties":{"id":3031,"title":"Missing Maps: Grogol Petamburan Sub Districs #PDC Jakarta","status":"ARCHIVED","created":"2017","lastUpdated":"2017","lastActive":"no","area":10.805656337791167,"changesets":218,"mappers":5,"roads":3.98900637661907,"buildings":47671,"edits":49629,"latest":"2017-10-03T12:21:38.000Z"},"geometry":{"type":"Point","coordinates":[106.786483931117,-6.16359030555416]}},{"type":"Feature","properties":{"id":3029,"title":"Missing Maps: Ciracas Sub Districs #PDC Jakarta","status":"ARCHIVED","created":"2017","lastUpdated":"2017","lastActive":"no","area":16.66387875779246,"changesets":490,"mappers":7,"roads":211.138527419401,"buildings":57133,"edits":67829,"latest":"2017-10-25T03:29:42.000Z"},"geometry":{"type":"Point","coordinates":[106.878465483458,-6.33393509009654]}},{"type":"Feature","properties":{"id":297,"title":"Aceh Project Area 2","status":"PUBLISHED","created":"2013","lastUpdated":"2014","lastActive":"no","area":35.388245837435974,"changesets":624,"mappers":25,"roads":1095.38235761661,"buildings":133,"edits":3693,"latest":"2018-02-15T02:07:25.000Z"},"geometry":{"type":"Point","coordinates":[96.8524759617595,4.7189461142942]}},{"type":"Feature","properties":{"id":4054,"title":"Missing Maps: Semarang Selatan Sub Districts #PDC Semarang","status":"ARCHIVED","created":"2018","lastUpdated":"2018","lastActive":"no","area":6.216206220761751,"changesets":317,"mappers":4,"roads":104.549294432283,"buildings":7273,"edits":9672,"latest":"2018-06-28T09:25:52.000Z"},"geometry":{"type":"Point","coordinates":[110.424620763431,-6.99694059104644]}},{"type":"Feature","properties":{"id":864,"title":"Data Preparedness Activity in Kabupaten Sampang, East Java, Indonesia","status":"PUBLISHED","created":"2015","lastUpdated":"2017","lastActive":"no","area":1233.9947430769478,"changesets":51,"mappers":18,"roads":21.219693482163,"buildings":1416,"edits":1570,"latest":"2018-07-02T15:44:18.000Z"},"geometry":{"type":"Point","coordinates":[113.256290393311,-7.05190931095301]}},{"type":"Feature","properties":{"id":269,"title":"Latihan Digitasi Kepulauan Selayar","status":"PUBLISHED","created":"2013","lastUpdated":"2017","lastActive":"no","area":804.146953222781,"changesets":558,"mappers":22,"roads":701.420344598692,"buildings":2627,"edits":23639,"latest":"2018-01-04T08:23:44.000Z"},"geometry":{"type":"Point","coordinates":[120.490925789563,-6.10121746204323]}},{"type":"Feature","properties":{"id":256,"title":"Mapping Disaster Prone Area for Papandayan and Guntur Volcano","status":"PUBLISHED","created":"2013","lastUpdated":"2017","lastActive":"no","area":910.4873497253371,"changesets":177,"mappers":5,"roads":16.509553940701,"buildings":802,"edits":1227,"latest":"2018-05-08T07:53:19.000Z"},"geometry":{"type":"Point","coordinates":[107.812651699598,-7.21627336408439]}},{"type":"Feature","properties":{"id":576,"title":"Indonesian Red Cross Flood Risk Mapping (Kedoya Utara & Kedoya Selatan)","status":"PUBLISHED","created":"2014","lastUpdated":"2017","lastActive":"no","area":9.572161893358784,"changesets":0,"mappers":0,"roads":0,"buildings":0,"edits":0,"latest":null},"geometry":{"type":"Point","coordinates":[106.760472991246,-6.17296332769724]}},{"type":"Feature","properties":{"id":4052,"title":"Missing Maps: Pedurungan Sub Districts #PDC Semarang","status":"PUBLISHED","created":"2018","lastUpdated":"2018","lastActive":"no","area":22.337854701407565,"changesets":481,"mappers":31,"roads":46.6776194885713,"buildings":47970,"edits":49143,"latest":"2018-07-23T03:01:55.000Z"},"geometry":{"type":"Point","coordinates":[110.473977056036,-7.00223449583275]}},{"type":"Feature","properties":{"id":135,"title":"Mapping Selayar Island Indonesia for Preparedness","status":"PUBLISHED","created":"2013","lastUpdated":"2018","lastActive":"no","area":718.4990620335725,"changesets":4,"mappers":2,"roads":0,"buildings":253,"edits":253,"latest":"2017-07-11T09:28:41.000Z"},"geometry":{"type":"Point","coordinates":[120.49588939269,-6.09859405108333]}},{"type":"Feature","properties":{"id":231,"title":"Help with Contingency Planning in Eastern Java","status":"PUBLISHED","created":"2013","lastUpdated":"2014","lastActive":"no","area":301.06733622926146,"changesets":110,"mappers":10,"roads":53.1352950638241,"buildings":36669,"edits":37246,"latest":"2018-11-27T17:12:26.000Z"},"geometry":{"type":"Point","coordinates":[112.012253917137,-7.16443300449215]}},{"type":"Feature","properties":{"id":4050,"title":"Missing Maps: Mijen Sub Districts #PDC Semarang","status":"ARCHIVED","created":"2018","lastUpdated":"2018","lastActive":"no","area":58.38424258359907,"changesets":641,"mappers":16,"roads":248.15917317191,"buildings":44462,"edits":48895,"latest":"2018-07-17T03:41:21.000Z"},"geometry":{"type":"Point","coordinates":[110.316039793238,-7.05292695812427]}},{"type":"Feature","properties":{"id":4048,"title":"Missing Maps: Genuk Sub Districts #PDC Semarang","status":"PUBLISHED","created":"2018","lastUpdated":"2018","lastActive":"no","area":26.89138122809543,"changesets":337,"mappers":17,"roads":211.651213602355,"buildings":30048,"edits":32607,"latest":"2018-07-23T04:32:20.000Z"},"geometry":{"type":"Point","coordinates":[110.476936026215,-6.96338054019794]}},{"type":"Feature","properties":{"id":203,"title":"North Jakarta Red Cross / Tulane Mapping","status":"ARCHIVED","created":"2013","lastUpdated":"2014","lastActive":"no","area":14.38620966520452,"changesets":63,"mappers":17,"roads":12.7283050193669,"buildings":441,"edits":723,"latest":"2018-07-24T03:54:44.000Z"},"geometry":{"type":"Point","coordinates":[106.822365678629,-6.12330978046749]}},{"type":"Feature","properties":{"id":3017,"title":"Missing Maps: Pasar Rebo Sub Districs #PDC Jakarta","status":"ARCHIVED","created":"2017","lastUpdated":"2017","lastActive":"no","area":12.342260215364801,"changesets":351,"mappers":5,"roads":10.8466904443053,"buildings":37866,"edits":39283,"latest":"2017-10-06T07:49:46.000Z"},"geometry":{"type":"Point","coordinates":[106.857470769184,-6.3271561630854]}},{"type":"Feature","properties":{"id":3021,"title":"Missing Maps: Kali Deres Sub Districs #PDC Jakarta","status":"ARCHIVED","created":"2017","lastUpdated":"2017","lastActive":"no","area":29.932357603667022,"changesets":1472,"mappers":7,"roads":51.32161785343,"buildings":63634,"edits":68367,"latest":"2017-11-09T10:14:00.000Z"},"geometry":{"type":"Point","coordinates":[106.703602395224,-6.13440116229757]}},{"type":"Feature","properties":{"id":3027,"title":"Missing Maps: Kebayoran Baru Sub Districs #PDC Jakarta","status":"ARCHIVED","created":"2017","lastUpdated":"2017","lastActive":"no","area":12.766082803531393,"changesets":306,"mappers":16,"roads":4.65841257609875,"buildings":25429,"edits":27872,"latest":"2017-11-08T08:22:59.000Z"},"geometry":{"type":"Point","coordinates":[106.801459859383,-6.2447259415702]}},{"type":"Feature","properties":{"id":561,"title":"Bukittinggi","status":"PUBLISHED","created":"2014","lastUpdated":"2018","lastActive":"no","area":22.79253327213511,"changesets":0,"mappers":0,"roads":0,"buildings":0,"edits":0,"latest":null},"geometry":{"type":"Point","coordinates":[100.372733667836,-0.298313971675028]}},{"type":"Feature","properties":{"id":412,"title":"Mount Sinabung #MissingMaps (OLD)","status":"ARCHIVED","created":"2014","lastUpdated":"2015","lastActive":"no","area":331.36753836001753,"changesets":5,"mappers":1,"roads":0.863819923847827,"buildings":79,"edits":85,"latest":"2018-02-02T00:32:09.000Z"},"geometry":{"type":"Point","coordinates":[98.386752025584,3.148426374796]}},{"type":"Feature","properties":{"id":2061,"title":"Missing Maps: Benowo Sub Districts #PDC Surabaya","status":"ARCHIVED","created":"2016","lastUpdated":"2017","lastActive":"no","area":23.449075266218717,"changesets":270,"mappers":5,"roads":183.471536478751,"buildings":22830,"edits":26345,"latest":"2017-02-10T02:55:18.000Z"},"geometry":{"type":"Point","coordinates":[112.646348632844,-7.22649690413484]}},{"type":"Feature","properties":{"id":2087,"title":"Missing Maps: Suko Mangunggal Sub Districs #PDC Surabaya","status":"ARCHIVED","created":"2016","lastUpdated":"2017","lastActive":"no","area":9.242927350922935,"changesets":273,"mappers":7,"roads":10.4724554996487,"buildings":19738,"edits":20413,"latest":"2017-01-24T02:36:08.000Z"},"geometry":{"type":"Point","coordinates":[112.699737872625,-7.26880714234452]}},{"type":"Feature","properties":{"id":2083,"title":"Missing Maps: Wiyung Sub Districts #PDC Surabaya","status":"ARCHIVED","created":"2016","lastUpdated":"2017","lastActive":"no","area":11.201966005752986,"changesets":1205,"mappers":12,"roads":74.3808535049186,"buildings":21239,"edits":24700,"latest":"2017-03-09T09:38:43.000Z"},"geometry":{"type":"Point","coordinates":[112.688321164013,-7.31262061856803]}},{"type":"Feature","properties":{"id":3037,"title":"Missing Maps: Cilincing Sub Districs #PDC Jakarta","status":"ARCHIVED","created":"2017","lastUpdated":"2017","lastActive":"no","area":41.17584204145506,"changesets":370,"mappers":7,"roads":44.6930557805136,"buildings":61048,"edits":65886,"latest":"2017-10-05T06:00:38.000Z"},"geometry":{"type":"Point","coordinates":[106.943262692355,-6.12798931279952]}},{"type":"Feature","properties":{"id":257,"title":"Latihan Digitasi Kabupaten Bantaeng","status":"PUBLISHED","created":"2013","lastUpdated":"2017","lastActive":"no","area":344.63955532746286,"changesets":154,"mappers":3,"roads":4.3118408176977,"buildings":238,"edits":326,"latest":"2018-04-12T07:17:37.000Z"},"geometry":{"type":"Point","coordinates":[119.870101937629,-5.53434628011739]}},{"type":"Feature","properties":{"id":2690,"title":"Missing Maps: Johar Baru Sub Districs #PDCJakarta","status":"ARCHIVED","created":"2017","lastUpdated":"2017","lastActive":"no","area":2.4040925614066637,"changesets":287,"mappers":7,"roads":10.3530194607153,"buildings":16558,"edits":19052,"latest":"2017-06-02T07:47:00.000Z"},"geometry":{"type":"Point","coordinates":[106.854584144217,-6.18210953519141]}},{"type":"Feature","properties":{"id":2748,"title":"Missing Maps: Senen Sub Districs #PDC Jakarta","status":"ARCHIVED","created":"2017","lastUpdated":"2017","lastActive":"no","area":4.380864638256325,"changesets":147,"mappers":4,"roads":20.1052342060612,"buildings":9397,"edits":11318,"latest":"2017-07-19T06:02:29.000Z"},"geometry":{"type":"Point","coordinates":[106.845942265554,-6.18433938607949]}},{"type":"Feature","properties":{"id":2486,"title":"Missing Maps: Penjaringan Sub Districs #PDC Jakarta","status":"PUBLISHED","created":"2017","lastUpdated":"2018","lastActive":"no","area":35.136973393611804,"changesets":227,"mappers":49,"roads":5.28883843514275,"buildings":2163,"edits":2763,"latest":"2018-09-28T15:36:09.000Z"},"geometry":{"type":"Point","coordinates":[106.766724470152,-6.11861207164781]}},{"type":"Feature","properties":{"id":876,"title":"Data Preparedness Activity in Kabupaten Trenggalek, East Java, Indonesia","status":"PUBLISHED","created":"2015","lastUpdated":"2015","lastActive":"no","area":1255.0878808500752,"changesets":7,"mappers":2,"roads":2.21069754399156,"buildings":33,"edits":43,"latest":"2017-10-19T08:57:19.000Z"},"geometry":{"type":"Point","coordinates":[111.626325207439,-8.1619464284179]}},{"type":"Feature","properties":{"id":300,"title":"The entire extent of July 2 earthquake zone (Above MMI5)","status":"PUBLISHED","created":"2013","lastUpdated":"2017","lastActive":"no","area":2961.7402540220824,"changesets":671,"mappers":25,"roads":731.527821867884,"buildings":346,"edits":4681,"latest":"2018-02-19T03:30:22.000Z"},"geometry":{"type":"Point","coordinates":[96.6923185835241,4.69253019250577]}},{"type":"Feature","properties":{"id":298,"title":"Aceh Project Area 3","status":"PUBLISHED","created":"2013","lastUpdated":"2014","lastActive":"no","area":6.038222593149481,"changesets":977,"mappers":25,"roads":181.102296015243,"buildings":129594,"edits":132711,"latest":"2018-06-17T05:12:39.000Z"},"geometry":{"type":"Point","coordinates":[96.7384395707381,4.68012683576516]}},{"type":"Feature","properties":{"id":3033,"title":"Missing Maps: Penjaringan Sub Districs #PDC Jakarta","status":"ARCHIVED","created":"2017","lastUpdated":"2017","lastActive":"no","area":34.25824196319767,"changesets":252,"mappers":11,"roads":30.055312740412,"buildings":38727,"edits":41424,"latest":"2017-10-06T08:43:50.000Z"},"geometry":{"type":"Point","coordinates":[106.765900217218,-6.11862209534467]}},{"type":"Feature","properties":{"id":271,"title":"Latihan Digitasi Gowa","status":"PUBLISHED","created":"2013","lastUpdated":"2014","lastActive":"no","area":281.11005048623855,"changesets":620,"mappers":22,"roads":671.739072762563,"buildings":7422,"edits":23411,"latest":"2018-01-04T09:08:25.000Z"},"geometry":{"type":"Point","coordinates":[119.4190063546,-5.30347272684608]}},{"type":"Feature","properties":{"id":3019,"title":"Missing Maps: Kebon Jeruk Sub Districs #PDC Jakarta","status":"ARCHIVED","created":"2017","lastUpdated":"2017","lastActive":"no","area":17.71909348698738,"changesets":224,"mappers":4,"roads":9.78093330678165,"buildings":101072,"edits":104973,"latest":"2017-09-18T03:31:36.000Z"},"geometry":{"type":"Point","coordinates":[106.769120917933,-6.18966735903269]}},{"type":"Feature","properties":{"id":3035,"title":"Missing Maps: Koja Sub Districs #PDC Jakarta","status":"ARCHIVED","created":"2017","lastUpdated":"2017","lastActive":"no","area":9.89511853564706,"changesets":450,"mappers":10,"roads":18.8340571467575,"buildings":50848,"edits":53904,"latest":"2017-10-06T01:23:57.000Z"},"geometry":{"type":"Point","coordinates":[106.905929549656,-6.12538848485847]}},{"type":"Feature","properties":{"id":255,"title":"Latihan Digitasi","status":"ARCHIVED","created":"2013","lastUpdated":"2014","lastActive":"no","area":38.4512878111956,"changesets":62,"mappers":4,"roads":2.08669141848835,"buildings":739,"edits":832,"latest":"2018-04-20T04:29:20.000Z"},"geometry":{"type":"Point","coordinates":[119.443631705497,-5.41080889903856]}},{"type":"Feature","properties":{"id":2753,"title":"Missing Maps: Palmerah Sub Districs #PDC Jakarta","status":"ARCHIVED","created":"2017","lastUpdated":"2017","lastActive":"no","area":7.419272470955236,"changesets":800,"mappers":6,"roads":165.927571905199,"buildings":31494,"edits":41934,"latest":"2017-08-11T08:17:08.000Z"},"geometry":{"type":"Point","coordinates":[106.795578582719,-6.19175678087728]}},{"type":"Feature","properties":{"id":750,"title":"Mount Sinabung USAID/OFDA & VDAP (New 2016 Imagery)","status":"PUBLISHED","created":"2014","lastUpdated":"2018","lastActive":"no","area":170.26266065591648,"changesets":0,"mappers":0,"roads":0,"buildings":0,"edits":0,"latest":null},"geometry":{"type":"Point","coordinates":[98.5020310030641,3.13610999922194]}},{"type":"Feature","properties":{"id":2745,"title":"Missing Maps: Makasar Sub Districs #PDC Jakarta","status":"ARCHIVED","created":"2017","lastUpdated":"2017","lastActive":"no","area":21.702895230187877,"changesets":192,"mappers":5,"roads":8.0530548112001,"buildings":48332,"edits":49771,"latest":"2017-10-03T12:26:17.000Z"},"geometry":{"type":"Point","coordinates":[106.891129959349,-6.2661058012357]}},{"type":"Feature","properties":{"id":2686,"title":"Missing Maps: Kramat Jati Sub Districs #PDCJakarta","status":"ARCHIVED","created":"2017","lastUpdated":"2018","lastActive":"no","area":13.129244982799834,"changesets":567,"mappers":19,"roads":285.753576206208,"buildings":102534,"edits":113731,"latest":"2017-08-18T10:11:25.000Z"},"geometry":{"type":"Point","coordinates":[106.865408049316,-6.27652035093109]}},{"type":"Feature","properties":{"id":2682,"title":"Missing Maps: Mampang Prapatan Sub Districs #PDC Jakarta","status":"ARCHIVED","created":"2017","lastUpdated":"2017","lastActive":"no","area":7.937678176628443,"changesets":322,"mappers":8,"roads":27.7159762684502,"buildings":34460,"edits":37381,"latest":"2017-09-25T07:37:28.000Z"},"geometry":{"type":"Point","coordinates":[106.821002574256,-6.25223001999702]}},{"type":"Feature","properties":{"id":2747,"title":"Missing Maps: Tanah Abang Sub Districs #PDC Jakarta","status":"ARCHIVED","created":"2017","lastUpdated":"2017","lastActive":"no","area":10.235889165722531,"changesets":244,"mappers":4,"roads":61.1379398045008,"buildings":19580,"edits":23123,"latest":"2017-07-27T12:33:30.000Z"},"geometry":{"type":"Point","coordinates":[106.809283035778,-6.20555493555219]}},{"type":"Feature","properties":{"id":2684,"title":"Missing Maps: Tebet Sub Districs #PDC Jakarta","status":"ARCHIVED","created":"2017","lastUpdated":"2017","lastActive":"no","area":9.408890607713326,"changesets":497,"mappers":20,"roads":19.6793730101626,"buildings":31333,"edits":34092,"latest":"2017-07-19T03:42:49.000Z"},"geometry":{"type":"Point","coordinates":[106.8508708311,-6.22882722261039]}},{"type":"Feature","properties":{"id":295,"title":"Aceh Project Area 1","status":"PUBLISHED","created":"2013","lastUpdated":"2014","lastActive":"no","area":9.138886115765386,"changesets":762,"mappers":23,"roads":871.082861117098,"buildings":451,"edits":9857,"latest":"2018-02-14T03:27:17.000Z"},"geometry":{"type":"Point","coordinates":[96.7522140579729,4.72098543699988]}},{"type":"Feature","properties":{"id":2751,"title":"Missing Maps: Gambir Sub Districs #PDC Jakarta","status":"ARCHIVED","created":"2017","lastUpdated":"2017","lastActive":"no","area":7.532639425068289,"changesets":233,"mappers":6,"roads":17.4080305784869,"buildings":17606,"edits":19317,"latest":"2017-07-19T06:19:32.000Z"},"geometry":{"type":"Point","coordinates":[106.818041882526,-6.17148897715882]}},{"type":"Feature","properties":{"id":2688,"title":"Missing Maps: Matraman Sub Districs #PDCJakarta","status":"ARCHIVED","created":"2017","lastUpdated":"2017","lastActive":"no","area":4.852162587562553,"changesets":558,"mappers":6,"roads":38.9919910337758,"buildings":33387,"edits":36523,"latest":"2017-08-12T01:41:26.000Z"},"geometry":{"type":"Point","coordinates":[106.86450901734,-6.20369990102316]}},{"type":"Feature","properties":{"id":466,"title":"Yogyakarta Mapathon","status":"PUBLISHED","created":"2014","lastUpdated":"2017","lastActive":"no","area":142.75935044863726,"changesets":0,"mappers":0,"roads":0,"buildings":0,"edits":0,"latest":null},"geometry":{"type":"Point","coordinates":[110.375303592361,-7.79467828464764]}},{"type":"Feature","properties":{"id":1150,"title":"Exposure Mapping Raung Volcano, East Java","status":"PUBLISHED","created":"2015","lastUpdated":"2018","lastActive":"no","area":2699.759445094531,"changesets":1898,"mappers":203,"roads":584.272666864601,"buildings":36866,"edits":42038,"latest":"2018-08-15T06:47:19.000Z"},"geometry":{"type":"Point","coordinates":[113.99786323889,-8.12593667906343]}},{"type":"Feature","properties":{"id":1148,"title":"Raung Volcano - Indonesia","status":"ARCHIVED","created":"2015","lastUpdated":"2015","lastActive":"no","area":3396.384172396099,"changesets":5,"mappers":3,"roads":2.00355167127096,"buildings":79,"edits":92,"latest":"2015-10-21T20:55:26.000Z"},"geometry":{"type":"Point","coordinates":[114.031116876177,-8.135163738756]}},{"type":"Feature","properties":{"id":258,"title":"Latihan Kabupaten Buton Utara","status":"PUBLISHED","created":"2013","lastUpdated":"2016","lastActive":"no","area":14.951899744441585,"changesets":111,"mappers":5,"roads":37.7315592011703,"buildings":463,"edits":990,"latest":"2017-12-26T08:29:37.000Z"},"geometry":{"type":"Point","coordinates":[122.983578486052,-4.77535322464851]}},{"type":"Feature","properties":{"id":781,"title":"INSIST II ( Integrated Services for Infrastructure and Sanitation Technology ) II - Kelurahan Penjaringan","status":"PUBLISHED","created":"2014","lastUpdated":"2018","lastActive":"no","area":23.838971811308195,"changesets":0,"mappers":0,"roads":0,"buildings":0,"edits":0,"latest":null},"geometry":{"type":"Point","coordinates":[106.795606613159,-6.1179389778385]}},{"type":"Feature","properties":{"id":454,"title":"Help digitize buildings & roads for better emergency response in Mt. Slamet ","status":"PUBLISHED","created":"2014","lastUpdated":"2018","lastActive":"no","area":6.940715703178464,"changesets":0,"mappers":0,"roads":0,"buildings":0,"edits":0,"latest":null},"geometry":{"type":"Point","coordinates":[109.216043387363,-7.24129473882666]}},{"type":"Feature","properties":{"id":301,"title":"Scan for buildings not digitized - Aceh","status":"PUBLISHED","created":"2013","lastUpdated":"2016","lastActive":"no","area":3375.758806919696,"changesets":616,"mappers":24,"roads":734.733287406144,"buildings":185,"edits":2754,"latest":"2018-02-19T07:39:11.000Z"},"geometry":{"type":"Point","coordinates":[96.691855341424,4.70898412406649]}},{"type":"Feature","properties":{"id":272,"title":"Earthquake Response Kecamatan Ketol in Aceh","status":"PUBLISHED","created":"2013","lastUpdated":"2016","lastActive":"no","area":495.55191652131555,"changesets":330,"mappers":22,"roads":396.594666224029,"buildings":2617,"edits":8302,"latest":"2018-01-05T03:07:12.000Z"},"geometry":{"type":"Point","coordinates":[96.6268648170635,4.77994661657688]}},{"type":"Feature","properties":{"id":299,"title":"Aceh Project Area 4","status":"PUBLISHED","created":"2013","lastUpdated":"2016","lastActive":"no","area":26.996912641232914,"changesets":700,"mappers":24,"roads":1303.89723035274,"buildings":282,"edits":3911,"latest":"2018-03-29T04:52:00.000Z"},"geometry":{"type":"Point","coordinates":[96.8302712895369,4.61207369086666]}},{"type":"Feature","properties":{"id":305,"title":"Mapping Bengkulu","status":"PUBLISHED","created":"2013","lastUpdated":"2016","lastActive":"no","area":10.304714027034251,"changesets":552,"mappers":22,"roads":1040.63331994019,"buildings":72,"edits":3301,"latest":"2018-02-27T07:36:09.000Z"},"geometry":{"type":"Point","coordinates":[102.264250091134,-3.79338148642302]}},{"type":"Feature","properties":{"id":557,"title":"Training BPBD Lembata","status":"PUBLISHED","created":"2014","lastUpdated":"2014","lastActive":"no","area":24.269262834900626,"changesets":0,"mappers":0,"roads":0,"buildings":0,"edits":0,"latest":null},"geometry":{"type":"Point","coordinates":[123.433717781495,-8.3741741873601]}},{"type":"Feature","properties":{"id":536,"title":"Help Digitize Tebet and Jatinegara for Jakarta Disaster Hackathon Competition","status":"ARCHIVED","created":"2014","lastUpdated":"2014","lastActive":"no","area":30.978061269977502,"changesets":0,"mappers":0,"roads":0,"buildings":0,"edits":0,"latest":null},"geometry":{"type":"Point","coordinates":[106.857779497146,-6.22919511409277]}},{"type":"Feature","properties":{"id":875,"title":"---","status":"ARCHIVED","created":"2015","lastUpdated":"2015","lastActive":"no","area":1673.155615732146,"changesets":0,"mappers":0,"roads":0,"buildings":0,"edits":0,"latest":null},"geometry":{"type":"Point","coordinates":[114.052436529188,-7.80132615385991]}},{"type":"Feature","properties":{"id":160,"title":"Let's fix Makassar!","status":"PUBLISHED","created":"2013","lastUpdated":"2014","lastActive":"no","area":78.44017500255143,"changesets":377,"mappers":16,"roads":38.9660989391555,"buildings":117818,"edits":118922,"latest":"2018-08-30T03:16:45.000Z"},"geometry":{"type":"Point","coordinates":[119.430569416447,-5.15122741125968]}},{"type":"Feature","properties":{"id":877,"title":"Data Preparedness Activity in Kabupaten Malang, East Java, Indonesia","status":"PUBLISHED","created":"2015","lastUpdated":"2017","lastActive":"no","area":3608.974911525084,"changesets":323,"mappers":29,"roads":96.0386433508552,"buildings":4919,"edits":6130,"latest":"2017-03-08T12:35:23.000Z"},"geometry":{"type":"Point","coordinates":[112.638874058965,-8.12350380352826]}},{"type":"Feature","properties":{"id":769,"title":"Badan Geologi - Buildings and Roads Mapping Around Bromo","status":"PUBLISHED","created":"2014","lastUpdated":"2018","lastActive":"no","area":620.501398306766,"changesets":0,"mappers":0,"roads":0,"buildings":0,"edits":0,"latest":null},"geometry":{"type":"Point","coordinates":[112.970588975425,-7.91641987596082]}},{"type":"Feature","properties":{"id":707,"title":"Pesisir Selatan - Landuse and infrastructure digitation ","status":"PUBLISHED","created":"2014","lastUpdated":"2018","lastActive":"no","area":1043.4121305079773,"changesets":0,"mappers":0,"roads":0,"buildings":0,"edits":0,"latest":null},"geometry":{"type":"Point","coordinates":[100.190246973454,-0.586409129302323]}},{"type":"Feature","properties":{"id":1031,"title":"Aktivitas Pengumpulan Data di Kabupaten Timor Tengah Utara (TTU)","status":"PUBLISHED","created":"2015","lastUpdated":"2015","lastActive":"no","area":2631.88847539912,"changesets":9,"mappers":2,"roads":1.51273446172416,"buildings":70,"edits":150,"latest":"2015-05-11T10:23:20.000Z"},"geometry":{"type":"Point","coordinates":[124.569651212504,-9.37751060730675]}},{"type":"Feature","properties":{"id":1178,"title":"Untitled project","status":"ARCHIVED","created":"2015","lastUpdated":"2015","lastActive":"no","area":27.794434799584433,"changesets":0,"mappers":0,"roads":0,"buildings":0,"edits":0,"latest":null},"geometry":{"type":"Point","coordinates":[106.037094157771,-6.2093470100396]}},{"type":"Feature","properties":{"id":1378,"title":"Sentinel Asia Mini-Project: Tarogong, Garut, Indonesia","status":"PUBLISHED","created":"2015","lastUpdated":"2018","lastActive":"no","area":0.6008014497431968,"changesets":43,"mappers":11,"roads":26.8721401721233,"buildings":617,"edits":814,"latest":"2018-10-03T17:05:19.000Z"},"geometry":{"type":"Point","coordinates":[107.877149647755,-7.19397702510357]}},{"type":"Feature","properties":{"id":1012,"title":"Aktivitas Pengumpulan Data di sekitar Danau Tempe dan Ancaman Gempa Bumi ","status":"PUBLISHED","created":"2015","lastUpdated":"2015","lastActive":"no","area":8700.19532526336,"changesets":83,"mappers":5,"roads":149.429711120035,"buildings":6158,"edits":7632,"latest":"2015-07-15T09:20:41.000Z"},"geometry":{"type":"Point","coordinates":[119.961295180703,-4.18428036387788]}},{"type":"Feature","properties":{"id":896,"title":"Data Preparedness Activity in Kabupaten Situbondo, East Java, Indonesia","status":"PUBLISHED","created":"2015","lastUpdated":"2018","lastActive":"no","area":1673.1534225044552,"changesets":44,"mappers":8,"roads":27.4505932486567,"buildings":4059,"edits":4229,"latest":"2018-08-07T23:11:48.000Z"},"geometry":{"type":"Point","coordinates":[114.052435183027,-7.80132659749921]}},{"type":"Feature","properties":{"id":4833,"title":"Missing Maps: Central Java, Kota Semarang, Indonesia","status":"ARCHIVED","created":"2018","lastUpdated":"2018","lastActive":"no","area":380.08218266563614,"changesets":134,"mappers":62,"roads":3.79709820771355,"buildings":818,"edits":869,"latest":"2018-11-06T17:55:47.000Z"},"geometry":{"type":"Point","coordinates":[110.384724939437,-7.02293729968189]}},{"type":"Feature","properties":{"id":657,"title":"Slamet Volcano (Level 3 Alert) - Data Preparedness for Slamet Volcano","status":"PUBLISHED","created":"2014","lastUpdated":"2018","lastActive":"no","area":207.68726125337642,"changesets":0,"mappers":0,"roads":0,"buildings":0,"edits":0,"latest":null},"geometry":{"type":"Point","coordinates":[109.273530909095,-7.26953070103654]}},{"type":"Feature","properties":{"id":646,"title":"SA Mini-Project","status":"PUBLISHED","created":"2014","lastUpdated":"2018","lastActive":"no","area":7.43912469192682,"changesets":0,"mappers":0,"roads":0,"buildings":0,"edits":0,"latest":null},"geometry":{"type":"Point","coordinates":[124.853497574604,1.48725962062865]}},{"type":"Feature","properties":{"id":577,"title":"Indonesian Red Cross Flood Risk Mapping (Bidara Cina)","status":"PUBLISHED","created":"2014","lastUpdated":"2014","lastActive":"no","area":3.31536323642304,"changesets":0,"mappers":0,"roads":0,"buildings":0,"edits":0,"latest":null},"geometry":{"type":"Point","coordinates":[106.870534807231,-6.23547240761778]}},{"type":"Feature","properties":{"id":555,"title":"Training UNHAS Makassar","status":"PUBLISHED","created":"2014","lastUpdated":"2018","lastActive":"no","area":18.272629889754338,"changesets":0,"mappers":0,"roads":0,"buildings":0,"edits":0,"latest":null},"geometry":{"type":"Point","coordinates":[119.498923122722,-5.13248292682091]}},{"type":"Feature","properties":{"id":563,"title":"Training Institut Teknologi Medan","status":"PUBLISHED","created":"2014","lastUpdated":"2017","lastActive":"no","area":112.12145232801778,"changesets":0,"mappers":0,"roads":0,"buildings":0,"edits":0,"latest":null},"geometry":{"type":"Point","coordinates":[98.6762461832554,3.57004939198182]}}],"Tanzania":[{"type":"Feature","properties":{"id":4208,"title":"Mbeya minigrids","status":"PUBLISHED","created":"2018","lastUpdated":"2018","lastActive":"no","area":381.3150730146897,"changesets":8229,"mappers":81,"roads":545.472150450804,"buildings":454625,"edits":458780,"latest":"2018-03-29T12:55:24.000Z"},"geometry":{"type":"Point","coordinates":[33.2834313083823,-8.86666978309615]}},{"type":"Feature","properties":{"id":4336,"title":"Tanzania Development Trust: Mingoyo Community Mapping Project","status":"ARCHIVED","created":"2018","lastUpdated":"2018","lastActive":"no","area":6.093244915676354,"changesets":452,"mappers":71,"roads":108.978266720093,"buildings":3373,"edits":5105,"latest":"2018-03-25T17:50:56.000Z"},"geometry":{"type":"Point","coordinates":[39.6150235515117,-10.1073176624119]}},{"type":"Feature","properties":{"id":4440,"title":"Tanzania Development Trust: Kihurio Community Mapping Project","status":"ARCHIVED","created":"2018","lastUpdated":"2018","lastActive":"no","area":25.149218397883203,"changesets":424,"mappers":67,"roads":255.735874916018,"buildings":3520,"edits":4623,"latest":"2018-04-21T23:10:25.000Z"},"geometry":{"type":"Point","coordinates":[38.0710346364441,-4.47694510234758]}},{"type":"Feature","properties":{"id":4292,"title":"Tanzania Development Trust: Nyaishozi Karagwe Community Mapping Project","status":"ARCHIVED","created":"2018","lastUpdated":"2018","lastActive":"no","area":34.276689435879305,"changesets":399,"mappers":36,"roads":474.8159693901,"buildings":2973,"edits":4948,"latest":"2018-03-18T21:40:04.000Z"},"geometry":{"type":"Point","coordinates":[31.1192616184384,-1.74718623175017]}},{"type":"Feature","properties":{"id":4978,"title":"Tanzania Development Trust: Magata Karutonga  Community Mapping Project","status":"ARCHIVED","created":"2018","lastUpdated":"2018","lastActive":"no","area":34.0634342157299,"changesets":760,"mappers":56,"roads":433.264175834421,"buildings":3163,"edits":6211,"latest":"2018-08-19T16:59:22.000Z"},"geometry":{"type":"Point","coordinates":[31.6336096442559,-1.87369450984158]}},{"type":"Feature","properties":{"id":3459,"title":"Tanzania Development Trust: Nshamba Community Mapping Project","status":"ARCHIVED","created":"2017","lastUpdated":"2017","lastActive":"no","area":46.014908284249266,"changesets":1320,"mappers":99,"roads":645.897463633865,"buildings":7191,"edits":20283,"latest":"2017-09-08T21:24:18.000Z"},"geometry":{"type":"Point","coordinates":[31.5612210026871,-1.7322936400178]}},{"type":"Feature","properties":{"id":4326,"title":"Tanzania Development Trust: Chamchuzi Karagwe Community Mapping Project","status":"ARCHIVED","created":"2018","lastUpdated":"2018","lastActive":"no","area":14.620352225319428,"changesets":96,"mappers":13,"roads":118.753544967722,"buildings":625,"edits":1031,"latest":"2018-03-18T21:53:31.000Z"},"geometry":{"type":"Point","coordinates":[30.8657918691606,-1.79784583007795]}},{"type":"Feature","properties":{"id":4324,"title":"Tanzania Development Trust: Nyakaiga Karagwe Community Mapping Project","status":"ARCHIVED","created":"2018","lastUpdated":"2018","lastActive":"no","area":12.111231176337705,"changesets":103,"mappers":12,"roads":99.5600341898669,"buildings":1190,"edits":1678,"latest":"2018-03-18T16:20:36.000Z"},"geometry":{"type":"Point","coordinates":[30.9630721040928,-1.72913994836662]}},{"type":"Feature","properties":{"id":4368,"title":"Tanzania Development Trust: Morogoro Community Mapping Project","status":"ARCHIVED","created":"2018","lastUpdated":"2018","lastActive":"no","area":6.725652855463129,"changesets":1281,"mappers":89,"roads":81.8895955188457,"buildings":19328,"edits":20942,"latest":"2018-07-08T14:32:19.000Z"},"geometry":{"type":"Point","coordinates":[37.6521283051778,-6.82130428335325]}},{"type":"Feature","properties":{"id":4334,"title":"Tanzania Development Trust: Ihemi Iringa Community Mapping Project","status":"ARCHIVED","created":"2018","lastUpdated":"2018","lastActive":"no","area":17.979652120471023,"changesets":138,"mappers":17,"roads":162.956597880068,"buildings":1531,"edits":2481,"latest":"2018-03-20T18:15:43.000Z"},"geometry":{"type":"Point","coordinates":[35.5059379677161,-8.01149565167227]}},{"type":"Feature","properties":{"id":4315,"title":"Tanzania Development Trust: Nshamba Community Mapping Project","status":"ARCHIVED","created":"2018","lastUpdated":"2018","lastActive":"no","area":20.728217465742752,"changesets":502,"mappers":54,"roads":258.414508170386,"buildings":5488,"edits":8174,"latest":"2018-03-18T15:53:19.000Z"},"geometry":{"type":"Point","coordinates":[31.5495323621043,-1.80167815244229]}},{"type":"Feature","properties":{"id":4405,"title":"Tanzania Development Trust: Rushwa Community Mapping Project","status":"ARCHIVED","created":"2018","lastUpdated":"2018","lastActive":"no","area":28.44762453258442,"changesets":298,"mappers":40,"roads":300.470888123495,"buildings":1582,"edits":3500,"latest":"2018-04-12T05:58:16.000Z"},"geometry":{"type":"Point","coordinates":[31.4939209647812,-1.78766119268283]}},{"type":"Feature","properties":{"id":4294,"title":"Tanzania Development Trust: Mubunda Muleba Community Mapping Project","status":"ARCHIVED","created":"2018","lastUpdated":"2018","lastActive":"no","area":7.587230914571072,"changesets":306,"mappers":43,"roads":177.651635751973,"buildings":1516,"edits":2786,"latest":"2018-03-16T04:45:19.000Z"},"geometry":{"type":"Point","coordinates":[31.5148740880789,-1.94608709963417]}},{"type":"Feature","properties":{"id":4282,"title":"Tanzania Development Trust: Kamishango Community Mapping Project","status":"ARCHIVED","created":"2018","lastUpdated":"2018","lastActive":"no","area":9.427409216356606,"changesets":237,"mappers":26,"roads":63.4951655647916,"buildings":946,"edits":1796,"latest":"2018-03-27T14:29:57.000Z"},"geometry":{"type":"Point","coordinates":[31.6140883568513,-1.8374625035104]}},{"type":"Feature","properties":{"id":5553,"title":"Ibihwa","status":"PUBLISHED","created":"2018","lastUpdated":"2018","lastActive":"no","area":209.9917674853979,"changesets":174,"mappers":15,"roads":0.00554910726118807,"buildings":374,"edits":380,"latest":"2018-11-23T11:23:13.000Z"},"geometry":{"type":"Point","coordinates":[35.4403328490389,-5.96240219007883]}},{"type":"Feature","properties":{"id":5557,"title":"Lamaiti","status":"PUBLISHED","created":"2018","lastUpdated":"2018","lastActive":"no","area":326.2386225078726,"changesets":0,"mappers":0,"roads":0,"buildings":0,"edits":0,"latest":null},"geometry":{"type":"Point","coordinates":[35.5037148641028,-5.76552887192817]}},{"type":"Feature","properties":{"id":5549,"title":"Chibelela","status":"PUBLISHED","created":"2018","lastUpdated":"2018","lastActive":"no","area":116.30561855464316,"changesets":0,"mappers":0,"roads":0,"buildings":0,"edits":0,"latest":null},"geometry":{"type":"Point","coordinates":[35.677159098994,-6.39138296668424]}},{"type":"Feature","properties":{"id":5551,"title":"Chipanga","status":"PUBLISHED","created":"2018","lastUpdated":"2018","lastActive":"no","area":198.24189193587776,"changesets":0,"mappers":0,"roads":0,"buildings":0,"edits":0,"latest":null},"geometry":{"type":"Point","coordinates":[35.3809548797818,-6.2699217899786]}},{"type":"Feature","properties":{"id":5540,"title":"Mundemu_pilot","status":"PUBLISHED","created":"2018","lastUpdated":"2018","lastActive":"no","area":130.61456919995516,"changesets":0,"mappers":0,"roads":0,"buildings":0,"edits":0,"latest":null},"geometry":{"type":"Point","coordinates":[35.6606462889206,-5.92424987379376]}},{"type":"Feature","properties":{"id":5559,"title":"Mpalanga","status":"PUBLISHED","created":"2018","lastUpdated":"2018","lastActive":"no","area":169.7571439071226,"changesets":1,"mappers":1,"roads":0,"buildings":7,"edits":7,"latest":"2018-11-28T20:07:01.000Z"},"geometry":{"type":"Point","coordinates":[35.4848551883275,-6.2923504082537]}},{"type":"Feature","properties":{"id":5534,"title":"Nondwa","status":"PUBLISHED","created":"2018","lastUpdated":"2018","lastActive":"no","area":1008.4644905302546,"changesets":187,"mappers":17,"roads":0.00247989935987292,"buildings":670,"edits":674,"latest":"2018-11-23T12:38:29.000Z"},"geometry":{"type":"Point","coordinates":[35.326350963294,-6.53971625781216]}},{"type":"Feature","properties":{"id":5532,"title":"Bahi_Pilot","status":"PUBLISHED","created":"2018","lastUpdated":"2018","lastActive":"no","area":332.82676510382277,"changesets":1,"mappers":1,"roads":159.338500420196,"buildings":0,"edits":2,"latest":"2018-11-22T18:13:15.000Z"},"geometry":{"type":"Point","coordinates":[35.8282202770526,-5.78331947358886]}},{"type":"Feature","properties":{"id":5467,"title":"Makuburi","status":"PUBLISHED","created":"2018","lastUpdated":"2018","lastActive":"no","area":7.6743988229254745,"changesets":63,"mappers":8,"roads":7.63816287996377e-10,"buildings":236,"edits":238,"latest":"2018-11-15T20:52:51.000Z"},"geometry":{"type":"Point","coordinates":[39.2000761299092,-6.80869248275905]}},{"type":"Feature","properties":{"id":5542,"title":"Bahi","status":"PUBLISHED","created":"2018","lastUpdated":"2018","lastActive":"no","area":245.4160164970151,"changesets":0,"mappers":0,"roads":0,"buildings":0,"edits":0,"latest":null},"geometry":{"type":"Point","coordinates":[35.2791646451881,-5.93535746858305]}},{"type":"Feature","properties":{"id":5320,"title":"Mburahati","status":"PUBLISHED","created":"2018","lastUpdated":"2018","lastActive":"no","area":1.1212118323428015,"changesets":15,"mappers":2,"roads":0.0911120604846218,"buildings":12,"edits":16,"latest":"2018-10-10T03:09:39.000Z"},"geometry":{"type":"Point","coordinates":[39.242086920805,-6.81266527325492]}},{"type":"Feature","properties":{"id":5389,"title":"Karakata_METEOR","status":"PUBLISHED","created":"2018","lastUpdated":"2018","lastActive":"no","area":0.06278618638144412,"changesets":169,"mappers":16,"roads":0.00354592966511319,"buildings":653,"edits":657,"latest":"2018-10-29T08:18:50.000Z"},"geometry":{"type":"Point","coordinates":[39.2067495928809,-6.8487382427679]}},{"type":"Feature","properties":{"id":5405,"title":"keko magurumbasi_METEOR","status":"PUBLISHED","created":"2018","lastUpdated":"2018","lastActive":"no","area":0.03630974064275755,"changesets":62,"mappers":8,"roads":0.307114787463726,"buildings":204,"edits":378,"latest":"2018-10-29T07:08:01.000Z"},"geometry":{"type":"Point","coordinates":[39.2738899567246,-6.83651914744131]}},{"type":"Feature","properties":{"id":5444,"title":"Kawe","status":"PUBLISHED","created":"2018","lastUpdated":"2018","lastActive":"no","area":14.787548318407664,"changesets":274,"mappers":20,"roads":0.443529945999423,"buildings":2289,"edits":2364,"latest":"2018-11-29T12:22:28.000Z"},"geometry":{"type":"Point","coordinates":[39.225268225533,-6.72642707641227]}},{"type":"Feature","properties":{"id":5427,"title":"Tanzania missing buildings Mwanga District","status":"PUBLISHED","created":"2018","lastUpdated":"2018","lastActive":"no","area":531.5288207222752,"changesets":3686,"mappers":372,"roads":273.748041333242,"buildings":32081,"edits":33618,"latest":"2018-11-16T05:03:24.000Z"},"geometry":{"type":"Point","coordinates":[37.6385252591535,-3.69810262753919]}},{"type":"Feature","properties":{"id":5326,"title":"Gerezani 2","status":"PUBLISHED","created":"2018","lastUpdated":"2018","lastActive":"no","area":0.1378230000413372,"changesets":53,"mappers":16,"roads":0.00932165201596649,"buildings":205,"edits":254,"latest":"2018-10-05T10:46:52.000Z"},"geometry":{"type":"Point","coordinates":[39.2777012004308,-6.82897780332198]}},{"type":"Feature","properties":{"id":5397,"title":"TPDC_METEOR","status":"PUBLISHED","created":"2018","lastUpdated":"2018","lastActive":"no","area":0.11797338733636886,"changesets":94,"mappers":18,"roads":0.266615772031029,"buildings":517,"edits":536,"latest":"2018-11-01T12:33:09.000Z"},"geometry":{"type":"Point","coordinates":[39.2441458818339,-6.76148596392833]}},{"type":"Feature","properties":{"id":5391,"title":"Kivule_METEOR","status":"PUBLISHED","created":"2018","lastUpdated":"2018","lastActive":"no","area":0.5583741907798839,"changesets":105,"mappers":10,"roads":1.83379910834755,"buildings":757,"edits":834,"latest":"2018-10-31T08:17:39.000Z"},"geometry":{"type":"Point","coordinates":[39.169724511382,-6.9352240012431]}},{"type":"Feature","properties":{"id":5223,"title":"Upanga magharibi 2","status":"PUBLISHED","created":"2018","lastUpdated":"2018","lastActive":"no","area":1.9683936895380227,"changesets":244,"mappers":21,"roads":0.182942871925768,"buildings":1988,"edits":2138,"latest":"2018-10-30T14:15:45.000Z"},"geometry":{"type":"Point","coordinates":[39.2743824403815,-6.80448984469261]}},{"type":"Feature","properties":{"id":5386,"title":"Gerezani_METEOR","status":"PUBLISHED","created":"2018","lastUpdated":"2018","lastActive":"no","area":0.31545538866072964,"changesets":208,"mappers":20,"roads":5.17559823813131,"buildings":366,"edits":844,"latest":"2018-10-25T08:50:20.000Z"},"geometry":{"type":"Point","coordinates":[39.2753213377704,-6.82192478353065]}},{"type":"Feature","properties":{"id":5192,"title":"Mabibo","status":"PUBLISHED","created":"2018","lastUpdated":"2018","lastActive":"no","area":4.059450716198464,"changesets":2230,"mappers":25,"roads":6.02412742139535,"buildings":19921,"edits":24255,"latest":"2018-10-03T07:34:20.000Z"},"geometry":{"type":"Point","coordinates":[39.2256157177568,-6.80974155735172]}},{"type":"Feature","properties":{"id":5159,"title":"Mbeya","status":"PUBLISHED","created":"2018","lastUpdated":"2018","lastActive":"no","area":8.421146412497725,"changesets":887,"mappers":139,"roads":3.09824799104304,"buildings":6638,"edits":6994,"latest":"2018-09-07T08:19:25.000Z"},"geometry":{"type":"Point","coordinates":[33.4236752858494,-8.89458266134112]}},{"type":"Feature","properties":{"id":5325,"title":"Mwananyamala","status":"PUBLISHED","created":"2018","lastUpdated":"2018","lastActive":"no","area":2.49542175237576,"changesets":336,"mappers":20,"roads":0.154280978731387,"buildings":1714,"edits":2074,"latest":"2018-10-09T13:18:30.000Z"},"geometry":{"type":"Point","coordinates":[39.2586298839167,-6.78686342634381]}},{"type":"Feature","properties":{"id":5317,"title":"Kijitonyama","status":"PUBLISHED","created":"2018","lastUpdated":"2018","lastActive":"no","area":3.944334462943499,"changesets":984,"mappers":24,"roads":1.36938792486868,"buildings":12348,"edits":13618,"latest":"2018-11-02T12:54:37.000Z"},"geometry":{"type":"Point","coordinates":[39.2362348265782,-6.77781749264387]}},{"type":"Feature","properties":{"id":5174,"title":"Mbeya_Mbalizi","status":"PUBLISHED","created":"2018","lastUpdated":"2018","lastActive":"no","area":0.31206553705644136,"changesets":208,"mappers":40,"roads":1.60956563124592,"buildings":951,"edits":970,"latest":"2018-09-07T11:27:13.000Z"},"geometry":{"type":"Point","coordinates":[33.35435503872,-8.94534240301126]}},{"type":"Feature","properties":{"id":5155,"title":"Temeke","status":"PUBLISHED","created":"2018","lastUpdated":"2018","lastActive":"no","area":2.940691262220834,"changesets":949,"mappers":23,"roads":0.984664545466694,"buildings":7916,"edits":9508,"latest":"2018-10-08T14:01:02.000Z"},"geometry":{"type":"Point","coordinates":[39.2555695686437,-6.85004422213022]}},{"type":"Feature","properties":{"id":5021,"title":"Upanga_Mashariki","status":"PUBLISHED","created":"2018","lastUpdated":"2018","lastActive":"no","area":1.4528463303068069,"changesets":556,"mappers":36,"roads":0.210929800621173,"buildings":3591,"edits":3907,"latest":"2018-08-23T07:15:45.000Z"},"geometry":{"type":"Point","coordinates":[39.2817166819394,-6.80692717291293]}},{"type":"Feature","properties":{"id":5028,"title":"Keko","status":"PUBLISHED","created":"2018","lastUpdated":"2018","lastActive":"no","area":1.4649293626540205,"changesets":1033,"mappers":36,"roads":3.96567970367937,"buildings":8564,"edits":10636,"latest":"2018-08-29T12:46:37.000Z"},"geometry":{"type":"Point","coordinates":[39.275538576061,-6.83599209301762]}},{"type":"Feature","properties":{"id":5029,"title":"Kigogo","status":"PUBLISHED","created":"2018","lastUpdated":"2018","lastActive":"no","area":1.919044857626449,"changesets":1335,"mappers":37,"roads":2.99758976000865,"buildings":13712,"edits":15491,"latest":"2018-08-31T08:16:38.000Z"},"geometry":{"type":"Point","coordinates":[39.245687327176,-6.81863004202305]}},{"type":"Feature","properties":{"id":5151,"title":"Sandali","status":"PUBLISHED","created":"2018","lastUpdated":"2018","lastActive":"no","area":2.754693570123113,"changesets":1143,"mappers":35,"roads":0.699111235055834,"buildings":7843,"edits":8260,"latest":"2018-09-18T13:58:19.000Z"},"geometry":{"type":"Point","coordinates":[39.2468576140869,-6.85541663438858]}},{"type":"Feature","properties":{"id":5338,"title":"Tabata_Msimbazi","status":"PUBLISHED","created":"2018","lastUpdated":"2018","lastActive":"no","area":2.7361327645312596,"changesets":598,"mappers":22,"roads":1.52976158880248,"buildings":5381,"edits":5750,"latest":"2018-10-29T18:04:45.000Z"},"geometry":{"type":"Point","coordinates":[39.2210232072559,-6.83783297253043]}},{"type":"Feature","properties":{"id":5547,"title":"mpamantwa_pilot","status":"PUBLISHED","created":"2018","lastUpdated":"2018","lastActive":"no","area":308.4274233341887,"changesets":0,"mappers":0,"roads":0,"buildings":0,"edits":0,"latest":null},"geometry":{"type":"Point","coordinates":[35.327037548613,-5.9855572467169]}},{"type":"Feature","properties":{"id":4852,"title":"Tanzania Development Trust: Morogoro Community Mapping Project","status":"PUBLISHED","created":"2018","lastUpdated":"2018","lastActive":"yes","area":11.997049798456361,"changesets":726,"mappers":116,"roads":113.853443412022,"buildings":14482,"edits":15915,"latest":"2018-11-30T07:10:48.000Z"},"geometry":{"type":"Point","coordinates":[37.6844733023174,-6.81089355032121]}},{"type":"Feature","properties":{"id":5202,"title":"Mbagala","status":"PUBLISHED","created":"2018","lastUpdated":"2018","lastActive":"no","area":3.357497597645662,"changesets":614,"mappers":22,"roads":0.550372073861051,"buildings":3452,"edits":3769,"latest":"2018-10-23T14:01:26.000Z"},"geometry":{"type":"Point","coordinates":[39.2642484046761,-6.89854569609534]}},{"type":"Feature","properties":{"id":5215,"title":"Ndugumbi","status":"PUBLISHED","created":"2018","lastUpdated":"2018","lastActive":"no","area":1.3231030262596133,"changesets":840,"mappers":18,"roads":9.43928187389174,"buildings":5114,"edits":6358,"latest":"2018-11-08T09:45:15.000Z"},"geometry":{"type":"Point","coordinates":[39.2482813559023,-6.80125797617356]}},{"type":"Feature","properties":{"id":5148,"title":"Magomeni","status":"PUBLISHED","created":"2018","lastUpdated":"2018","lastActive":"no","area":1.0950286991089058,"changesets":537,"mappers":24,"roads":1.68967398993952,"buildings":4473,"edits":5416,"latest":"2018-11-02T07:59:40.000Z"},"geometry":{"type":"Point","coordinates":[39.2615816536214,-6.80400422217293]}},{"type":"Feature","properties":{"id":5131,"title":"Mwanga","status":"PUBLISHED","created":"2018","lastUpdated":"2018","lastActive":"no","area":3782.6420454970325,"changesets":569,"mappers":80,"roads":7.81830506173643,"buildings":21219,"edits":21349,"latest":"2018-09-05T19:32:28.000Z"},"geometry":{"type":"Point","coordinates":[37.5770749373082,-3.7639028140101]}},{"type":"Feature","properties":{"id":4178,"title":"Mahenye-Njombe","status":"PUBLISHED","created":"2018","lastUpdated":"2018","lastActive":"no","area":419.20452177017404,"changesets":557,"mappers":14,"roads":2.81615930013736,"buildings":28307,"edits":28364,"latest":"2018-02-23T12:45:33.000Z"},"geometry":{"type":"Point","coordinates":[34.8017620296947,-9.5332813093719]}},{"type":"Feature","properties":{"id":5011,"title":"Jangwani","status":"PUBLISHED","created":"2018","lastUpdated":"2018","lastActive":"no","area":0.6459967593125133,"changesets":490,"mappers":40,"roads":0.568461679535798,"buildings":3198,"edits":3929,"latest":"2018-09-21T12:34:17.000Z"},"geometry":{"type":"Point","coordinates":[39.2733984600485,-6.81599868171233]}},{"type":"Feature","properties":{"id":5555,"title":"Ilindi","status":"PUBLISHED","created":"2018","lastUpdated":"2018","lastActive":"no","area":196.2382680447729,"changesets":130,"mappers":15,"roads":0.546433191722652,"buildings":205,"edits":207,"latest":"2018-11-26T06:10:40.000Z"},"geometry":{"type":"Point","coordinates":[35.5328145148499,-5.91621278072473]}},{"type":"Feature","properties":{"id":5474,"title":"Tanzania missing buildings Harang District, Manyara Region","status":"PUBLISHED","created":"2018","lastUpdated":"2018","lastActive":"no","area":310.80393427101467,"changesets":819,"mappers":88,"roads":32.463450597918,"buildings":3403,"edits":3643,"latest":"2018-11-22T15:11:27.000Z"},"geometry":{"type":"Point","coordinates":[35.3330397028835,-4.60695096355219]}},{"type":"Feature","properties":{"id":5395,"title":"Pwani 2_METEOR","status":"PUBLISHED","created":"2018","lastUpdated":"2018","lastActive":"no","area":0.3697493857621717,"changesets":0,"mappers":0,"roads":0,"buildings":0,"edits":0,"latest":null},"geometry":{"type":"Point","coordinates":[39.0994490443233,-6.90247043542125]}},