{"totalEdits":39617519,"totalBuildings":32509153,"totalRoads":845556.498007665,"mappersOnline":19,"totalTasksMapped":1558797,"totalMappers":129481,"totalProjects":1605,"Tanzania":[{"type":"Feature","properties":{"title":"Urambo, Tabora, Tanzania Mini Grids Project 09-10","id":4377,"area":1677.5206088742302,"year":"2018","lastUpdated":"2018-05-21T13:20:07.112179","changesets":1703,"mappers":67,"roads":0.363745706229784,"buildings":26610,"edits":26624,"latest":"2018-05-21T13:49:44.000Z"},"geometry":{"type":"Point","coordinates":[32.006976077428725,-4.486466132072692]}},{"type":"Feature","properties":{"title":"Urambo, Tabora, Tanzania Mini Grids Project 07","id":4354,"area":1417.644733786158,"year":"2018","lastUpdated":"2018-07-02T08:16:09.808700","changesets":1438,"mappers":66,"roads":0.235986987394966,"buildings":40728,"edits":40743,"latest":"2018-07-02T08:15:16.000Z"},"geometry":{"type":"Point","coordinates":[31.960650180526155,-4.799811038966155]}},{"type":"Feature","properties":{"title":"Kigoma_12","id":4098,"area":3.729917625288736,"year":"2018","lastUpdated":"2018-02-12T06:54:13.338393","changesets":479,"mappers":6,"roads":0.434900266530263,"buildings":2941,"edits":2951,"latest":"2018-02-12T06:53:36.000Z"},"geometry":{"type":"Point","coordinates":[29.9389865678107,-5.924358173879355]}},{"type":"Feature","properties":{"title":"Kigoma_6","id":4087,"area":3.103362564009721,"year":"2018","lastUpdated":"2018-02-15T12:32:16.947516","changesets":201,"mappers":8,"roads":0.0059086431357116,"buildings":3802,"edits":3802,"latest":"2018-02-13T11:37:26.000Z"},"geometry":{"type":"Point","coordinates":[29.957718322358744,-6.483041975356721]}},{"type":"Feature","properties":{"title":"Kagera_2","id":4080,"area":4.132236731942467,"year":"2018","lastUpdated":"2018-01-29T09:03:59.256755","changesets":0,"mappers":0,"roads":0,"buildings":0,"edits":0,"latest":null},"geometry":{"type":"Point","coordinates":[32.119223662470695,-1.4703780484724356]}},{"type":"Feature","properties":{"title":"kagera_2","id":4071,"area":3.850874321865156,"year":"2018","lastUpdated":"2018-01-27T16:40:53.676551","changesets":0,"mappers":0,"roads":0,"buildings":0,"edits":0,"latest":null},"geometry":{"type":"Point","coordinates":[32.119615051499174,-1.4696475246974754]}},{"type":"Feature","properties":{"title":"Tanzania Development Trust: Mbozi district community mapping project","id":3968,"area":270.15833206747897,"year":"2018","lastUpdated":"2018-07-30T15:13:29.211675","changesets":0,"mappers":0,"roads":0,"buildings":0,"edits":0,"latest":null},"geometry":{"type":"Point","coordinates":[32.76853833879746,-9.020802347567903]}},{"type":"Feature","properties":{"title":"MSD & JSI/USAID Tanzania Road Import - Shinyaga region","id":2049,"area":35039.611042625445,"year":"2016","lastUpdated":"2016-08-22T11:27:17.050654","changesets":0,"mappers":0,"roads":0,"buildings":0,"edits":0,"latest":null},"geometry":{"type":"Point","coordinates":[34.09181497141662,-3.1247602533541907]}},{"type":"Feature","properties":{"title":"MSD & JSI/USAID Tanzania Road Import - Iringa region","id":2157,"area":30284.59973311939,"year":"2016","lastUpdated":"2016-10-20T13:22:29.952382","changesets":85,"mappers":13,"roads":2909.39047680426,"buildings":712,"edits":3579,"latest":"2016-10-19T21:15:43.000Z"},"geometry":{"type":"Point","coordinates":[35.12966588259462,-8.90039717715023]}},{"type":"Feature","properties":{"title":"MSD & JSI/USAID Tanzania Road Import - Mbeya region","id":2111,"area":19769.484038509396,"year":"2016","lastUpdated":"2016-09-26T19:17:08.424814","changesets":79,"mappers":5,"roads":2211.37645137462,"buildings":3314,"edits":7568,"latest":"2016-10-05T18:18:41.000Z"},"geometry":{"type":"Point","coordinates":[33.53129587985334,-8.652609274565219]}},{"type":"Feature","properties":{"title":"Missing Maps: Dar es Salaam - Ramani Huria 7","id":2125,"area":15.59172030179052,"year":"2017","lastUpdated":"2017-12-11T17:19:29.232404","changesets":681,"mappers":54,"roads":23.3546858581492,"buildings":15759,"edits":16703,"latest":"2017-12-11T17:19:19.000Z"},"geometry":{"type":"Point","coordinates":[39.22768489444798,-6.724982791087041]}},{"type":"Feature","properties":{"title":"Kasuku Building Import Workflow Test (South))","id":4868,"area":1.6123125790816706,"year":"2018","lastUpdated":"2018-07-30T14:28:54.879502","changesets":9,"mappers":3,"roads":0,"buildings":104,"edits":104,"latest":"2018-07-30T14:28:09.000Z"},"geometry":{"type":"Point","coordinates":[29.742028550271055,-4.904178434960531]}},{"type":"Feature","properties":{"title":"Njombe Region, Tanzania Mini Grids Project 07","id":4753,"area":2035.3854283933017,"year":"2018","lastUpdated":"2018-07-02T08:04:40.510728","changesets":870,"mappers":31,"roads":0.492269625730374,"buildings":19332,"edits":19400,"latest":"2018-07-02T08:36:50.000Z"},"geometry":{"type":"Point","coordinates":[34.51311154966009,-9.51145731750423]}},{"type":"Feature","properties":{"title":"Njombe Region, Tanzania Mini Grids Project 03","id":4724,"area":2136.028082871833,"year":"2018","lastUpdated":"2018-07-20T14:07:21.388133","changesets":1147,"mappers":62,"roads":0.108975939233081,"buildings":37781,"edits":37805,"latest":"2018-07-20T14:13:03.000Z"},"geometry":{"type":"Point","coordinates":[34.076388843157154,-9.100503775177796]}},{"type":"Feature","properties":{"title":"Muheza malaria","id":4039,"area":580.7567384439337,"year":"2018","lastUpdated":"2018-06-01T20:37:30.159547","changesets":423,"mappers":18,"roads":9.04284919882175,"buildings":24405,"edits":24586,"latest":"2018-06-03T11:25:54.000Z"},"geometry":{"type":"Point","coordinates":[38.769019369140786,-5.149994286049941]}},{"type":"Feature","properties":{"title":"Tunduru, Ruvuma, Tanzania Mini Grids Project 02","id":4424,"area":1549.6766515243964,"year":"2018","lastUpdated":"2018-05-04T08:55:20.079197","changesets":855,"mappers":63,"roads":0.0711115935309787,"buildings":21117,"edits":21136,"latest":"2018-05-07T07:56:42.000Z"},"geometry":{"type":"Point","coordinates":[37.44642487877472,-11.304728564657015]}},{"type":"Feature","properties":{"title":"Tabora, Tabora, Tanzania Mini Grids Project 02","id":4584,"area":2042.6757607922066,"year":"2018","lastUpdated":"2018-06-20T13:56:00.211684","changesets":1784,"mappers":62,"roads":5.15594602627106,"buildings":37695,"edits":38500,"latest":"2018-06-20T13:55:11.000Z"},"geometry":{"type":"Point","coordinates":[33.55636968293966,-4.778208007358041]}},{"type":"Feature","properties":{"title":"Kasulu, Kasulu, Tanzania Mini Grids Project 03","id":4570,"area":1652.0254948432712,"year":"2018","lastUpdated":"2018-07-12T13:57:48.201517","changesets":774,"mappers":62,"roads":0.25450019539659,"buildings":10336,"edits":10388,"latest":"2018-07-18T11:48:21.000Z"},"geometry":{"type":"Point","coordinates":[30.549761183673645,-4.348750979042502]}},{"type":"Feature","properties":{"title":"Central Singida, Singida, Tanzania Mini Grids Project 01 East","id":4509,"area":1475.3604875927692,"year":"2018","lastUpdated":"2018-06-28T10:09:05.303438","changesets":937,"mappers":67,"roads":0.0165898988823745,"buildings":11972,"edits":11978,"latest":"2018-06-28T10:08:59.000Z"},"geometry":{"type":"Point","coordinates":[34.041140687827536,-5.126694160175507]}},{"type":"Feature","properties":{"title":"Rungwe, Mbeya, Tanzania Mini Grids Project 01","id":4392,"area":1330.3320402972577,"year":"2018","lastUpdated":"2018-05-30T05:59:04.640865","changesets":2885,"mappers":74,"roads":21.3821929149524,"buildings":119621,"edits":120470,"latest":"2018-05-30T06:51:18.000Z"},"geometry":{"type":"Point","coordinates":[33.5756407980469,-9.244759979750832]}},{"type":"Feature","properties":{"title":"Tabora, Tabora, Tanzania Mini Grids Project 01","id":4583,"area":1907.1663208860407,"year":"2018","lastUpdated":"2018-06-21T06:39:06.778869","changesets":1628,"mappers":58,"roads":1.72537869257951,"buildings":34604,"edits":34909,"latest":"2018-06-21T06:45:40.000Z"},"geometry":{"type":"Point","coordinates":[32.59170617851557,-4.606714194976095]}},{"type":"Feature","properties":{"title":"Karema Ward, Katavi, Tanzania Mini Grids Project 01","id":4402,"area":49.87575499116186,"year":"2018","lastUpdated":"2018-04-12T09:55:34.291247","changesets":83,"mappers":11,"roads":0,"buildings":1985,"edits":1985,"latest":"2018-04-12T09:55:03.000Z"},"geometry":{"type":"Point","coordinates":[30.45028626808132,-6.824839702555798]}},{"type":"Feature","properties":{"title":"Manyoni, Singida, Tanzania Mini Grids Project 01","id":4531,"area":1326.5528682624965,"year":"2018","lastUpdated":"2018-05-19T20:47:16.371655","changesets":589,"mappers":58,"roads":0.134107026616461,"buildings":7569,"edits":7586,"latest":"2018-05-18T10:04:10.000Z"},"geometry":{"type":"Point","coordinates":[34.5086017651493,-5.53508090379479]}},{"type":"Feature","properties":{"title":"Manyoni, Singida, Tanzania Mini Grids Project 03","id":4533,"area":2145.5742223790444,"year":"2018","lastUpdated":"2018-05-18T07:14:49.538516","changesets":1111,"mappers":60,"roads":11.822358790697,"buildings":20618,"edits":21074,"latest":"2018-05-18T13:10:25.000Z"},"geometry":{"type":"Point","coordinates":[35.212920812232916,-5.7381875379846266]}},{"type":"Feature","properties":{"title":"Manyoni, Singida, Tanzania Mini Grids Project 05","id":4555,"area":2172.2334385231957,"year":"2018","lastUpdated":"2018-05-24T13:47:51.718614","changesets":1476,"mappers":57,"roads":0.354646008845444,"buildings":32058,"edits":32104,"latest":"2018-05-24T13:46:32.000Z"},"geometry":{"type":"Point","coordinates":[34.89457414391987,-6.337178718154652]}},{"type":"Feature","properties":{"title":"S. Monduli, Simanjiro, Tanzania Mini Grids - MapSwipe Project 04 - 03","id":4478,"area":166.70877071205354,"year":"2018","lastUpdated":"2018-05-07T07:19:53.188978","changesets":123,"mappers":47,"roads":0,"buildings":1480,"edits":1480,"latest":"2018-05-04T09:16:49.000Z"},"geometry":{"type":"Point","coordinates":[37.56197930444573,-5.003146663344777]}},{"type":"Feature","properties":{"title":"Ivugula Village, Tanzania Mini Grids Project 01","id":4435,"area":12.603608518468686,"year":"2018","lastUpdated":"2018-04-19T11:25:13.979143","changesets":270,"mappers":44,"roads":23.4950636574225,"buildings":1686,"edits":2161,"latest":"2018-06-13T18:16:09.000Z"},"geometry":{"type":"Point","coordinates":[33.072913842202496,-8.994998857575]}},{"type":"Feature","properties":{"title":"Manyoni, Singida, Tanzania Mini Grids Project 06","id":4556,"area":3110.180831968628,"year":"2018","lastUpdated":"2018-07-11T13:35:23.793716","changesets":1901,"mappers":69,"roads":0.0988541090635963,"buildings":35125,"edits":35164,"latest":"2018-07-11T13:29:54.000Z"},"geometry":{"type":"Point","coordinates":[34.04246656080447,-6.8440179852491845]}},{"type":"Feature","properties":{"title":"Kigoma_8","id":4089,"area":3.170194931843662,"year":"2018","lastUpdated":"2018-02-14T08:58:00.280285","changesets":175,"mappers":7,"roads":0.00164720947993757,"buildings":5558,"edits":5558,"latest":"2018-02-15T13:52:57.000Z"},"geometry":{"type":"Point","coordinates":[29.77626862798747,-6.004675849692375]}},{"type":"Feature","properties":{"title":"Kasulu, Kasulu, Tanzania Mini Grids Project 02","id":4569,"area":1983.2479906601172,"year":"2018","lastUpdated":"2018-06-21T06:42:11.871140","changesets":1354,"mappers":62,"roads":1.61439788714098,"buildings":46289,"edits":46619,"latest":"2018-06-20T13:13:28.000Z"},"geometry":{"type":"Point","coordinates":[30.10818888197763,-4.140006794490141]}},{"type":"Feature","properties":{"title":"Priority Villages, Ruvuma Region, Tanzania Mini Grids Project","id":4801,"area":491.345226887175,"year":"2018","lastUpdated":"2018-07-03T15:18:55.293383","changesets":586,"mappers":30,"roads":0.0476650649909273,"buildings":26872,"edits":26882,"latest":"2018-06-28T09:53:53.000Z"},"geometry":{"type":"Point","coordinates":[35.45485146842986,-10.678797947427933]}},{"type":"Feature","properties":{"title":"Tanzania Development Trust: Morogoro Community Mapping Project","id":4852,"area":11.997049798456361,"year":"2018","lastUpdated":"2018-07-30T22:27:53.546530","changesets":518,"mappers":89,"roads":68.6846145899405,"buildings":10837,"edits":11670,"latest":"2018-07-30T22:27:27.000Z"},"geometry":{"type":"Point","coordinates":[37.68097780644893,-6.8100910041755895]}},{"type":"Feature","properties":{"title":"Tanzania Development Trust: Mwanza West Community Mapping Project","id":4358,"area":1290.9455273129195,"year":"2018","lastUpdated":"2018-07-30T23:38:50.094371","changesets":14846,"mappers":1088,"roads":7662.76389105043,"buildings":136975,"edits":189059,"latest":"2018-07-30T23:28:47.000Z"},"geometry":{"type":"Point","coordinates":[32.548552534014256,-2.6391112035937363]}},{"type":"Feature","properties":{"title":"Mbozi, Mbeya, Tanzania Mini Grids Project 03","id":4289,"area":1303.883290131881,"year":"2018","lastUpdated":"2018-06-29T13:16:07.336988","changesets":2723,"mappers":78,"roads":1712.56467120964,"buildings":64564,"edits":69636,"latest":"2018-06-29T13:53:40.000Z"},"geometry":{"type":"Point","coordinates":[32.660369621525334,-8.981003005244997]}},{"type":"Feature","properties":{"title":"Tanzania Development Trust: Simiyu South","id":4323,"area":3977.4740524717954,"year":"2018","lastUpdated":"2018-07-30T22:37:25.574107","changesets":4674,"mappers":388,"roads":2845.65603204652,"buildings":58240,"edits":68028,"latest":"2018-07-30T22:18:07.000Z"},"geometry":{"type":"Point","coordinates":[34.2659914121032,-3.1020947645146095]}},{"type":"Feature","properties":{"title":"Tanzania Development Trust: Shinyanga East community mapping project","id":4166,"area":1007.0589397559861,"year":"2018","lastUpdated":"2018-07-30T16:16:19.368674","changesets":2414,"mappers":340,"roads":1484.32879895942,"buildings":24196,"edits":30150,"latest":"2018-07-30T22:31:02.000Z"},"geometry":{"type":"Point","coordinates":[33.66405700164086,-3.5303866913753184]}},{"type":"Feature","properties":{"title":"Shinyanga_Tabora_Geita","id":4076,"area":3994.8430365253507,"year":"2018","lastUpdated":"2018-03-16T14:29:11.097041","changesets":47,"mappers":13,"roads":0.000161002645333808,"buildings":2061,"edits":2064,"latest":"2018-03-16T14:28:46.000Z"},"geometry":{"type":"Point","coordinates":[32.00242391521419,-4.080067283243879]}},{"type":"Feature","properties":{"title":"Tanzania Development Trust: Sawida District","id":4118,"area":924.6478975466252,"year":"2018","lastUpdated":"2018-07-24T15:31:23.613611","changesets":13248,"mappers":936,"roads":9592.76467567132,"buildings":149667,"edits":219069,"latest":"2018-07-24T15:30:06.000Z"},"geometry":{"type":"Point","coordinates":[33.663075852494615,-2.8525551326607483]}},{"type":"Feature","properties":{"title":"PEPFAR TANZANIA: GEITA DC","id":3903,"area":4738.968040349855,"year":"2018","lastUpdated":"2018-07-10T06:41:26.690980","changesets":5543,"mappers":268,"roads":3129.3516222182,"buildings":60084,"edits":84062,"latest":"2018-07-25T17:31:56.000Z"},"geometry":{"type":"Point","coordinates":[32.06279754752212,-2.682505789886702]}},{"type":"Feature","properties":{"title":"Tanzania Development Trust:  Mwanza East","id":3993,"area":6942.748601206665,"year":"2018","lastUpdated":"2018-07-30T14:17:04.131582","changesets":7714,"mappers":354,"roads":9182.45084306675,"buildings":151345,"edits":207907,"latest":"2018-07-30T14:16:54.000Z"},"geometry":{"type":"Point","coordinates":[33.151702880859375,-2.8604853284710874]}},{"type":"Feature","properties":{"title":"Serengeti National Park","id":834,"area":13370.038280033767,"year":"2017","lastUpdated":"2017-07-05T09:52:49.480984","changesets":0,"mappers":0,"roads":0,"buildings":0,"edits":0,"latest":null},"geometry":{"type":"Point","coordinates":[34.71995007142858,-1.969435597802197]}},{"type":"Feature","properties":{"title":"Tanzania Development Trust: Serengeti district mapping project part 2","id":2261,"area":11207.631576365555,"year":"2018","lastUpdated":"2018-05-22T06:15:57.092496","changesets":33973,"mappers":1625,"roads":29371.8713010951,"buildings":602966,"edits":917465,"latest":"2018-07-14T15:32:32.000Z"},"geometry":{"type":"Point","coordinates":[33.563361167907715,-1.6146094797775092]}},{"type":"Feature","properties":{"title":"MSD & JSI/USAID Tanzania Road Import - Mtwara & Lindi Regions + Tunduru District","id":1194,"area":59075.33727007736,"year":"2016","lastUpdated":"2016-05-20T14:26:58.661670","changesets":0,"mappers":0,"roads":0,"buildings":0,"edits":0,"latest":null},"geometry":{"type":"Point","coordinates":[38.17747568450677,-10.184904231832341]}},{"type":"Feature","properties":{"title":"MSD & JSI/USAID Tanzania Road Import - Kilimanjaro region","id":1972,"area":11317.826802773296,"year":"2016","lastUpdated":"2016-08-31T08:40:56.222091","changesets":0,"mappers":0,"roads":0,"buildings":0,"edits":0,"latest":null},"geometry":{"type":"Point","coordinates":[37.47095374471149,-3.5857099932097873]}},{"type":"Feature","properties":{"title":"Ngorongoro Conservation Area","id":1040,"area":8640.922363295951,"year":"2017","lastUpdated":"2017-04-25T12:38:43.230359","changesets":0,"mappers":0,"roads":0,"buildings":0,"edits":0,"latest":null},"geometry":{"type":"Point","coordinates":[35.421957288469606,-3.139810074677604]}},{"type":"Feature","properties":{"title":"MSD & JSI/USAID Tanzania Road Import - West Ruvuma region","id":1256,"area":10512.14514732082,"year":"2016","lastUpdated":"2016-04-04T16:27:39.061397","changesets":0,"mappers":0,"roads":0,"buildings":0,"edits":0,"latest":null},"geometry":{"type":"Point","coordinates":[35.73071423073114,-10.644452430898227]}},{"type":"Feature","properties":{"title":"Didia, Jomu, Singita in Shinyanga District, Tanzania Mini Grids Project","id":4695,"area":633.425618192545,"year":"2018","lastUpdated":"2018-06-07T13:04:55.031560","changesets":1071,"mappers":69,"roads":1.1515270702661,"buildings":35118,"edits":35234,"latest":"2018-06-14T10:23:19.000Z"},"geometry":{"type":"Point","coordinates":[33.189868583679996,-3.852090824045]}},{"type":"Feature","properties":{"title":"MSD & JSI/USAID Tanzania Road Import - Rukwa and Katavi regions","id":1462,"area":23601.174016426638,"year":"2016","lastUpdated":"2016-11-09T18:57:37.926429","changesets":0,"mappers":0,"roads":0,"buildings":0,"edits":0,"latest":null},"geometry":{"type":"Point","coordinates":[31.18854567490904,-7.033630568874043]}},{"type":"Feature","properties":{"title":"MSD & JSI/USAID Tanzania Road Import - Kigoma and Tabora regions","id":1233,"area":55716.44775664574,"year":"2017","lastUpdated":"2017-09-08T08:29:26.684641","changesets":89,"mappers":5,"roads":7164.0075520837,"buildings":137,"edits":14011,"latest":"2015-10-15T16:49:58.000Z"},"geometry":{"type":"Point","coordinates":[32.221144436424595,-4.716038295525221]}},{"type":"Feature","properties":{"title":"MSD & JSI/USAID Tanzania Road Import - Manyara region","id":1973,"area":40580.74888215921,"year":"2016","lastUpdated":"2016-07-03T20:50:06.210422","changesets":0,"mappers":0,"roads":0,"buildings":0,"edits":0,"latest":null},"geometry":{"type":"Point","coordinates":[36.2647809052761,-4.352401182141463]}},{"type":"Feature","properties":{"title":"Chamwino Village, Tanzania Mini Grids Project","id":4748,"area":13.678881091028838,"year":"2018","lastUpdated":"2018-06-13T13:18:58.993239","changesets":156,"mappers":50,"roads":0.0404579971976971,"buildings":5494,"edits":5498,"latest":"2018-06-13T13:52:23.000Z"},"geometry":{"type":"Point","coordinates":[36.039147334095,-6.10061474426]}},{"type":"Feature","properties":{"title":"Priority Villages, Shinyanga Region, Tanzania Mini Grids Project","id":4804,"area":1465.614946569395,"year":"2018","lastUpdated":"2018-06-30T09:05:38.841863","changesets":1318,"mappers":44,"roads":0.119656619425065,"buildings":61843,"edits":61882,"latest":"2018-06-30T09:36:52.000Z"},"geometry":{"type":"Point","coordinates":[32.9753779163862,-4.003000230638431]}},{"type":"Feature","properties":{"title":"Villages in Pangani District, Tanzania Mini Grids Project","id":4642,"area":3.2853624864693787,"year":"2018","lastUpdated":"2018-06-03T23:09:23.858187","changesets":85,"mappers":27,"roads":0.0728887891265449,"buildings":3068,"edits":3101,"latest":"2018-06-08T10:05:47.000Z"},"geometry":{"type":"Point","coordinates":[38.9586214536687,-5.426816270673696]}},{"type":"Feature","properties":{"title":"Songea Rural, Ruvuma, Tanzania Mini Grids Project 04","id":4705,"area":2147.5450650948856,"year":"2018","lastUpdated":"2018-06-11T12:32:37.891253","changesets":969,"mappers":50,"roads":0.278493274043511,"buildings":10699,"edits":10720,"latest":"2018-06-11T13:01:29.000Z"},"geometry":{"type":"Point","coordinates":[35.393237159829305,-10.381420075475273]}},{"type":"Feature","properties":{"title":"Misungwi, Mwanza, Tanzania Mini Grids Project 01","id":4620,"area":1505.6277470567059,"year":"2018","lastUpdated":"2018-06-29T06:38:32.988800","changesets":2108,"mappers":68,"roads":13.4694336037439,"buildings":52916,"edits":53379,"latest":"2018-07-27T10:35:50.000Z"},"geometry":{"type":"Point","coordinates":[32.97328190476263,-3.0581235714285717]}},{"type":"Feature","properties":{"title":"Missing Maps: Dar es Salaam, Ramani Huria 2.0 - Industrial Training 2018","id":4925,"area":19.884124388620787,"year":"2018","lastUpdated":"2018-07-30T11:42:21.813972","changesets":13,"mappers":5,"roads":0.0365428057659696,"buildings":113,"edits":122,"latest":"2018-07-30T11:42:12.000Z"},"geometry":{"type":"Point","coordinates":[39.03764522891964,-6.7677221320977]}},{"type":"Feature","properties":{"title":"Mivumoni Village, Pangani District, Tanzania Mini Grids Project","id":4699,"area":0.818188879689272,"year":"2018","lastUpdated":"2018-06-07T14:22:25.703646","changesets":78,"mappers":17,"roads":0.0276900086096642,"buildings":366,"edits":370,"latest":"2018-06-07T14:01:00.000Z"},"geometry":{"type":"Point","coordinates":[38.903763126037596,-5.307186790941633]}},{"type":"Feature","properties":{"title":"Songea Rural, Ruvuma, Tanzania Mini Grids Project 07","id":4721,"area":2150.916415219976,"year":"2018","lastUpdated":"2018-06-14T07:42:10.260484","changesets":527,"mappers":55,"roads":0.110758162123934,"buildings":9680,"edits":9693,"latest":"2018-06-13T11:23:25.000Z"},"geometry":{"type":"Point","coordinates":[35.565031022546556,-11.40219846168882]}},{"type":"Feature","properties":{"title":"Lindi, Lindi, Tanzania Mini Grids Project 03","id":4489,"area":1972.6554027241687,"year":"2018","lastUpdated":"2018-07-04T09:39:41.831448","changesets":1117,"mappers":68,"roads":0.712816430807669,"buildings":37574,"edits":37626,"latest":"2018-07-04T09:33:22.000Z"},"geometry":{"type":"Point","coordinates":[39.183662563828705,-10.12342916029111]}},{"type":"Feature","properties":{"title":"Priority Villages, Lindi Region, Tanzania Mini Grids Project","id":4802,"area":616.0229189680824,"year":"2018","lastUpdated":"2018-07-02T20:42:12.174538","changesets":447,"mappers":18,"roads":0.198453497004405,"buildings":12715,"edits":12741,"latest":"2018-07-03T09:25:50.000Z"},"geometry":{"type":"Point","coordinates":[38.35241233283509,-10.284012504908642]}},{"type":"Feature","properties":{"title":"Tanzania Development Trust: Salesforce Manyara FGM 2","id":4894,"area":2355.6428351187137,"year":"2018","lastUpdated":"2018-07-30T15:15:06.938243","changesets":18,"mappers":3,"roads":13.8265432264425,"buildings":76,"edits":123,"latest":"2018-07-30T22:55:32.000Z"},"geometry":{"type":"Point","coordinates":[36.51992230814733,-5.409890486997332]}},{"type":"Feature","properties":{"title":"Rufiji, Pwani, Tanzania Mini Grids Project 04","id":4624,"area":1796.0668599205555,"year":"2018","lastUpdated":"2018-06-26T06:14:51.811334","changesets":465,"mappers":41,"roads":0.0542000845535752,"buildings":8375,"edits":8384,"latest":"2018-06-25T13:58:27.000Z"},"geometry":{"type":"Point","coordinates":[38.53147573879938,-7.800372604775588]}},{"type":"Feature","properties":{"title":"Chemba and Bahi Districts, Tanzania Mini Grids Project 03","id":4654,"area":1954.525377556312,"year":"2018","lastUpdated":"2018-06-06T01:13:39.569207","changesets":1245,"mappers":41,"roads":0.106920348528221,"buildings":20636,"edits":20657,"latest":"2018-06-05T14:25:23.000Z"},"geometry":{"type":"Point","coordinates":[35.36975679869405,-5.440254667200012]}},{"type":"Feature","properties":{"title":"Tabora, Tabora, Tanzania Mini Grids Project 04","id":4611,"area":1431.5287309262178,"year":"2018","lastUpdated":"2018-06-21T06:43:17.878145","changesets":1290,"mappers":60,"roads":17.4569544106012,"buildings":23456,"edits":24034,"latest":"2018-06-21T06:42:56.000Z"},"geometry":{"type":"Point","coordinates":[32.9989006523097,-5.09063064812292]}},{"type":"Feature","properties":{"title":"Chemba and Bahi Districts, Tanzania Mini Grids Project 04","id":4655,"area":1954.7614953958484,"year":"2018","lastUpdated":"2018-06-06T12:45:47.017143","changesets":1237,"mappers":61,"roads":0.0887218633667997,"buildings":40885,"edits":40916,"latest":"2018-06-07T11:54:39.000Z"},"geometry":{"type":"Point","coordinates":[35.46191965125588,-6.090344630316677]}},{"type":"Feature","properties":{"title":"Tunduru, Ruvuma, Tanzania Mini Grids Project 03","id":4378,"area":1369.2568876847938,"year":"2018","lastUpdated":"2018-05-03T12:58:11.041494","changesets":1018,"mappers":60,"roads":0.263537837490913,"buildings":23394,"edits":23430,"latest":"2018-05-03T13:14:28.000Z"},"geometry":{"type":"Point","coordinates":[37.28765739124834,-11.152541317436667]}},{"type":"Feature","properties":{"title":"Kigoma_10","id":4091,"area":4.460415768336148,"year":"2018","lastUpdated":"2018-02-08T09:50:21.431365","changesets":220,"mappers":5,"roads":0.0191951062871919,"buildings":3014,"edits":3016,"latest":"2018-02-08T09:50:17.000Z"},"geometry":{"type":"Point","coordinates":[29.852708915118153,-5.977798075388094]}},{"type":"Feature","properties":{"title":"Njombe Region, Tanzania Mini Grids Project 02","id":4723,"area":1983.7355070009462,"year":"2018","lastUpdated":"2018-06-13T09:33:57.429622","changesets":1103,"mappers":56,"roads":0.208227637578225,"buildings":50720,"edits":50749,"latest":"2018-06-13T07:14:52.000Z"},"geometry":{"type":"Point","coordinates":[35.0200613677803,-9.007969824925567]}},{"type":"Feature","properties":{"title":"Unkuku, Tanzania Mini Grids Project","id":4715,"area":61.28019264301011,"year":"2018","lastUpdated":"2018-06-11T10:35:32.819747","changesets":97,"mappers":36,"roads":0.0672879206278469,"buildings":5732,"edits":5741,"latest":"2018-06-11T07:40:02.000Z"},"geometry":{"type":"Point","coordinates":[35.81881696929818,-4.8916621717699]}},{"type":"Feature","properties":{"title":"Bankolo Village, Tanzania Mini Grids Project","id":4649,"area":2.655569135969413,"year":"2018","lastUpdated":"2018-06-03T23:07:59.384606","changesets":23,"mappers":10,"roads":0,"buildings":35,"edits":35,"latest":"2018-06-02T09:43:11.000Z"},"geometry":{"type":"Point","coordinates":[35.452022531029996,-5.83740181330499]}},{"type":"Feature","properties":{"title":"Njombe Region, Tanzania Mini Grids Project 01","id":4722,"area":1960.7678476372357,"year":"2018","lastUpdated":"2018-06-14T10:35:06.317220","changesets":1187,"mappers":61,"roads":1.07364951171986,"buildings":57724,"edits":57843,"latest":"2018-06-14T13:57:46.000Z"},"geometry":{"type":"Point","coordinates":[34.581247317489954,-8.801178149192559]}},{"type":"Feature","properties":{"title":"Tanzania Development Trust: Tabora district mapping project","id":2361,"area":11331.719987775972,"year":"2018","lastUpdated":"2018-06-29T13:15:53.251740","changesets":11660,"mappers":420,"roads":28505.5191124794,"buildings":316325,"edits":517703,"latest":"2018-07-12T04:06:11.000Z"},"geometry":{"type":"Point","coordinates":[32.92552601207387,-4.978413388219568]}},{"type":"Feature","properties":{"title":"Kigoma_2","id":4083,"area":1.965158778543636,"year":"2018","lastUpdated":"2018-01-30T14:05:17.983249","changesets":127,"mappers":2,"roads":0,"buildings":458,"edits":458,"latest":"2018-01-30T14:04:27.000Z"},"geometry":{"type":"Point","coordinates":[30.490210022071953,-6.813742245754607]}},{"type":"Feature","properties":{"title":"Tabora, Tabora, Tanzania Mini Grids Project 03","id":4585,"area":1693.3910497782038,"year":"2018","lastUpdated":"2018-05-31T12:30:55.852006","changesets":1678,"mappers":65,"roads":5.09675418876548,"buildings":25872,"edits":26598,"latest":"2018-05-30T13:54:08.000Z"},"geometry":{"type":"Point","coordinates":[32.49827423592803,-5.097769430191667]}},{"type":"Feature","properties":{"title":"Muheza and Pangani Districts, Tanzania Mini Grids Project","id":4698,"area":2694.389967520607,"year":"2018","lastUpdated":"2018-06-27T14:24:37.688991","changesets":1847,"mappers":63,"roads":19.9499914416186,"buildings":72673,"edits":72965,"latest":"2018-06-27T14:24:02.000Z"},"geometry":{"type":"Point","coordinates":[38.745500951805305,-5.157344994683181]}},{"type":"Feature","properties":{"title":"Njombe Region, Tanzania Mini Grids Project 04","id":4749,"area":2091.750428289223,"year":"2018","lastUpdated":"2018-06-18T07:46:36.914192","changesets":1152,"mappers":60,"roads":0.294694169499839,"buildings":42342,"edits":42390,"latest":"2018-06-25T11:40:34.000Z"},"geometry":{"type":"Point","coordinates":[33.9500057389153,-9.205214087122197]}},{"type":"Feature","properties":{"title":"Tanzania Development Trust: Salesforce Manyara FGM 3","id":4896,"area":2283.4732623040454,"year":"2018","lastUpdated":"2018-07-25T18:02:35.377635","changesets":7,"mappers":2,"roads":4.20423837073822,"buildings":12,"edits":22,"latest":"2018-07-26T12:47:18.000Z"},"geometry":{"type":"Point","coordinates":[37.05802023052,-5.535989971496]}},{"type":"Feature","properties":{"title":"Rufiji, Pwani, Tanzania Mini Grids Project 03","id":4623,"area":1539.3249459809983,"year":"2018","lastUpdated":"2018-06-13T04:54:39.869414","changesets":1141,"mappers":46,"roads":0.239674830143507,"buildings":25465,"edits":25525,"latest":"2018-06-13T07:45:23.000Z"},"geometry":{"type":"Point","coordinates":[39.34482040828832,-7.830360285671785]}},{"type":"Feature","properties":{"title":"Central Singida, Singida, Tanzania Mini Grids Project 02","id":4518,"area":1414.1192851427202,"year":"2018","lastUpdated":"2018-05-17T11:04:47.566760","changesets":882,"mappers":58,"roads":0.0239845493890909,"buildings":17063,"edits":17069,"latest":"2018-05-17T08:50:47.000Z"},"geometry":{"type":"Point","coordinates":[34.41588549629685,-5.109440949915025]}},{"type":"Feature","properties":{"title":"Njombe Region, Tanzania Mini Grids Project 06","id":4752,"area":1905.0649927180077,"year":"2018","lastUpdated":"2018-07-02T08:50:20.108931","changesets":959,"mappers":31,"roads":0.380572673185507,"buildings":29189,"edits":29249,"latest":"2018-07-02T08:52:44.000Z"},"geometry":{"type":"Point","coordinates":[34.200867682325345,-9.406954299233199]}},{"type":"Feature","properties":{"title":"Tunduru, Ruvuma, Tanzania Mini Grids Project 01","id":4423,"area":1513.3163670277308,"year":"2018","lastUpdated":"2018-06-29T11:40:34.768077","changesets":748,"mappers":73,"roads":0.672637130613432,"buildings":15105,"edits":15129,"latest":"2018-06-29T11:40:17.000Z"},"geometry":{"type":"Point","coordinates":[37.15242795625945,-11.620027648839601]}},{"type":"Feature","properties":{"title":"S. Monduli, Simanjiro, Tanzania Mini Grids - MapSwipe Project 04 - 04","id":4477,"area":139.74141127398454,"year":"2018","lastUpdated":"2018-05-04T08:01:04.870840","changesets":352,"mappers":54,"roads":0,"buildings":4700,"edits":4700,"latest":"2018-05-04T08:40:26.000Z"},"geometry":{"type":"Point","coordinates":[37.97815318589818,-5.0748312565103175]}},{"type":"Feature","properties":{"title":"Kalobe-Data Zetu","id":4242,"area":5.581452341462152,"year":"2018","lastUpdated":"2018-03-07T09:09:27.180898","changesets":531,"mappers":5,"roads":0.0106237188235286,"buildings":6096,"edits":6109,"latest":"2018-03-07T09:02:49.000Z"},"geometry":{"type":"Point","coordinates":[33.4084716088529,-8.914847386034923]}},{"type":"Feature","properties":{"title":"S. Monduli, Simanjiro, Tanzania Mini Grids - MapSwipe Project 01","id":4422,"area":918.2087603729018,"year":"2018","lastUpdated":"2018-05-08T13:55:46.077666","changesets":4703,"mappers":86,"roads":7.83174281046291,"buildings":50610,"edits":50723,"latest":"2018-05-11T06:32:20.000Z"},"geometry":{"type":"Point","coordinates":[36.6096116860842,-3.632909796231658]}},{"type":"Feature","properties":{"title":"Mbulu Center Village, Tanzania Mini Grids Project 01","id":4436,"area":12.606083526364179,"year":"2018","lastUpdated":"2018-04-19T11:23:53.908966","changesets":134,"mappers":33,"roads":0.0184481585815086,"buildings":1409,"edits":1446,"latest":"2018-04-20T09:10:43.000Z"},"geometry":{"type":"Point","coordinates":[33.0464779901525,-8.959391550342504]}},{"type":"Feature","properties":{"title":"Tabora, Tabora, Tanzania Mini Grids Project 06","id":4613,"area":1436.2802264029842,"year":"2018","lastUpdated":"2018-07-02T12:07:55.077015","changesets":1238,"mappers":65,"roads":0.181888238898926,"buildings":23073,"edits":23084,"latest":"2018-07-02T12:11:10.000Z"},"geometry":{"type":"Point","coordinates":[33.948245197465845,-5.104981749651359]}},{"type":"Feature","properties":{"title":"Urambo, Tabora, Tanzania Mini Grids Project 08","id":4355,"area":1512.9535222617567,"year":"2018","lastUpdated":"2018-06-29T06:36:14.716443","changesets":1803,"mappers":62,"roads":0.0539411172980745,"buildings":55003,"edits":55009,"latest":"2018-06-29T06:38:59.000Z"},"geometry":{"type":"Point","coordinates":[31.652766553125133,-4.666160203174864]}},{"type":"Feature","properties":{"title":"MSD & JSI/USAID Tanzania Road Import - Tanga region","id":1921,"area":26453.26230241192,"year":"2016","lastUpdated":"2016-11-26T18:48:48.999774","changesets":0,"mappers":0,"roads":0,"buildings":0,"edits":0,"latest":null},"geometry":{"type":"Point","coordinates":[38.09654675335962,-5.362412457676792]}},{"type":"Feature","properties":{"title":"Tabora, Tabora, Tanzania Mini Grids Project 05","id":4612,"area":1989.4559724518444,"year":"2018","lastUpdated":"2018-06-01T09:04:16.418927","changesets":1027,"mappers":62,"roads":1.12987965804484,"buildings":17432,"edits":17662,"latest":"2018-06-01T13:36:34.000Z"},"geometry":{"type":"Point","coordinates":[33.40266077376074,-5.09063064812292]}},{"type":"Feature","properties":{"title":"Heru Shingo Ward, Kigoma, Tanzania Mini Grids Project 01","id":4387,"area":789.0955168862893,"year":"2018","lastUpdated":"2018-06-27T06:10:33.707732","changesets":1455,"mappers":37,"roads":4.583348062534,"buildings":33003,"edits":33301,"latest":"2018-06-01T13:26:31.000Z"},"geometry":{"type":"Point","coordinates":[30.310435947907735,-4.113678655615293]}},{"type":"Feature","properties":{"title":"Kigoma_7","id":4088,"area":2.1750746662810996,"year":"2018","lastUpdated":"2018-02-14T06:34:17.900163","changesets":64,"mappers":6,"roads":0,"buildings":770,"edits":770,"latest":"2018-02-14T06:35:46.000Z"},"geometry":{"type":"Point","coordinates":[29.747221030052973,-6.0249577041517295]}},{"type":"Feature","properties":{"title":"Rufiji, Pwani, Tanzania Mini Grids Project 01","id":4621,"area":1421.848754938379,"year":"2018","lastUpdated":"2018-06-28T09:05:33.700927","changesets":1507,"mappers":57,"roads":0.314447651645533,"buildings":35066,"edits":35135,"latest":"2018-06-28T09:05:26.000Z"},"geometry":{"type":"Point","coordinates":[38.756067518885445,-7.717796153884717]}},{"type":"Feature","properties":{"title":"Central Singida, Singida, Tanzania Mini Grids Project 05 East","id":4529,"area":1299.832349107584,"year":"2018","lastUpdated":"2018-05-17T09:08:08.102064","changesets":829,"mappers":53,"roads":0.392972178332061,"buildings":16651,"edits":16659,"latest":"2018-05-17T11:23:30.000Z"},"geometry":{"type":"Point","coordinates":[35.19340611670751,-4.901696314033335]}},{"type":"Feature","properties":{"title":"Missing Maps: Kyela - Data Zetu","id":3698,"area":251.55720854707542,"year":"2018","lastUpdated":"2018-04-05T07:21:35.195103","changesets":802,"mappers":12,"roads":5.58626698624379,"buildings":29269,"edits":29469,"latest":"2018-07-19T11:51:17.000Z"},"geometry":{"type":"Point","coordinates":[33.84069567931769,-9.544454940746501]}},{"type":"Feature","properties":{"title":"Zanzibar Roads - Unguja Island - 01","id":3650,"area":234.75514110431052,"year":"2017","lastUpdated":"2017-10-07T12:29:26.306281","changesets":573,"mappers":18,"roads":1191.68951939582,"buildings":43,"edits":17373,"latest":"2017-10-07T12:28:50.000Z"},"geometry":{"type":"Point","coordinates":[39.248176202742364,-6.1821500381296275]}},{"type":"Feature","properties":{"title":"Songea Rural, Ruvuma, Tanzania Mini Grids Project 03","id":4704,"area":2223.7007441409824,"year":"2018","lastUpdated":"2018-06-11T13:01:49.315620","changesets":559,"mappers":53,"roads":1.3997523367762,"buildings":4565,"edits":4600,"latest":"2018-07-26T11:48:10.000Z"},"geometry":{"type":"Point","coordinates":[35.59727510395192,-10.089441618006344]}},{"type":"Feature","properties":{"title":"Missing Maps: Dar es Salaam - Ramani Huria 2.0 - 39","id":3505,"area":96.83711970341507,"year":"2018","lastUpdated":"2018-03-04T23:01:32.143525","changesets":3897,"mappers":79,"roads":269.298159883004,"buildings":48923,"edits":63495,"latest":"2017-09-18T11:50:06.000Z"},"geometry":{"type":"Point","coordinates":[39.305843254526984,-6.840568905719535]}},{"type":"Feature","properties":{"title":"Urambo, Tabora, Tanzania Mini Grids Project 05","id":4352,"area":1522.3866868404682,"year":"2018","lastUpdated":"2018-06-29T06:39:44.799826","changesets":1812,"mappers":63,"roads":47.1194316793102,"buildings":61111,"edits":61203,"latest":"2018-07-02T05:53:02.000Z"},"geometry":{"type":"Point","coordinates":[31.750896252665452,-5.017669822392724]}},{"type":"Feature","properties":{"title":"Kasulu, Kasulu, Tanzania Mini Grids Project 05","id":4572,"area":2206.993164418614,"year":"2018","lastUpdated":"2018-06-21T06:47:41.876386","changesets":659,"mappers":53,"roads":0.332538602551101,"buildings":7553,"edits":7645,"latest":"2018-06-21T06:47:28.000Z"},"geometry":{"type":"Point","coordinates":[30.58835132393096,-4.543021986400334]}},{"type":"Feature","properties":{"title":"Kigoma_16","id":4104,"area":7.541560145038916,"year":"2018","lastUpdated":"2018-02-15T12:46:38.375086","changesets":305,"mappers":9,"roads":1.4295542594309,"buildings":2851,"edits":2870,"latest":"2018-02-15T13:37:15.000Z"},"geometry":{"type":"Point","coordinates":[29.84589719532659,-5.5702642437272685]}},{"type":"Feature","properties":{"title":"TZ IFC Mini-grids house count test-1","id":4035,"area":481.70619678590833,"year":"2018","lastUpdated":"2018-02-09T12:39:18.669550","changesets":3,"mappers":3,"roads":0,"buildings":180,"edits":180,"latest":"2018-02-09T12:27:18.000Z"},"geometry":{"type":"Point","coordinates":[34.581446410258884,-7.300716320272623]}},{"type":"Feature","properties":{"title":"Lindi, Lindi, Tanzania Mini Grids Project 05","id":4499,"area":1350.3603655694978,"year":"2018","lastUpdated":"2018-06-29T06:38:06.752377","changesets":1100,"mappers":66,"roads":1.12477553899274,"buildings":28479,"edits":28638,"latest":"2018-06-29T06:31:34.000Z"},"geometry":{"type":"Point","coordinates":[39.68909574499,-9.801786594046861]}},{"type":"Feature","properties":{"title":"Mahenye-Njombe","id":4178,"area":419.20452177017404,"year":"2018","lastUpdated":"2018-02-28T05:34:07.695778","changesets":557,"mappers":14,"roads":2.81615930013736,"buildings":28307,"edits":28364,"latest":"2018-02-23T12:45:33.000Z"},"geometry":{"type":"Point","coordinates":[34.79358795360073,-9.509275911526554]}},{"type":"Feature","properties":{"title":"Songea Rural, Ruvuma, Tanzania Mini Grids Project 01","id":4703,"area":1371.4453556338517,"year":"2018","lastUpdated":"2018-06-11T08:41:44.101036","changesets":58,"mappers":25,"roads":0,"buildings":427,"edits":427,"latest":"2018-06-11T08:40:02.000Z"},"geometry":{"type":"Point","coordinates":[35.7822148323556,-9.35501676850386]}},{"type":"Feature","properties":{"title":"Central Singida, Singida, Tanzania Mini Grids Project 00 North","id":4508,"area":2138.0235797080213,"year":"2018","lastUpdated":"2018-07-13T13:11:39.577533","changesets":2429,"mappers":66,"roads":2.19560796896209,"buildings":85349,"edits":85596,"latest":"2018-07-13T13:11:37.000Z"},"geometry":{"type":"Point","coordinates":[34.85630752643853,-4.7195257307215375]}},{"type":"Feature","properties":{"title":"Tunduru, Ruvuma, Tanzania Mini Grids Project 06-07","id":4420,"area":2221.546325309108,"year":"2018","lastUpdated":"2018-06-26T09:46:42.343600","changesets":2472,"mappers":65,"roads":8.35441218309258,"buildings":33151,"edits":33219,"latest":"2018-06-26T09:49:39.000Z"},"geometry":{"type":"Point","coordinates":[37.34039799071685,-10.737231230373672]}},{"type":"Feature","properties":{"title":"Central Singida, Singida, Tanzania Mini Grids Project 03","id":4519,"area":2105.041518258272,"year":"2018","lastUpdated":"2018-05-16T13:46:42.174753","changesets":1720,"mappers":63,"roads":0.0426727988520717,"buildings":55117,"edits":55135,"latest":"2018-05-16T14:10:04.000Z"},"geometry":{"type":"Point","coordinates":[34.9139572099927,-4.933032473319332]}},{"type":"Feature","properties":{"title":"Tunduru, Ruvuma, Tanzania Mini Grids Project 05","id":4411,"area":1479.9129003136538,"year":"2018","lastUpdated":"2018-05-17T04:42:53.781681","changesets":1947,"mappers":62,"roads":3.59696148842831,"buildings":30085,"edits":30123,"latest":"2018-05-17T04:42:41.000Z"},"geometry":{"type":"Point","coordinates":[37.235568507342286,-10.889137167904732]}},{"type":"Feature","properties":{"title":"Songea Rural, Ruvuma, Tanzania Mini Grids Project 02","id":4700,"area":2220.7880799927716,"year":"2018","lastUpdated":"2018-06-11T10:36:01.898341","changesets":626,"mappers":55,"roads":0.0918395441376388,"buildings":12459,"edits":12476,"latest":"2018-06-11T08:13:36.000Z"},"geometry":{"type":"Point","coordinates":[35.427622249790986,-9.775460334204324]}},{"type":"Feature","properties":{"title":"Buigiri, Tanzania Mini Grids Project","id":4716,"area":70.76658506869626,"year":"2018","lastUpdated":"2018-06-11T10:35:13.436272","changesets":35,"mappers":19,"roads":0,"buildings":1370,"edits":1370,"latest":"2018-06-11T06:47:36.000Z"},"geometry":{"type":"Point","coordinates":[36.08954750040804,-6.160921675583066]}},{"type":"Feature","properties":{"title":"Mpwapwa, Dodoma, Tanzania Mini Grids Project 06","id":4419,"area":1290.5067497887903,"year":"2018","lastUpdated":"2018-06-30T10:06:16.399635","changesets":2176,"mappers":91,"roads":10.7518575631284,"buildings":54733,"edits":54794,"latest":"2018-06-30T12:14:33.000Z"},"geometry":{"type":"Point","coordinates":[36.618562445229166,-6.32822085806907]}},{"type":"Feature","properties":{"title":"Chemba and Bahi Districts, Tanzania Mini Grids Project 06","id":4657,"area":1954.498784623165,"year":"2018","lastUpdated":"2018-06-14T09:15:54.656575","changesets":1739,"mappers":67,"roads":0.0871877791220345,"buildings":23455,"edits":23473,"latest":"2018-06-15T19:15:22.000Z"},"geometry":{"type":"Point","coordinates":[35.518366503705884,-5.7085387258819065]}},{"type":"Feature","properties":{"title":"Urambo, Tabora, Tanzania Mini Grids Project 06","id":4353,"area":1555.7313427834936,"year":"2018","lastUpdated":"2018-06-29T06:38:02.088669","changesets":2204,"mappers":67,"roads":0.0376777707116761,"buildings":58216,"edits":58229,"latest":"2018-06-29T06:36:08.000Z"},"geometry":{"type":"Point","coordinates":[31.85480028894,-4.912515247337495]}},{"type":"Feature","properties":{"title":"Rungwe, Mbeya, Tanzania Mini Grids Project 02","id":4393,"area":1149.0351365244592,"year":"2018","lastUpdated":"2018-04-30T01:32:30.188814","changesets":2056,"mappers":60,"roads":12.5724590121885,"buildings":72408,"edits":72612,"latest":"2018-04-27T14:03:47.000Z"},"geometry":{"type":"Point","coordinates":[33.85995773044913,-9.28097728849757]}},{"type":"Feature","properties":{"title":"Urambo, Tabora, Tanzania Mini Grids Project 04","id":4366,"area":1540.7875686482291,"year":"2018","lastUpdated":"2018-04-23T12:46:20.979070","changesets":1920,"mappers":73,"roads":6.26198278193171,"buildings":42229,"edits":42283,"latest":"2018-04-23T12:45:52.000Z"},"geometry":{"type":"Point","coordinates":[31.8072741219125,-5.113293963680001]}},{"type":"Feature","properties":{"title":"Priority Villages, Kigoma Region, Tanzania Mini Grids Project","id":4779,"area":2340.2938543456194,"year":"2018","lastUpdated":"2018-06-27T23:26:21.748956","changesets":1670,"mappers":48,"roads":0.846639744708577,"buildings":80160,"edits":80298,"latest":"2018-06-28T06:27:08.000Z"},"geometry":{"type":"Point","coordinates":[30.81891173150636,-3.4042847246900707]}},{"type":"Feature","properties":{"title":"Mbozi, Mbeya, Tanzania Mini Grids Project 05","id":4291,"area":1217.253471872788,"year":"2018","lastUpdated":"2018-06-28T18:33:30.349701","changesets":1271,"mappers":65,"roads":1099.09611620997,"buildings":20694,"edits":22629,"latest":"2018-06-29T06:41:39.000Z"},"geometry":{"type":"Point","coordinates":[32.832228251564956,-8.77762069709877]}},{"type":"Feature","properties":{"title":"Kigoma_9","id":4090,"area":1.722690665551124,"year":"2018","lastUpdated":"2018-02-15T09:43:57.762973","changesets":290,"mappers":6,"roads":0.249339693562493,"buildings":1929,"edits":1941,"latest":"2018-02-15T09:43:50.000Z"},"geometry":{"type":"Point","coordinates":[29.825238216387262,-6.003663870933533]}},{"type":"Feature","properties":{"title":"Mbozi, Mbeya, Tanzania Mini Grids Project 07","id":4350,"area":908.5380955685306,"year":"2018","lastUpdated":"2018-06-29T06:38:11.249834","changesets":1211,"mappers":61,"roads":663.566242525814,"buildings":34908,"edits":35996,"latest":"2018-06-29T06:38:08.000Z"},"geometry":{"type":"Point","coordinates":[32.511668384650065,-8.419049370379382]}},{"type":"Feature","properties":{"title":"Kagera_Goziba","id":4068,"area":1.2825061201820658,"year":"2018","lastUpdated":"2018-01-27T17:08:13.788121","changesets":1,"mappers":1,"roads":0,"buildings":0,"edits":0,"latest":"2018-01-27T17:01:56.000Z"},"geometry":{"type":"Point","coordinates":[32.613511747768825,-1.4704431873747166]}},{"type":"Feature","properties":{"title":"Missing Maps: Dar es Salaam - Ramani Huria 2.0 - 33","id":3455,"area":156.72153831900792,"year":"2018","lastUpdated":"2018-03-05T15:30:37.208960","changesets":2954,"mappers":102,"roads":579.977370621098,"buildings":21094,"edits":39085,"latest":"2017-10-29T15:21:56.000Z"},"geometry":{"type":"Point","coordinates":[39.06687201276458,-6.7708713265034515]}},{"type":"Feature","properties":{"title":"Lituhi, Luhagara, Ruanda Villages, Tanzania Mini Grids Project","id":4648,"area":8.186367673131722,"year":"2018","lastUpdated":"2018-06-03T23:08:15.625404","changesets":107,"mappers":30,"roads":0.135942160373434,"buildings":3904,"edits":3924,"latest":"2018-06-02T13:59:59.000Z"},"geometry":{"type":"Point","coordinates":[34.82083073630402,-10.542318168502002]}},{"type":"Feature","properties":{"title":"Tanzania Development Trust: Salesforce Manyara FGM 1","id":4892,"area":2282.5577295654634,"year":"2018","lastUpdated":"2018-07-30T18:34:35.793622","changesets":980,"mappers":44,"roads":457.734545266242,"buildings":4889,"edits":6375,"latest":"2018-07-30T18:45:27.000Z"},"geometry":{"type":"Point","coordinates":[36.62758343996364,-5.541266902250907]}},{"type":"Feature","properties":{"title":"S. Monduli, Simanjiro, Tanzania Mini Grids - MapSwipe Project 04 - 02","id":4479,"area":131.2262807333246,"year":"2018","lastUpdated":"2018-05-04T09:42:42.952002","changesets":136,"mappers":50,"roads":0.000165500103078919,"buildings":1412,"edits":1414,"latest":"2018-05-04T09:36:27.000Z"},"geometry":{"type":"Point","coordinates":[37.140374705660484,-4.974450733390372]}},{"type":"Feature","properties":{"title":"Kasulu, Kasulu, Tanzania Mini Grids Project 01","id":4563,"area":1132.117945620699,"year":"2018","lastUpdated":"2018-06-22T13:47:54.809568","changesets":1683,"mappers":62,"roads":6.80675700959666,"buildings":46061,"edits":46543,"latest":"2018-06-22T13:37:34.000Z"},"geometry":{"type":"Point","coordinates":[30.223387298585,-4.60036034805499]}},{"type":"Feature","properties":{"title":"Lindi, Lindi, Tanzania Mini Grids Project 04","id":4495,"area":2400.161505147141,"year":"2018","lastUpdated":"2018-07-02T06:32:32.947392","changesets":1774,"mappers":65,"roads":3.81934683994176,"buildings":47301,"edits":47458,"latest":"2018-06-29T06:39:00.000Z"},"geometry":{"type":"Point","coordinates":[39.76326133480001,-10.168453829364001]}},{"type":"Feature","properties":{"title":"TZ IFC Mini-grids house count test","id":3876,"area":481.70619678590833,"year":"2018","lastUpdated":"2018-01-17T09:18:38.631606","changesets":3458,"mappers":35,"roads":5.06366089326074,"buildings":275823,"edits":276862,"latest":"2018-02-20T15:26:25.000Z"},"geometry":{"type":"Point","coordinates":[34.581446410258884,-7.300716320272623]}},{"type":"Feature","properties":{"title":"Chemba and Bahi Districts, Tanzania Mini Grids Project 05","id":4656,"area":1943.7393401406555,"year":"2018","lastUpdated":"2018-06-14T09:06:01.145611","changesets":2139,"mappers":66,"roads":1.37724754241375,"buildings":26302,"edits":26408,"latest":"2018-06-14T08:37:58.000Z"},"geometry":{"type":"Point","coordinates":[35.24210727602255,-5.287224282992947]}},{"type":"Feature","properties":{"title":"Mkakatih Village, Tanzania Mini Grids Project","id":4637,"area":33.36735469325082,"year":"2018","lastUpdated":"2018-06-03T23:09:45.716750","changesets":73,"mappers":32,"roads":0.0531955537922062,"buildings":1062,"edits":1067,"latest":"2018-06-03T11:19:19.000Z"},"geometry":{"type":"Point","coordinates":[35.361299461125,-5.900049521220015]}},{"type":"Feature","properties":{"title":"Ardhi University: Housing Development - Arusha City","id":3937,"area":28.84666648523269,"year":"2018","lastUpdated":"2018-03-15T09:06:53.133923","changesets":1278,"mappers":35,"roads":22.2386466845665,"buildings":3644,"edits":3818,"latest":"2018-05-11T01:10:09.000Z"},"geometry":{"type":"Point","coordinates":[36.790300973849895,-3.3836324243588614]}},{"type":"Feature","properties":{"title":"Chato District Villages, Geita Region, Tanzania Mini Grids Project","id":4778,"area":4421.105608459506,"year":"2018","lastUpdated":"2018-06-27T00:16:36.042505","changesets":4915,"mappers":59,"roads":55.2059060410998,"buildings":265957,"edits":266455,"latest":"2018-06-26T09:15:00.000Z"},"geometry":{"type":"Point","coordinates":[31.98540590093474,-2.8573699057934006]}},{"type":"Feature","properties":{"title":"Kigoma_13","id":4099,"area":2.897626588524291,"year":"2018","lastUpdated":"2018-02-12T06:41:14.209893","changesets":98,"mappers":5,"roads":0.000234970678110244,"buildings":1712,"edits":1719,"latest":"2018-02-12T06:40:16.000Z"},"geometry":{"type":"Point","coordinates":[29.658303477039862,-4.485456020104669]}},{"type":"Feature","properties":{"title":"kagera_3","id":4072,"area":5.425110699350517,"year":"2018","lastUpdated":"2018-01-29T13:51:44.560135","changesets":66,"mappers":4,"roads":0,"buildings":1436,"edits":1436,"latest":"2018-01-30T06:14:28.000Z"},"geometry":{"type":"Point","coordinates":[31.78296036744672,-1.9859577129840518]}},{"type":"Feature","properties":{"title":"Tanzania Development Trust: Kagera Road Mapping","id":4369,"area":15505.318016681384,"year":"2018","lastUpdated":"2018-06-17T15:44:26.132464","changesets":36,"mappers":3,"roads":171.423475160651,"buildings":21,"edits":177,"latest":"2018-07-29T17:31:48.000Z"},"geometry":{"type":"Point","coordinates":[31.083802641369388,-1.6037426685457075]}},{"type":"Feature","properties":{"title":"Mbozi, Mbeya, Tanzania Mini Grids Project 01","id":4286,"area":1427.754247465411,"year":"2018","lastUpdated":"2018-06-07T08:27:39.601646","changesets":3571,"mappers":68,"roads":3017.7661095466,"buildings":84064,"edits":91962,"latest":"2018-06-14T11:11:25.000Z"},"geometry":{"type":"Point","coordinates":[32.815140600291976,-9.28818806240448]}},{"type":"Feature","properties":{"title":"KIgoma_4","id":4085,"area":2.399888577348453,"year":"2018","lastUpdated":"2018-02-01T08:56:49.652957","changesets":108,"mappers":6,"roads":1.32334526648593,"buildings":3032,"edits":3050,"latest":"2018-02-01T08:56:12.000Z"},"geometry":{"type":"Point","coordinates":[30.042473064769514,-6.458449644665783]}},{"type":"Feature","properties":{"title":"Lindi - Mini Grids","id":4260,"area":235.67207484051517,"year":"2018","lastUpdated":"2018-04-18T21:53:41.412313","changesets":133,"mappers":23,"roads":23.0772557724216,"buildings":2266,"edits":2684,"latest":"2018-04-18T21:53:28.000Z"},"geometry":{"type":"Point","coordinates":[39.305670260454285,-10.707404745317382]}},{"type":"Feature","properties":{"title":"Missing Maps: Dar es Salaam - Ramani Huria 2.0 - 40","id":3523,"area":44.58915788409798,"year":"2018","lastUpdated":"2018-03-04T23:01:06.175520","changesets":5364,"mappers":98,"roads":142.280090782385,"buildings":76616,"edits":90202,"latest":"2018-01-03T08:26:39.000Z"},"geometry":{"type":"Point","coordinates":[39.202911789704345,-6.764988440714859]}},{"type":"Feature","properties":{"title":"Manyoni, Singida, Tanzania Mini Grids Project 02","id":4532,"area":1743.3360624738941,"year":"2018","lastUpdated":"2018-05-21T06:12:05.383529","changesets":885,"mappers":62,"roads":0.198161772673363,"buildings":17096,"edits":17116,"latest":"2018-05-21T06:05:53.000Z"},"geometry":{"type":"Point","coordinates":[34.272985485616104,-5.75358385726637]}},{"type":"Feature","properties":{"title":"Zanzibar Roads - Unguja Island - 02","id":3666,"area":467.0999763333136,"year":"2017","lastUpdated":"2017-10-02T18:35:16.494476","changesets":182,"mappers":13,"roads":1127.1061948184,"buildings":5,"edits":6570,"latest":"2017-10-04T08:29:26.000Z"},"geometry":{"type":"Point","coordinates":[39.26414174907967,-5.856335474346869]}},{"type":"Feature","properties":{"title":"Missing Maps: Temeke - Data Zetu","id":3699,"area":14.051390146474496,"year":"2018","lastUpdated":"2018-03-04T22:52:17.712834","changesets":931,"mappers":30,"roads":58.5254100191776,"buildings":29137,"edits":33372,"latest":"2018-03-09T20:29:21.000Z"},"geometry":{"type":"Point","coordinates":[39.26423919262868,-6.891846441400092]}},{"type":"Feature","properties":{"title":"Kigoma_1","id":4082,"area":3.220895758602432,"year":"2018","lastUpdated":"2018-01-30T09:22:24.958026","changesets":128,"mappers":5,"roads":0,"buildings":3113,"edits":3113,"latest":"2018-02-19T11:05:31.000Z"},"geometry":{"type":"Point","coordinates":[30.44210254746399,-6.82158989076395]}},{"type":"Feature","properties":{"title":"Missing Maps: Dar es Salaam - Ramani Huria 2.0 - 27","id":3424,"area":230.31173426208932,"year":"2018","lastUpdated":"2018-03-05T15:33:58.772352","changesets":2533,"mappers":79,"roads":1585.23523604963,"buildings":328,"edits":20922,"latest":"2017-08-31T08:30:39.000Z"},"geometry":{"type":"Point","coordinates":[39.10027660536416,-7.025038398924583]}},{"type":"Feature","properties":{"title":"Mpwapwa, Dodoma, Tanzania Mini Grids Project 08","id":4418,"area":69.68255741962724,"year":"2018","lastUpdated":"2018-05-19T20:42:24.261907","changesets":1926,"mappers":103,"roads":18.7990415103299,"buildings":25541,"edits":25683,"latest":"2018-05-19T20:41:29.000Z"},"geometry":{"type":"Point","coordinates":[36.46391177601475,-5.9448724542277525]}},{"type":"Feature","properties":{"title":"Missing Maps: Dar es Salaam - Ramani Huria 2.0 - 34","id":3456,"area":196.89167630800463,"year":"2018","lastUpdated":"2018-03-05T15:30:13.278824","changesets":3676,"mappers":139,"roads":587.388974612296,"buildings":20987,"edits":38292,"latest":"2017-11-13T11:24:48.000Z"},"geometry":{"type":"Point","coordinates":[39.100288211273984,-6.877221494935376]}},{"type":"Feature","properties":{"title":"Missing Maps: Dar es Salaam - Ramani Huria 2.0 - 37","id":3489,"area":417.09462410666663,"year":"2017","lastUpdated":"2017-09-18T12:03:21.740199","changesets":822,"mappers":61,"roads":562.998240273241,"buildings":1882,"edits":10391,"latest":"2017-11-09T12:33:34.000Z"},"geometry":{"type":"Point","coordinates":[39.462098843694726,-7.104153352099897]}},{"type":"Feature","properties":{"title":"Njombe Region, Tanzania Mini Grids Project 05","id":4751,"area":1958.8180766909427,"year":"2018","lastUpdated":"2018-06-19T09:03:22.694006","changesets":1262,"mappers":33,"roads":5.76234886943838,"buildings":59931,"edits":60292,"latest":"2018-06-22T07:51:23.000Z"},"geometry":{"type":"Point","coordinates":[34.24006954195205,-9.299815802166696]}},{"type":"Feature","properties":{"title":"Missing Maps: Mbeya - Data Zetu","id":3697,"area":39.48024643275634,"year":"2018","lastUpdated":"2018-03-05T06:16:20.685049","changesets":2341,"mappers":21,"roads":8.22290546014696,"buildings":79468,"edits":79939,"latest":"2018-07-25T09:58:02.000Z"},"geometry":{"type":"Point","coordinates":[33.45143106176986,-8.924156507539553]}},{"type":"Feature","properties":{"title":"Missing Maps: Iringa - OpenStreetMap Tanzania","id":3431,"area":13.946474979484007,"year":"2018","lastUpdated":"2018-07-30T13:11:18.150599","changesets":638,"mappers":56,"roads":16.1208529789333,"buildings":4109,"edits":4949,"latest":"2018-07-30T12:27:00.000Z"},"geometry":{"type":"Point","coordinates":[35.70870872020667,-7.758966359486665]}},{"type":"Feature","properties":{"title":"Chemba and Bahi Districts, Tanzania Mini Grids Project 02","id":4653,"area":1921.3143960736681,"year":"2018","lastUpdated":"2018-06-06T08:56:05.854973","changesets":1303,"mappers":60,"roads":0.436199179573519,"buildings":33413,"edits":33434,"latest":"2018-06-07T11:55:30.000Z"},"geometry":{"type":"Point","coordinates":[35.47357948199084,-6.541668254164324]}},{"type":"Feature","properties":{"title":"Ramani Huria 2.0 Session 01","id":3329,"area":31.68859428995046,"year":"2017","lastUpdated":"2017-08-10T21:07:17.738097","changesets":257,"mappers":67,"roads":32.0605720986966,"buildings":1717,"edits":2201,"latest":"2017-08-10T21:06:16.000Z"},"geometry":{"type":"Point","coordinates":[36.046382904052734,-7.679825943888342]}},{"type":"Feature","properties":{"title":"Missing Maps: Dar es Salaam - Ramani Huria 2.0 - 38","id":3496,"area":41.1920610625183,"year":"2018","lastUpdated":"2018-03-05T15:25:20.531310","changesets":5472,"mappers":73,"roads":78.4353169552312,"buildings":94858,"edits":120253,"latest":"2017-11-10T12:46:09.000Z"},"geometry":{"type":"Point","coordinates":[39.246766265484496,-6.7942247570358445]}},{"type":"Feature","properties":{"title":"Ikuna Ward Mapping Project","id":3203,"area":224.51296025612464,"year":"2018","lastUpdated":"2018-03-05T15:47:24.873442","changesets":335,"mappers":7,"roads":742.813559438957,"buildings":4401,"edits":9943,"latest":"2017-10-31T12:28:59.000Z"},"geometry":{"type":"Point","coordinates":[34.9328327178955,-9.190730246414187]}},{"type":"Feature","properties":{"title":"Zanzibar Roads - Unguja Island - 03","id":3670,"area":891.0473088683418,"year":"2017","lastUpdated":"2017-10-05T10:03:33.314686","changesets":411,"mappers":17,"roads":2063.39671273259,"buildings":162,"edits":11431,"latest":"2018-06-18T12:26:16.000Z"},"geometry":{"type":"Point","coordinates":[39.43088050601065,-6.258244508731397]}},{"type":"Feature","properties":{"title":"RiftValley Energy houses count","id":4034,"area":3182.0339068213334,"year":"2018","lastUpdated":"2018-02-13T06:50:28.478981","changesets":1196,"mappers":18,"roads":2.25560241095201,"buildings":73824,"edits":74303,"latest":"2018-02-13T09:48:18.000Z"},"geometry":{"type":"Point","coordinates":[35.64345427782045,-8.381566823262816]}},{"type":"Feature","properties":{"title":"Mwanza","id":4074,"area":121.88924319716057,"year":"2018","lastUpdated":"2018-03-27T15:42:41.221237","changesets":6,"mappers":3,"roads":0.470326699343026,"buildings":24,"edits":42,"latest":"2018-03-27T15:44:50.000Z"},"geometry":{"type":"Point","coordinates":[33.126132567191135,-1.9238324242353735]}},{"type":"Feature","properties":{"title":"Kigoma_15","id":4102,"area":1.4561334248441051,"year":"2018","lastUpdated":"2018-02-07T07:32:02.125048","changesets":36,"mappers":5,"roads":0.613262345810854,"buildings":921,"edits":929,"latest":"2018-02-06T11:58:55.000Z"},"geometry":{"type":"Point","coordinates":[29.751054238259393,-5.416786723007887]}},{"type":"Feature","properties":{"title":"Igalula Ward, Kigoma, Tanzania Mini Grids Project 01","id":4386,"area":1169.7270185651328,"year":"2018","lastUpdated":"2018-04-17T14:00:20.573026","changesets":912,"mappers":37,"roads":0.00817977234302703,"buildings":9782,"edits":9783,"latest":"2018-04-17T14:00:26.000Z"},"geometry":{"type":"Point","coordinates":[30.054356569129087,-6.011588890040766]}},{"type":"Feature","properties":{"title":"Songea Rural, Ruvuma, Tanzania Mini Grids Project 05","id":4719,"area":2073.141928637436,"year":"2018","lastUpdated":"2018-06-12T11:00:41.453065","changesets":1420,"mappers":54,"roads":0.925980022800687,"buildings":30459,"edits":30541,"latest":"2018-06-12T10:58:13.000Z"},"geometry":{"type":"Point","coordinates":[35.39451103592282,-10.691852234839656]}},{"type":"Feature","properties":{"title":"Kigoma_3","id":4084,"area":5.097450161720606,"year":"2018","lastUpdated":"2018-02-01T07:42:27.258246","changesets":288,"mappers":6,"roads":2.31764270978854,"buildings":6302,"edits":6359,"latest":"2018-02-08T07:46:42.000Z"},"geometry":{"type":"Point","coordinates":[30.406732561710204,-6.745298521099169]}},{"type":"Feature","properties":{"title":"Tanzania Development Trust: Msisi ward community mapping project ","id":3160,"area":81.67279767012198,"year":"2018","lastUpdated":"2018-04-26T00:17:28.085993","changesets":0,"mappers":0,"roads":0,"buildings":0,"edits":0,"latest":null},"geometry":{"type":"Point","coordinates":[34.66563340576518,-4.623019740570436]}},{"type":"Feature","properties":{"title":"Kagera_Goziba","id":4079,"area":1.1395975392255964,"year":"2018","lastUpdated":"2018-01-29T07:04:24.380360","changesets":0,"mappers":0,"roads":0,"buildings":0,"edits":0,"latest":null},"geometry":{"type":"Point","coordinates":[32.61356799061652,-1.4704301698877245]}},{"type":"Feature","properties":{"title":"TZ IFC Mini-grids house count test-2","id":4036,"area":481.70619678590833,"year":"2018","lastUpdated":"2018-02-15T13:20:01.029773","changesets":2181,"mappers":13,"roads":36.3868917119351,"buildings":181981,"edits":182647,"latest":"2018-02-23T15:15:42.000Z"},"geometry":{"type":"Point","coordinates":[34.581446410258884,-7.300716320272623]}},{"type":"Feature","properties":{"title":"Kipili Ward, Rukwa, Tanzania Mini Grids Project 01","id":4401,"area":180.26824654575853,"year":"2018","lastUpdated":"2018-05-08T10:13:30.293395","changesets":455,"mappers":51,"roads":0.000599220796289046,"buildings":9512,"edits":9513,"latest":"2018-05-08T10:13:16.000Z"},"geometry":{"type":"Point","coordinates":[30.596896102411772,-7.461640143485554]}},{"type":"Feature","properties":{"title":"kagera_1","id":4070,"area":36.69351653109927,"year":"2018","lastUpdated":"2018-01-29T08:30:21.754241","changesets":3,"mappers":1,"roads":0,"buildings":2,"edits":2,"latest":"2018-01-27T16:53:46.000Z"},"geometry":{"type":"Point","coordinates":[31.86992732951731,-1.6797556657183264]}},{"type":"Feature","properties":{"title":"Urambo, Tabora, Tanzania Mini Grids Project 03","id":4365,"area":1398.7624508238905,"year":"2018","lastUpdated":"2018-07-04T09:14:48.213836","changesets":1473,"mappers":69,"roads":0.043434080974496,"buildings":34954,"edits":34964,"latest":"2018-07-04T09:28:23.000Z"},"geometry":{"type":"Point","coordinates":[31.89778350716778,-5.22060588533778]}},{"type":"Feature","properties":{"title":"Mbozi, Mbeya, Tanzania Mini Grids Project 06","id":4349,"area":1339.4689946738515,"year":"2018","lastUpdated":"2018-06-29T09:45:45.880967","changesets":1043,"mappers":62,"roads":742.110448134303,"buildings":21213,"edits":22569,"latest":"2018-07-20T11:18:36.000Z"},"geometry":{"type":"Point","coordinates":[32.47751628437078,-8.583821597525402]}},{"type":"Feature","properties":{"title":"Mara","id":4073,"area":3.087873440053216,"year":"2018","lastUpdated":"2018-01-29T14:51:44.742950","changesets":0,"mappers":0,"roads":0,"buildings":0,"edits":0,"latest":null},"geometry":{"type":"Point","coordinates":[33.70828711361714,-1.4058350861409175]}},{"type":"Feature","properties":{"title":"Mbeya minigrids","id":4208,"area":381.3150730146897,"year":"2018","lastUpdated":"2018-04-11T07:15:52.458810","changesets":8229,"mappers":81,"roads":545.472150450804,"buildings":454625,"edits":458780,"latest":"2018-03-29T12:55:24.000Z"},"geometry":{"type":"Point","coordinates":[33.273085375143864,-8.927145320940063]}},{"type":"Feature","properties":{"title":"Kigoma_17","id":4105,"area":4.227050493859274,"year":"2018","lastUpdated":"2018-02-15T09:58:31.382396","changesets":84,"mappers":8,"roads":0.193564177598396,"buildings":1322,"edits":1325,"latest":"2018-02-22T12:12:21.000Z"},"geometry":{"type":"Point","coordinates":[29.924467030509287,-5.732861759308482]}},{"type":"Feature","properties":{"title":"Mbozi, Mbeya, Tanzania Mini Grids Project 02","id":4287,"area":1464.4147850208826,"year":"2018","lastUpdated":"2018-03-28T14:39:26.288008","changesets":3239,"mappers":63,"roads":3419.72220762668,"buildings":69891,"edits":79035,"latest":"2018-03-28T14:41:07.000Z"},"geometry":{"type":"Point","coordinates":[32.46601435345758,-9.102106023061891]}},{"type":"Feature","properties":{"title":"Kigoma_5","id":4086,"area":3.7491092848574272,"year":"2018","lastUpdated":"2018-02-09T15:21:14.358247","changesets":156,"mappers":6,"roads":0.459783989828362,"buildings":1942,"edits":1948,"latest":"2018-02-07T11:29:30.000Z"},"geometry":{"type":"Point","coordinates":[30.01864971055042,-6.469512478105855]}},{"type":"Feature","properties":{"title":"Mbozi, Mbeya, Tanzania Mini Grids Project 04","id":4290,"area":1211.7161084477548,"year":"2018","lastUpdated":"2018-07-03T09:23:29.574736","changesets":1961,"mappers":76,"roads":1447.81448250183,"buildings":48428,"edits":51301,"latest":"2018-07-03T09:24:27.000Z"},"geometry":{"type":"Point","coordinates":[32.864289160170514,-8.870478995599651]}},{"type":"Feature","properties":{"title":"Kigoma_11","id":4097,"area":4.492849273495634,"year":"2018","lastUpdated":"2018-02-09T07:33:00.557116","changesets":215,"mappers":4,"roads":0,"buildings":5705,"edits":5705,"latest":"2018-02-09T07:23:31.000Z"},"geometry":{"type":"Point","coordinates":[29.899492785288036,-5.944963869712221]}},{"type":"Feature","properties":{"title":"Urambo, Tabora, Tanzania Mini Grids Project 01-02","id":4376,"area":2032.586550505636,"year":"2018","lastUpdated":"2018-06-19T08:37:57.167229","changesets":2264,"mappers":60,"roads":0.977625727876198,"buildings":26878,"edits":26920,"latest":"2018-06-19T08:37:22.000Z"},"geometry":{"type":"Point","coordinates":[31.762362863705164,-5.438836111127685]}},{"type":"Feature","properties":{"title":"Missing Maps: Dar es Salaam - Ramani Huria 2.0 - 24","id":3410,"area":178.71077034656207,"year":"2018","lastUpdated":"2018-03-05T15:35:12.366029","changesets":1325,"mappers":49,"roads":0.0922744730575409,"buildings":7624,"edits":7650,"latest":"2017-08-16T00:47:29.000Z"},"geometry":{"type":"Point","coordinates":[39.49870437090148,-6.9536467580624555]}},{"type":"Feature","properties":{"title":"Tanzania Development Trust and Institute for Rural Development Planning: Mvomero district student mapping project ","id":3319,"area":1439.4586268120136,"year":"2018","lastUpdated":"2018-03-30T09:46:27.084556","changesets":0,"mappers":0,"roads":0,"buildings":0,"edits":0,"latest":null},"geometry":{"type":"Point","coordinates":[37.51997811453685,-6.44864147483987]}},{"type":"Feature","properties":{"title":"Missing Maps: Dar es Salaam - Ramani Huria 2.0 - 22","id":3394,"area":193.3069912960159,"year":"2018","lastUpdated":"2018-03-05T15:37:43.885692","changesets":1930,"mappers":58,"roads":1.39294643325465,"buildings":23844,"edits":24048,"latest":"2017-08-13T19:03:52.000Z"},"geometry":{"type":"Point","coordinates":[39.08408207500271,-7.020948492257043]}},{"type":"Feature","properties":{"title":"Missing Maps: Dar es Salaam - Ramani Huria 2.0 - 30","id":3427,"area":324.58461584384474,"year":"2018","lastUpdated":"2018-03-05T15:31:42.602831","changesets":736,"mappers":55,"roads":997.252274559556,"buildings":82,"edits":5864,"latest":"2017-08-24T07:24:28.000Z"},"geometry":{"type":"Point","coordinates":[39.44712098681805,-7.118307308082444]}},{"type":"Feature","properties":{"title":"Missing Maps: Dar es Salaam - Ramani Huria 2.0 - 25","id":3411,"area":260.81879568766976,"year":"2018","lastUpdated":"2018-03-05T15:34:52.492149","changesets":1755,"mappers":99,"roads":3.25862217409201,"buildings":58641,"edits":59730,"latest":"2017-08-21T09:01:52.000Z"},"geometry":{"type":"Point","coordinates":[39.37092792533908,-6.938791309484072]}},{"type":"Feature","properties":{"title":"Missing Maps: Dar es Salaam - Ramani Huria 2.0 - 20","id":3387,"area":92.06647987703117,"year":"2018","lastUpdated":"2018-03-05T15:38:02.296786","changesets":1407,"mappers":57,"roads":12.7576761938866,"buildings":34483,"edits":36868,"latest":"2017-08-15T08:33:29.000Z"},"geometry":{"type":"Point","coordinates":[39.115395701674714,-6.820271980216828]}},{"type":"Feature","properties":{"title":"Missing Maps: Dar es Salaam - Ramani Huria 2.0 - 36","id":3488,"area":375.46340276958506,"year":"2018","lastUpdated":"2018-03-05T15:28:01.583533","changesets":3567,"mappers":92,"roads":484.778915813184,"buildings":27629,"edits":38950,"latest":"2017-09-08T11:51:25.000Z"},"geometry":{"type":"Point","coordinates":[39.342418323976254,-6.900416957671596]}},{"type":"Feature","properties":{"title":"Kigoma_14","id":4100,"area":0.8979043606940176,"year":"2018","lastUpdated":"2018-02-16T06:09:02.081829","changesets":179,"mappers":9,"roads":0,"buildings":906,"edits":906,"latest":"2018-02-16T06:08:51.000Z"},"geometry":{"type":"Point","coordinates":[29.64091800036702,-4.624237761570404]}},{"type":"Feature","properties":{"title":"Songea Rural, Ruvuma, Tanzania Mini Grids Project 06","id":4720,"area":2093.4548563322423,"year":"2018","lastUpdated":"2018-06-12T12:04:57.521919","changesets":1018,"mappers":50,"roads":0.363088632082872,"buildings":13579,"edits":13606,"latest":"2018-06-12T11:03:12.000Z"},"geometry":{"type":"Point","coordinates":[35.31103412395969,-11.03686797344467]}},{"type":"Feature","properties":{"title":"Missing Maps: Dar es Salaam - Ramani Huria 2.0 - 23","id":3395,"area":200.39044222285065,"year":"2018","lastUpdated":"2018-03-05T15:37:23.174798","changesets":11931,"mappers":207,"roads":6.40062292346281,"buildings":130739,"edits":132569,"latest":"2017-12-05T17:05:23.000Z"},"geometry":{"type":"Point","coordinates":[39.17679213744439,-6.900453055307525]}},{"type":"Feature","properties":{"title":"Kasulu, Kasulu, Tanzania Mini Grids Project 04","id":4571,"area":2136.1760422465886,"year":"2018","lastUpdated":"2018-07-16T06:27:37.607948","changesets":2501,"mappers":67,"roads":13.8254831502391,"buildings":55848,"edits":56667,"latest":"2018-07-16T06:27:29.000Z"},"geometry":{"type":"Point","coordinates":[29.98247064013143,-4.6984841931908]}},{"type":"Feature","properties":{"title":"Missing Maps: Dar es Salaam - Ramani Huria 2.0 - 35","id":3479,"area":278.2939060927899,"year":"2018","lastUpdated":"2018-03-05T15:29:18.639586","changesets":2410,"mappers":124,"roads":330.96957804182,"buildings":13540,"edits":24252,"latest":"2017-09-14T20:28:36.000Z"},"geometry":{"type":"Point","coordinates":[39.12088847308327,-7.024730678705793]}},{"type":"Feature","properties":{"title":"Missing Maps: Dar es Salaam - Ramani Huria 2.0 - 26","id":3412,"area":264.77964572508387,"year":"2018","lastUpdated":"2018-03-05T15:34:27.981696","changesets":362,"mappers":52,"roads":2.21303831070795,"buildings":4558,"edits":4620,"latest":"2017-08-16T10:11:16.000Z"},"geometry":{"type":"Point","coordinates":[39.452851686025426,-7.123357238474153]}},{"type":"Feature","properties":{"title":"Lindi, Lindi, Tanzania Mini Grids Project 02","id":4488,"area":1271.4706951916876,"year":"2018","lastUpdated":"2018-07-10T07:57:50.042617","changesets":883,"mappers":66,"roads":0.580704859074677,"buildings":12370,"edits":12419,"latest":"2018-07-10T07:18:13.000Z"},"geometry":{"type":"Point","coordinates":[39.32480989462478,-9.704243210868535]}},{"type":"Feature","properties":{"title":"Dodoma","id":4075,"area":1376.1461971097149,"year":"2018","lastUpdated":"2018-01-27T16:19:15.755920","changesets":0,"mappers":0,"roads":0,"buildings":0,"edits":0,"latest":null},"geometry":{"type":"Point","coordinates":[35.01502914443591,-7.24110335290576]}},{"type":"Feature","properties":{"title":"Missing Maps: Dar es Salaam - Ramani Huria 2.0 - 28","id":3425,"area":238.90307672725964,"year":"2018","lastUpdated":"2018-03-05T15:33:37.319997","changesets":3337,"mappers":175,"roads":1979.67874635539,"buildings":2573,"edits":35065,"latest":"2017-11-03T04:15:17.000Z"},"geometry":{"type":"Point","coordinates":[39.23760432535289,-6.936433155607072]}},{"type":"Feature","properties":{"title":"Mwanza_sengerema","id":4069,"area":126.12964780900826,"year":"2018","lastUpdated":"2018-01-27T16:59:18.497099","changesets":1,"mappers":1,"roads":0,"buildings":0,"edits":0,"latest":"2018-01-27T16:55:51.000Z"},"geometry":{"type":"Point","coordinates":[32.01839321825404,-2.2808662314499273]}},{"type":"Feature","properties":{"title":"Priority Villages, Arusha Region, Tanzania Mini Grids Project","id":4799,"area":188.40438855389118,"year":"2018","lastUpdated":"2018-06-27T23:22:29.583572","changesets":190,"mappers":24,"roads":0.065129375727978,"buildings":5995,"edits":6000,"latest":"2018-06-27T08:53:12.000Z"},"geometry":{"type":"Point","coordinates":[35.78268792390038,-2.52751411105647]}},{"type":"Feature","properties":{"title":"Tunduru, Ruvuma, Tanzania Mini Grids Project 04","id":4412,"area":1554.890184050325,"year":"2018","lastUpdated":"2018-05-25T06:52:25.748652","changesets":1325,"mappers":68,"roads":0.398203610661417,"buildings":26966,"edits":27033,"latest":"2018-04-30T08:47:26.000Z"},"geometry":{"type":"Point","coordinates":[37.58529301248964,-11.01510385295025]}},{"type":"Feature","properties":{"title":"Ardhi University: Housing Development - Arusha, Mateves","id":3936,"area":105.10882142853721,"year":"2018","lastUpdated":"2018-01-16T23:34:03.009579","changesets":3556,"mappers":30,"roads":138.191525659107,"buildings":7500,"edits":8425,"latest":"2018-01-16T23:32:57.000Z"},"geometry":{"type":"Point","coordinates":[36.59653045580638,-3.4472906101117435]}},{"type":"Feature","properties":{"title":"Lindi, Lindi, Tanzania Mini Grids Project 01","id":4487,"area":2262.000623549842,"year":"2018","lastUpdated":"2018-05-10T05:11:52.452673","changesets":1674,"mappers":68,"roads":0.902342152134417,"buildings":56663,"edits":56749,"latest":"2018-05-14T14:03:37.000Z"},"geometry":{"type":"Point","coordinates":[38.91537784774695,-10.060492523381807]}},{"type":"Feature","properties":{"title":"Central Singida, Singida, Tanzania Mini Grids Project 04 South","id":4528,"area":2679.1732629690173,"year":"2018","lastUpdated":"2018-05-17T05:23:15.289640","changesets":1170,"mappers":63,"roads":0.0259764287875841,"buildings":20358,"edits":20362,"latest":"2018-05-17T13:46:29.000Z"},"geometry":{"type":"Point","coordinates":[34.69281190135674,-5.4332570462654575]}},{"type":"Feature","properties":{"title":"Itona_Kilosa","id":4179,"area":741.6959938125862,"year":"2018","lastUpdated":"2018-04-11T06:43:22.814485","changesets":409,"mappers":55,"roads":1.35885332610885,"buildings":3691,"edits":3744,"latest":"2018-04-11T07:21:08.000Z"},"geometry":{"type":"Point","coordinates":[35.53547612786605,-8.535150251339573]}}],"totalArea":5824233.342931634,"Benin":[{"type":"Feature","properties":{"title":"Map & Jerry","id":4343,"area":317.29186376347053,"year":"2018","lastUpdated":"2018-07-29T08:59:11.498427","changesets":0,"mappers":0,"roads":0,"buildings":0,"edits":0,"latest":null},"geometry":{"type":"Point","coordinates":[1.8034636010098666,6.321751338384097]}},{"type":"Feature","properties":{"title":"Cotonou Littoral Benin","id":3796,"area":72.19647399594001,"year":"2018","lastUpdated":"2018-07-01T11:51:21.342816","changesets":919,"mappers":33,"roads":15.7257696541386,"buildings":27151,"edits":27824,"latest":"2018-07-13T06:22:18.000Z"},"geometry":{"type":"Point","coordinates":[2.4267013848108645,6.363534284716102]}},{"type":"Feature","properties":{"title":"Cartographie de Parakou - EOF 2013","id":302,"area":22.41710471837181,"year":"2017","lastUpdated":"2017-04-23T12:32:48.996384","changesets":1837,"mappers":8,"roads":121.341340234675,"buildings":11879,"edits":12765,"latest":"2018-04-14T13:25:00.000Z"},"geometry":{"type":"Point","coordinates":[2.6231956478282625,9.340690595601995]}},{"type":"Feature","properties":{"title":"Cartographie de la commune de Porga-Benin","id":4914,"area":3.6335771421367755,"year":"2018","lastUpdated":"2018-07-26T21:12:55.636341","changesets":22,"mappers":4,"roads":0,"buildings":94,"edits":94,"latest":"2018-07-26T21:12:41.000Z"},"geometry":{"type":"Point","coordinates":[0.9914506256915466,11.004080474232538]}},{"type":"Feature","properties":{"title":"Missing Maps: Dangbo, Benin","id":2037,"area":8.901602462274079,"year":"2018","lastUpdated":"2018-04-08T14:34:10.968052","changesets":338,"mappers":31,"roads":56.9895503678963,"buildings":3437,"edits":4862,"latest":"2018-04-08T14:38:32.000Z"},"geometry":{"type":"Point","coordinates":[2.5524044036865225,6.58779057325721]}},{"type":"Feature","properties":{"title":"Peace Corps Benin ","id":2198,"area":55.38597882039444,"year":"2018","lastUpdated":"2018-04-07T12:42:25.816596","changesets":2534,"mappers":277,"roads":451.724773482751,"buildings":29658,"edits":37526,"latest":"2018-04-18T00:24:20.000Z"},"geometry":{"type":"Point","coordinates":[2.1458883063737737,10.231293024351888]}},{"type":"Feature","properties":{"title":"Mapping Lassa fever risk areas: Tanguieta (Northwest) Benin","id":4766,"area":8.051325587796072,"year":"2018","lastUpdated":"2018-06-29T23:51:16.628772","changesets":0,"mappers":0,"roads":0,"buildings":0,"edits":0,"latest":null},"geometry":{"type":"Point","coordinates":[1.2693025222996546,10.632902941769824]}}],"Uganda":[{"type":"Feature","properties":{"title":"Salesforce, Uganda Crowd-Sourcing Non-Camp Refugee Data (Urban Mapping) Rubaga Division Part 1, Kampala District","id":4327,"area":8.40126840870032,"year":"2018","lastUpdated":"2018-07-05T08:54:53.734362","changesets":3095,"mappers":186,"roads":4.91097859192049,"buildings":18597,"edits":18724,"latest":"2018-07-25T17:55:29.000Z"},"geometry":{"type":"Point","coordinates":[32.54524653779347,0.3421427883853258]}},{"type":"Feature","properties":{"title":"Uganda Crowd-Sourcing Non-Camp Refugee Data,Rwanzu, Busanza,Nyamagana,Busengo Villages Kisoro District","id":4297,"area":54.61581088784912,"year":"2018","lastUpdated":"2018-05-23T05:39:56.832232","changesets":1018,"mappers":75,"roads":23.0541164186441,"buildings":7173,"edits":7248,"latest":"2018-05-23T05:38:36.000Z"},"geometry":{"type":"Point","coordinates":[29.617397280324827,-1.2450696703101722]}},{"type":"Feature","properties":{"title":"Uganda Crowd-sourcing Non-Camp Refugee Data Nyakabande, Kagoma,Mutolere Villages, Kisoro District Base Mapping","id":4288,"area":49.58167859253421,"year":"2018","lastUpdated":"2018-03-27T18:21:23.444372","changesets":539,"mappers":42,"roads":7.95023042536062,"buildings":6741,"edits":6803,"latest":"2018-03-27T19:25:55.000Z"},"geometry":{"type":"Point","coordinates":[29.747966832204348,-1.3098261507978273]}},{"type":"Feature","properties":{"title":"Salesforce, Uganda Crowd-sourcing Non-Camp Refugee Data (Urban Mapping), Kibuye, Katwe, Makindye","id":4134,"area":5.069268955123824,"year":"2018","lastUpdated":"2018-06-26T15:44:40.229402","changesets":1990,"mappers":176,"roads":10.3876149291967,"buildings":11870,"edits":12279,"latest":"2018-06-26T15:43:56.000Z"},"geometry":{"type":"Point","coordinates":[32.578041636227496,0.29224840556124765]}},{"type":"Feature","properties":{"title":"PEPFAR Uganda: Rakai Coast, Kasensero Landing Site","id":2290,"area":390.7426047377783,"year":"2018","lastUpdated":"2018-02-21T23:52:45.656780","changesets":487,"mappers":33,"roads":447.456340402132,"buildings":9032,"edits":12430,"latest":"2018-02-21T23:52:26.000Z"},"geometry":{"type":"Point","coordinates":[31.789911428571425,-0.7308521428571428]}},{"type":"Feature","properties":{"title":"Uganda Crowd-sourcing Non-Camp Refugee Data, Rwebisengo, Kahondo, Makondo Villages, Ntoroko District Base Mapping","id":4295,"area":162.10041758428503,"year":"2018","lastUpdated":"2018-05-25T05:31:04.061957","changesets":1286,"mappers":54,"roads":10.4920207350625,"buildings":3532,"edits":3557,"latest":"2018-04-04T00:30:34.000Z"},"geometry":{"type":"Point","coordinates":[30.27564502638289,1.0482015863826952]}},{"type":"Feature","properties":{"title":"Uganda Crowd-sourcing Non-Camp Refugee Data, Offaka, Anyiribu Subcounty, Arua District Base Mapping","id":4314,"area":292.26457151971164,"year":"2018","lastUpdated":"2018-04-03T16:10:44.554351","changesets":1614,"mappers":182,"roads":169.132518589228,"buildings":11036,"edits":12198,"latest":"2018-03-29T15:15:29.000Z"},"geometry":{"type":"Point","coordinates":[31.089419945984925,2.6427265966896725]}},{"type":"Feature","properties":{"title":"Uganda Crowd-sourcing Non-Camp Refugee Data - Roads (GPX Tracks) Mapping Arua District","id":4701,"area":4395.597295670786,"year":"2018","lastUpdated":"2018-07-30T14:00:45.910294","changesets":481,"mappers":47,"roads":3549.11972386674,"buildings":3610,"edits":13485,"latest":"2018-07-30T19:29:23.000Z"},"geometry":{"type":"Point","coordinates":[31.074578862085442,2.9228176868678046]}},{"type":"Feature","properties":{"title":"Uganda Crowdsourcing Non-Camp Refugee Data, Rwamwanja Refugee Settlement, Kamwenge District","id":4798,"area":343.59803817321034,"year":"2018","lastUpdated":"2018-07-29T11:28:49.451706","changesets":1672,"mappers":159,"roads":173.234233995385,"buildings":23764,"edits":25546,"latest":"2018-07-30T09:01:13.000Z"},"geometry":{"type":"Point","coordinates":[30.67052946158785,0.3056601787846434]}},{"type":"Feature","properties":{"title":"Salesforce, Uganda Crowd-Sourcing Non-Camp Refugee Data (Urban Mapping) Rubaga Division Part 3 Kampala District","id":4330,"area":13.01779996853652,"year":"2018","lastUpdated":"2018-04-11T11:58:50.107806","changesets":1272,"mappers":120,"roads":16.3060620637681,"buildings":13776,"edits":14085,"latest":"2018-05-18T12:59:22.000Z"},"geometry":{"type":"Point","coordinates":[32.52909745736579,0.2890472003472374]}},{"type":"Feature","properties":{"title":"Uganda Crowdsourcing Non-Camp Refugee Data, Oruchinga, Isingiro District","id":4829,"area":362.6687747467698,"year":"2018","lastUpdated":"2018-07-26T22:14:25.665693","changesets":192,"mappers":38,"roads":0.237151960695747,"buildings":3430,"edits":3447,"latest":"2018-07-29T07:19:03.000Z"},"geometry":{"type":"Point","coordinates":[30.65006556725022,-0.936229954514776]}},{"type":"Feature","properties":{"title":"Camp mapping HCR - Kiryandongo - Ouganda","id":4857,"area":1.1402716815376035,"year":"2018","lastUpdated":"2018-07-13T09:09:36.664046","changesets":126,"mappers":22,"roads":29.2359959229702,"buildings":1130,"edits":1407,"latest":"2018-07-16T11:29:31.000Z"},"geometry":{"type":"Point","coordinates":[32.16817791697557,1.9412349152392125]}},{"type":"Feature","properties":{"title":"Uganda Crowd-sourcing Non-Camp Refugee Data,Vurra Subcounty, Arua","id":4686,"area":125.97781211607399,"year":"2018","lastUpdated":"2018-07-30T14:22:59.202940","changesets":1324,"mappers":233,"roads":48.5565315707077,"buildings":12331,"edits":12700,"latest":"2018-07-30T14:21:37.000Z"},"geometry":{"type":"Point","coordinates":[30.908277625357083,2.891373568463031]}},{"type":"Feature","properties":{"title":"Uganda Open Mapping - Ggaaba Parish, Kampala City","id":4360,"area":6.9888601486311845,"year":"2018","lastUpdated":"2018-04-06T15:02:52.228020","changesets":637,"mappers":69,"roads":14.4832036693082,"buildings":5657,"edits":5981,"latest":"2018-04-11T10:44:28.000Z"},"geometry":{"type":"Point","coordinates":[32.63390846096743,0.26019887977613626]}},{"type":"Feature","properties":{"title":"Uganda - Bridges to Prosperity - Bridge AOI Mapping","id":4322,"area":6.405450259715074,"year":"2018","lastUpdated":"2018-04-09T09:23:54.404545","changesets":140,"mappers":11,"roads":52.7012264258264,"buildings":1606,"edits":1975,"latest":"2018-04-09T05:13:11.000Z"},"geometry":{"type":"Point","coordinates":[34.2550464453546,1.1160398032570225]}},{"type":"Feature","properties":{"title":"Salesforce, Uganda Crowd-sourcing Non-Camp Refugee Data (Urban Mapping), Ndeeba, Wankulukuku","id":4135,"area":4.371431618487186,"year":"2018","lastUpdated":"2018-03-27T16:15:22.176595","changesets":1031,"mappers":144,"roads":9.29574392161781,"buildings":10517,"edits":10741,"latest":"2018-04-03T08:49:40.000Z"},"geometry":{"type":"Point","coordinates":[32.55563010348889,0.2863901650888876]}},{"type":"Feature","properties":{"title":"Salesforce, Uganda Crowd-sourcing Non-Camp Refugee Data (Urban Mapping), Kansanga, Kibuli, Namuwongo","id":4133,"area":5.519847154808274,"year":"2018","lastUpdated":"2018-03-23T08:13:18.528307","changesets":1289,"mappers":114,"roads":1.69459137017284,"buildings":6253,"edits":6365,"latest":"2018-03-14T19:38:14.000Z"},"geometry":{"type":"Point","coordinates":[32.60050128803857,0.30110921276286007]}},{"type":"Feature","properties":{"title":"Uganda Crowd-sourcing Non-Camp Refugee Data (Urban Mapping), Hoima Municipality, Hoima District","id":4593,"area":40.21494542121517,"year":"2018","lastUpdated":"2018-07-11T15:56:10.415307","changesets":780,"mappers":155,"roads":14.253258609454,"buildings":8552,"edits":8711,"latest":"2018-07-24T11:36:12.000Z"},"geometry":{"type":"Point","coordinates":[31.345254619743375,1.4316581460231461]}},{"type":"Feature","properties":{"title":"MapUganda - Phase 2: Tororo (Butaleja, Namutumba, Bugiri, Namiyango and Busia)","id":1437,"area":5529.26414171349,"year":"2018","lastUpdated":"2018-05-21T15:50:07.552229","changesets":462,"mappers":96,"roads":798.507032670049,"buildings":8011,"edits":12424,"latest":"2018-06-19T13:11:03.000Z"},"geometry":{"type":"Point","coordinates":[33.95315401570563,0.6248404540072142]}},{"type":"Feature","properties":{"title":"Uganda CrowdSourcing Non-Refugee Data, Isingiro District","id":4497,"area":1029.2287197351604,"year":"2018","lastUpdated":"2018-05-23T20:34:53.947108","changesets":2552,"mappers":270,"roads":344.47992231982,"buildings":25805,"edits":26685,"latest":"2018-05-24T11:09:35.000Z"},"geometry":{"type":"Point","coordinates":[31.00773680704972,-0.8648341878436095]}},{"type":"Feature","properties":{"title":"Bwaise Tracing","id":99,"area":0.8424582471365009,"year":"2016","lastUpdated":"2016-03-02T12:08:00.918169","changesets":3,"mappers":1,"roads":0.0924258716863386,"buildings":0,"edits":3,"latest":"2014-12-16T08:53:26.000Z"},"geometry":{"type":"Point","coordinates":[32.55938243412958,0.3497321340591482]}},{"type":"Feature","properties":{"title":"Salesforce, Uganda Crowd-Sourcing Non-Camp Refugee Data (Urban Mapping), Rubaga Division Part 2, Kampala District","id":4328,"area":10.441771719335271,"year":"2018","lastUpdated":"2018-04-03T16:09:44.121669","changesets":2540,"mappers":106,"roads":12.5259851096213,"buildings":12470,"edits":12759,"latest":"2018-03-30T13:26:57.000Z"},"geometry":{"type":"Point","coordinates":[32.532463481935196,0.31771719846770996]}},{"type":"Feature","properties":{"title":"Uganda Crowd-Sourcing Non-Camp Refugee Data,Bunagana, Bwanjebe,Nkanda Villages, Kisoro District","id":4296,"area":75.2889012665682,"year":"2018","lastUpdated":"2018-04-03T16:11:20.829940","changesets":841,"mappers":83,"roads":60.2114211103457,"buildings":12618,"edits":12986,"latest":"2018-03-22T04:32:52.000Z"},"geometry":{"type":"Point","coordinates":[29.623110965844802,-1.3338247671419492]}},{"type":"Feature","properties":{"title":"Uganda Bureau of Statistics Educational Facilities Buildings and Road Network Mapping","id":3374,"area":243082.79180043133,"year":"2018","lastUpdated":"2018-07-26T13:14:31.696410","changesets":114,"mappers":15,"roads":857.158736679992,"buildings":1837,"edits":3157,"latest":"2018-07-27T10:16:51.000Z"},"geometry":{"type":"Point","coordinates":[31.17184824163389,0.5547776361651102]}}],"Madagascar":[{"type":"Feature","properties":{"title":"Validation Vatomandry (interne  Cartong)","id":4252,"area":2360.8743603630046,"year":"2018","lastUpdated":"2018-03-23T21:43:03.823010","changesets":220,"mappers":10,"roads":480.898775469685,"buildings":10669,"edits":13168,"latest":"2018-03-29T08:02:23.000Z"},"geometry":{"type":"Point","coordinates":[48.78345293722483,-19.2968725491406]}},{"type":"Feature","properties":{"title":"Healthcare access - Ifanadiana, Madagascar - 01","id":4408,"area":1545.733438263082,"year":"2018","lastUpdated":"2018-07-27T13:20:09.139780","changesets":2876,"mappers":257,"roads":6254.68039540843,"buildings":13063,"edits":31603,"latest":"2018-07-27T18:20:51.000Z"},"geometry":{"type":"Point","coordinates":[47.7493711551909,-20.91518481436984]}},{"type":"Feature","properties":{"title":"Healthcare access - Ifanadiana, Madagascar - 02","id":4409,"area":1079.2972588837943,"year":"2018","lastUpdated":"2018-07-08T19:33:11.705554","changesets":1,"mappers":1,"roads":1.70250298127824,"buildings":8,"edits":13,"latest":"2018-06-04T12:54:47.000Z"},"geometry":{"type":"Point","coordinates":[47.45186951076086,-20.912859812480814]}},{"type":"Feature","properties":{"title":"Missing Maps - Ambodivoahangy, Madagascar - Disaster Risk Reduction (zone 1)","id":4750,"area":208.6014487144141,"year":"2018","lastUpdated":"2018-07-30T09:30:23.665664","changesets":757,"mappers":56,"roads":1174.28596014561,"buildings":3708,"edits":8431,"latest":"2018-07-24T18:08:40.000Z"},"geometry":{"type":"Point","coordinates":[46.51194310172954,-16.189270751951426]}},{"type":"Feature","properties":{"title":"Missing Maps - Ambodivoahangy, Madagascar - Rduction des risques de catastrophe (Manaratsandry)","id":4822,"area":6.844287904339765,"year":"2018","lastUpdated":"2018-07-30T19:32:16.493218","changesets":202,"mappers":21,"roads":34.7057286842576,"buildings":2179,"edits":2667,"latest":"2018-07-30T19:32:04.000Z"},"geometry":{"type":"Point","coordinates":[46.48761623669906,-16.18992562896951]}},{"type":"Feature","properties":{"title":"Missing Maps - Brickaville District, Madagascar - DRR","id":4388,"area":1403.468159685014,"year":"2018","lastUpdated":"2018-07-30T08:38:14.256290","changesets":1049,"mappers":138,"roads":541.387553375213,"buildings":8102,"edits":10478,"latest":"2018-07-30T08:38:06.000Z"},"geometry":{"type":"Point","coordinates":[48.89845793087591,-18.98028857620782]}},{"type":"Feature","properties":{"title":"Economic Development - Ambanja (Digo Suarez), Madagascar","id":4438,"area":13.028330472911957,"year":"2018","lastUpdated":"2018-06-18T19:05:21.015027","changesets":508,"mappers":49,"roads":12.985324976933,"buildings":7983,"edits":8340,"latest":"2018-07-09T07:22:13.000Z"},"geometry":{"type":"Point","coordinates":[48.454378025991886,-13.66858341612467]}},{"type":"Feature","properties":{"title":"Economic Development - Ilsland Nosy Be (Digo Suarez), Madagascar","id":3999,"area":19.315394808952554,"year":"2018","lastUpdated":"2018-07-13T07:35:18.378292","changesets":1214,"mappers":188,"roads":105.075863069131,"buildings":9456,"edits":10939,"latest":"2018-07-13T07:35:00.000Z"},"geometry":{"type":"Point","coordinates":[48.283795857334034,-13.364853947236996]}},{"type":"Feature","properties":{"title":"Economic Development - Antsiranana (Digo Suarez), Madagascar","id":3720,"area":21.90427894652556,"year":"2018","lastUpdated":"2018-05-10T22:23:50.577330","changesets":1962,"mappers":111,"roads":170.316298976646,"buildings":31421,"edits":36685,"latest":"2018-05-30T19:16:11.000Z"},"geometry":{"type":"Point","coordinates":[49.29580417534453,-12.291144382723955]}},{"type":"Feature","properties":{"title":"Missing Maps - Mahanoro City, Madagascar - DRR","id":3703,"area":24.250007417367225,"year":"2018","lastUpdated":"2018-01-22T22:21:51.679348","changesets":267,"mappers":39,"roads":46.1522687154347,"buildings":5522,"edits":6247,"latest":"2018-01-22T22:21:17.000Z"},"geometry":{"type":"Point","coordinates":[48.80128671799851,-19.893621938609545]}},{"type":"Feature","properties":{"title":"Peace Corps Madagascar - Fianarantsoa","id":1347,"area":86.73611210554974,"year":"2018","lastUpdated":"2018-04-20T01:07:40.193796","changesets":1734,"mappers":90,"roads":161.15296449187,"buildings":24144,"edits":27126,"latest":"2018-04-20T01:07:23.000Z"},"geometry":{"type":"Point","coordinates":[47.07387542724607,-21.44307016012036]}},{"type":"Feature","properties":{"title":"Peace Corps Madagascar - Andranofasika","id":1320,"area":103.31981960146135,"year":"2018","lastUpdated":"2018-07-23T07:03:42.819479","changesets":322,"mappers":27,"roads":204.209360243164,"buildings":3352,"edits":5615,"latest":"2018-07-23T07:03:25.000Z"},"geometry":{"type":"Point","coordinates":[46.85537624359131,-16.33984655234676]}},{"type":"Feature","properties":{"title":"Madagascar buildings for ground teams","id":210,"area":949.2971234604119,"year":"2017","lastUpdated":"2017-08-27T19:19:19.662865","changesets":50,"mappers":9,"roads":230.256282570382,"buildings":3632,"edits":4627,"latest":"2017-08-25T10:11:52.000Z"},"geometry":{"type":"Point","coordinates":[44.605276919015246,-23.546214758674886]}},{"type":"Feature","properties":{"title":"Getting prepared to natural hazards by mapping evacuation routes in Madagascar rural areas (Menabe)","id":3571,"area":49.545216321632424,"year":"2018","lastUpdated":"2018-03-12T10:42:04.379181","changesets":539,"mappers":61,"roads":352.155038130635,"buildings":5949,"edits":8329,"latest":"2018-04-12T06:57:33.000Z"},"geometry":{"type":"Point","coordinates":[44.505091823818184,-20.229634748519775]}},{"type":"Feature","properties":{"title":"Missing Maps Madagascar - Diana region, Mangoaka commune - Buildings (Step 1)","id":2316,"area":226.4964277267164,"year":"2018","lastUpdated":"2018-03-05T16:02:33.914372","changesets":397,"mappers":20,"roads":0.204761433691375,"buildings":1908,"edits":1962,"latest":"2016-11-18T17:08:52.000Z"},"geometry":{"type":"Point","coordinates":[49.088585976486705,-12.368065123534802]}},{"type":"Feature","properties":{"title":"Missing Maps Madagascar - Diana region, Andranovondronina commune - Road network (Step 3)","id":2334,"area":496.9408841444561,"year":"2017","lastUpdated":"2017-09-18T19:18:53.872207","changesets":65,"mappers":18,"roads":67.6376486370036,"buildings":248,"edits":564,"latest":"2017-09-18T19:16:12.000Z"},"geometry":{"type":"Point","coordinates":[49.23578959425234,-12.1067224301916]}},{"type":"Feature","properties":{"title":"Missing Maps Madagascar - Diana region, Ouest part, Mangrove (step 2)","id":2327,"area":1519.4840233328346,"year":"2018","lastUpdated":"2018-03-05T16:01:46.300017","changesets":141,"mappers":18,"roads":51.388355937872,"buildings":288,"edits":372,"latest":"2017-01-12T20:47:46.000Z"},"geometry":{"type":"Point","coordinates":[49.05745318163914,-12.348450154822281]}},{"type":"Feature","properties":{"title":"Madascar, Toliara (Tulear)  : Haruna Cyclone","id":206,"area":35.06805782513845,"year":"2017","lastUpdated":"2017-07-22T20:36:37.877424","changesets":2,"mappers":2,"roads":0.0719253541866431,"buildings":13,"edits":21,"latest":"2015-08-11T09:06:51.000Z"},"geometry":{"type":"Point","coordinates":[43.6742248474357,-23.35801368178284]}},{"type":"Feature","properties":{"title":"Healthcare access - Ifanadiana, Madagascar - 03","id":4410,"area":1365.5299485396085,"year":"2018","lastUpdated":"2018-07-08T19:32:40.247981","changesets":78,"mappers":6,"roads":54.0434253733992,"buildings":708,"edits":923,"latest":"2018-06-18T20:28:19.000Z"},"geometry":{"type":"Point","coordinates":[47.50516524581082,-21.415631085139797]}},{"type":"Feature","properties":{"title":"Peace Corps Madagascar -- Sava Region","id":2030,"area":433.6114765014878,"year":"2018","lastUpdated":"2018-04-25T03:52:12.166512","changesets":955,"mappers":90,"roads":128.353426807432,"buildings":10120,"edits":11215,"latest":"2018-05-04T01:10:44.000Z"},"geometry":{"type":"Point","coordinates":[49.811859130859375,-14.238786070993747]}},{"type":"Feature","properties":{"title":"Andohatapenaka, Madagascar, Shelter camps","id":958,"area":5.749484943643637,"year":"2017","lastUpdated":"2017-09-18T17:36:47.632557","changesets":152,"mappers":21,"roads":6.05944499273842,"buildings":973,"edits":1042,"latest":"2018-03-14T21:29:27.000Z"},"geometry":{"type":"Point","coordinates":[47.501491131693,-18.90522888560585]}}],"Ghana":[{"type":"Feature","properties":{"title":"Cape Coast, Ghana - Yemaapi Ghana - Amenities","id":4238,"area":15.035284309269873,"year":"2018","lastUpdated":"2018-03-17T13:28:36.949132","changesets":22,"mappers":11,"roads":141.350783432443,"buildings":16,"edits":38,"latest":"2018-04-16T18:14:27.000Z"},"geometry":{"type":"Point","coordinates":[-1.2768227471427498,5.117525038125339]}},{"type":"Feature","properties":{"title":"Tarkwa, Ghana - Yemaapi Ghana - Amenities","id":4249,"area":28.659723787299637,"year":"2018","lastUpdated":"2018-03-02T04:25:17.686752","changesets":5,"mappers":2,"roads":0,"buildings":54,"edits":54,"latest":"2018-06-07T16:19:32.000Z"},"geometry":{"type":"Point","coordinates":[-1.9910479955371894,5.294347901167613]}},{"type":"Feature","properties":{"title":"Open Cities Africa, Accra - Alogboshie","id":4871,"area":2.218942766602261,"year":"2018","lastUpdated":"2018-07-30T16:56:24.734756","changesets":0,"mappers":0,"roads":0,"buildings":0,"edits":0,"latest":null},"geometry":{"type":"Point","coordinates":[-0.23110360611270842,5.634197922877294]}},{"type":"Feature","properties":{"title":"Missing Maps: Ghana, Volta River, Akosombo Area Floodplain","id":3839,"area":116.42032409621953,"year":"2018","lastUpdated":"2018-07-26T02:26:01.702288","changesets":1873,"mappers":231,"roads":102.868876812679,"buildings":24516,"edits":26150,"latest":"2018-06-27T21:10:37.000Z"},"geometry":{"type":"Point","coordinates":[0.09867759840172491,6.206696903361253]}},{"type":"Feature","properties":{"title":"Dunkwa-on-Offin, Ghana","id":3859,"area":9.82966895727083,"year":"2018","lastUpdated":"2018-05-15T14:32:41.468253","changesets":0,"mappers":0,"roads":0,"buildings":0,"edits":0,"latest":null},"geometry":{"type":"Point","coordinates":[-1.7871362954800785,5.9625174505322835]}},{"type":"Feature","properties":{"title":"Missing Maps: Ghana, Volta River, Kpong Area 2 Floodplain","id":3857,"area":148.00935440911226,"year":"2018","lastUpdated":"2018-07-06T11:02:12.613424","changesets":128,"mappers":11,"roads":61.0422116799091,"buildings":1368,"edits":1524,"latest":"2018-07-06T09:41:21.000Z"},"geometry":{"type":"Point","coordinates":[0.2825742689190391,6.045989206473212]}},{"type":"Feature","properties":{"title":"Missing Maps:  Ghana, Volta River, Kpong Dam Area 1","id":3840,"area":105.40279453196466,"year":"2018","lastUpdated":"2018-07-26T02:25:19.668837","changesets":0,"mappers":0,"roads":0,"buildings":0,"edits":0,"latest":null},"geometry":{"type":"Point","coordinates":[0.1898750841541567,6.1118474489259595]}},{"type":"Feature","properties":{"title":"OpenStreetMap-Workshop-2015 #AccraFloods","id":1100,"area":0.41042591015655777,"year":"2017","lastUpdated":"2017-07-08T21:54:55.572942","changesets":487,"mappers":52,"roads":506.826280483439,"buildings":1957,"edits":4419,"latest":"2018-03-08T02:10:29.000Z"},"geometry":{"type":"Point","coordinates":[-0.21522581577301003,5.568234795153613]}},{"type":"Feature","properties":{"title":"Kumasi, Ghana","id":4767,"area":505.4883488037384,"year":"2018","lastUpdated":"2018-07-21T21:58:03.536757","changesets":0,"mappers":0,"roads":0,"buildings":0,"edits":0,"latest":null},"geometry":{"type":"Point","coordinates":[-1.612772001818897,6.69798614251772]}},{"type":"Feature","properties":{"title":"Accra University, Ghana - Yemaapi Ghana - Amenities","id":4247,"area":42.09203843894026,"year":"2018","lastUpdated":"2018-03-02T04:26:07.923336","changesets":0,"mappers":0,"roads":0,"buildings":0,"edits":0,"latest":null},"geometry":{"type":"Point","coordinates":[-0.20821913207630852,5.639828746175439]}},