{"totalEdits":44640610,"totalBuildings":37186855,"totalRoads":936547.354330424,"mappersOnline":42,"totalTasksMapped":1772182,"totalMappers":152275,"totalProjects":4293,"Turkey":[{"type":"Feature","properties":{"id":4670,"title":"Ä°zmir, TR - Missing Roads","status":"PUBLISHED","created":"2018","lastUpdated":"2018","lastActive":"no","area":321.16819346184633,"changesets":4,"mappers":1,"roads":23.316212239439,"buildings":69,"edits":253,"latest":"2018-12-28T11:28:24.000Z"},"geometry":{"type":"Point","coordinates":[27.2389037594009,38.4110852991691]}},{"type":"Feature","properties":{"id":4668,"title":"Edirne, TR - Missing Roads","status":"PUBLISHED","created":"2018","lastUpdated":"2018","lastActive":"no","area":21.74202599403713,"changesets":2,"mappers":1,"roads":8.41053048821001,"buildings":1,"edits":26,"latest":"2018-06-27T08:56:45.000Z"},"geometry":{"type":"Point","coordinates":[26.5994923933217,41.2217542874472]}},{"type":"Feature","properties":{"id":4520,"title":"Istanbul, TR - Missing Roads","status":"PUBLISHED","created":"2018","lastUpdated":"2019","lastActive":"yes","area":117.69928123734232,"changesets":686,"mappers":49,"roads":979.379894912264,"buildings":670,"edits":5395,"latest":"2019-01-08T04:12:33.000Z"},"geometry":{"type":"Point","coordinates":[28.9631041043796,41.1139468395378]}},{"type":"Feature","properties":{"id":4672,"title":"Kocaeli, TR - Missing Roads","status":"PUBLISHED","created":"2018","lastUpdated":"2018","lastActive":"no","area":113.8116471611437,"changesets":1,"mappers":1,"roads":3.09463847770831,"buildings":0,"edits":5,"latest":"2018-10-19T19:48:46.000Z"},"geometry":{"type":"Point","coordinates":[29.7787822655457,40.805939680416]}},{"type":"Feature","properties":{"id":4662,"title":"BalÄ±kesir, TR - Missing Roads","status":"PUBLISHED","created":"2018","lastUpdated":"2018","lastActive":"no","area":92.65279764674442,"changesets":104,"mappers":13,"roads":55.4801017920647,"buildings":174,"edits":273,"latest":"2018-08-19T21:23:11.000Z"},"geometry":{"type":"Point","coordinates":[27.7955443923761,39.7853046502654]}},{"type":"Feature","properties":{"id":4674,"title":"Manisa, TR - Missing Roads","status":"PUBLISHED","created":"2018","lastUpdated":"2018","lastActive":"no","area":175.30750414348074,"changesets":12,"mappers":1,"roads":51.5210039962242,"buildings":3,"edits":77,"latest":"2018-08-23T07:05:41.000Z"},"geometry":{"type":"Point","coordinates":[27.8061666274347,38.7431239021507]}},{"type":"Feature","properties":{"id":4676,"title":"Sakarya, TR - Missing Roads","status":"PUBLISHED","created":"2018","lastUpdated":"2018","lastActive":"no","area":31.29814102497075,"changesets":20,"mappers":4,"roads":43.6732948941166,"buildings":42,"edits":144,"latest":"2018-12-30T17:25:37.000Z"},"geometry":{"type":"Point","coordinates":[30.6799849241601,40.8379883132127]}},{"type":"Feature","properties":{"id":4669,"title":"EskiÅehir, TR - Missing Roads","status":"PUBLISHED","created":"2018","lastUpdated":"2018","lastActive":"no","area":64.98133666550791,"changesets":3,"mappers":1,"roads":10.1696613127676,"buildings":0,"edits":4,"latest":"2018-08-11T09:02:32.000Z"},"geometry":{"type":"Point","coordinates":[30.8129448914912,39.6421612494997]}},{"type":"Feature","properties":{"id":4677,"title":"TekirdaÄ, TR - Missing Roads","status":"ARCHIVED","created":"2018","lastUpdated":"2018","lastActive":"no","area":35.30406323744009,"changesets":159,"mappers":3,"roads":407.120124859017,"buildings":84,"edits":1081,"latest":"2018-11-21T17:48:48.000Z"},"geometry":{"type":"Point","coordinates":[27.479761582685,41.0663082320374]}},{"type":"Feature","properties":{"id":4663,"title":"Bilecik, TR - Missing Roads","status":"PUBLISHED","created":"2018","lastUpdated":"2018","lastActive":"no","area":19.980684491644894,"changesets":0,"mappers":0,"roads":0,"buildings":0,"edits":0,"latest":null},"geometry":{"type":"Point","coordinates":[30.2037401123584,40.0884749280882]}},{"type":"Feature","properties":{"id":4671,"title":"KÄ±rklareli, TR - Missing Roads","status":"PUBLISHED","created":"2018","lastUpdated":"2018","lastActive":"no","area":23.070417115860916,"changesets":107,"mappers":3,"roads":255.152331400865,"buildings":812,"edits":1893,"latest":"2018-11-04T20:25:54.000Z"},"geometry":{"type":"Point","coordinates":[27.3861577925155,41.6140623224478]}},{"type":"Feature","properties":{"id":4679,"title":"Yalova, TR - Missing Roads","status":"ARCHIVED","created":"2018","lastUpdated":"2018","lastActive":"no","area":4.715454593298084,"changesets":31,"mappers":2,"roads":41.794650022739,"buildings":0,"edits":105,"latest":"2018-11-17T19:19:03.000Z"},"geometry":{"type":"Point","coordinates":[29.2081963355238,40.6095007637619]}},{"type":"Feature","properties":{"id":4206,"title":"Bagcilar District of Istanbul, Turkey","status":"PUBLISHED","created":"2018","lastUpdated":"2018","lastActive":"no","area":22.508587182359726,"changesets":2694,"mappers":239,"roads":14.1390364050214,"buildings":20906,"edits":22517,"latest":"2018-07-05T08:55:40.000Z"},"geometry":{"type":"Point","coordinates":[28.8361537182381,41.0444995045115]}},{"type":"Feature","properties":{"id":4675,"title":"MuÄla, TR - Missing Roads","status":"PUBLISHED","created":"2018","lastUpdated":"2018","lastActive":"no","area":89.00693000558607,"changesets":6,"mappers":2,"roads":34.2752428438677,"buildings":8,"edits":90,"latest":"2018-06-21T21:14:43.000Z"},"geometry":{"type":"Point","coordinates":[28.1699963106786,37.1167088403116]}},{"type":"Feature","properties":{"id":4665,"title":"Bursa, TR - Missing Roads","status":"PUBLISHED","created":"2018","lastUpdated":"2018","lastActive":"no","area":134.8166451351369,"changesets":2,"mappers":1,"roads":4.38829477336778,"buildings":0,"edits":6,"latest":"2018-06-19T10:42:35.000Z"},"geometry":{"type":"Point","coordinates":[28.8680463618569,40.2006675064614]}},{"type":"Feature","properties":{"id":4660,"title":"AydÄ±n, TR - Missing Roads","status":"PUBLISHED","created":"2018","lastUpdated":"2018","lastActive":"no","area":87.1733000003811,"changesets":4,"mappers":1,"roads":15.6578473115068,"buildings":3,"edits":21,"latest":"2018-06-23T16:10:38.000Z"},"geometry":{"type":"Point","coordinates":[27.6318034320615,37.7408334759716]}}],"totalArea":2401214780.225954,"Philippines":[{"type":"Feature","properties":{"id":5414,"title":"Luzon, Philippines - Missing Roads Validation","status":"PUBLISHED","created":"2018","lastUpdated":"2018","lastActive":"no","area":248.88650639067384,"changesets":0,"mappers":0,"roads":0,"buildings":0,"edits":0,"latest":null},"geometry":{"type":"Point","coordinates":[120.98845026101,14.837542318174]}},{"type":"Feature","properties":{"id":2725,"title":"NOAH-UNICEF: Mapping Milagros, Masbate","status":"PUBLISHED","created":"2017","lastUpdated":"2017","lastActive":"no","area":481.5282184550585,"changesets":67,"mappers":3,"roads":61.2721158054577,"buildings":8871,"edits":9176,"latest":"2017-04-28T11:04:59.000Z"},"geometry":{"type":"Point","coordinates":[123.524087759695,12.2027594737496]}},{"type":"Feature","properties":{"id":5234,"title":"Typhoon Ompong: Isabela Structures 1","status":"ARCHIVED","created":"2018","lastUpdated":"2018","lastActive":"no","area":3692.327955202936,"changesets":8316,"mappers":379,"roads":1438.00308523173,"buildings":75407,"edits":80840,"latest":"2018-12-28T15:57:58.000Z"},"geometry":{"type":"Point","coordinates":[122.204399806909,16.9572292235093]}},{"type":"Feature","properties":{"id":5461,"title":"South Cotabato, Philippines - Mapping for Food Security","status":"PUBLISHED","created":"2018","lastUpdated":"2018","lastActive":"no","area":4377.041737939115,"changesets":234,"mappers":53,"roads":138.819512245299,"buildings":4225,"edits":4771,"latest":"2018-12-10T13:32:03.000Z"},"geometry":{"type":"Point","coordinates":[124.84600611185,6.2825458303774]}},{"type":"Feature","properties":{"id":1887,"title":"DOST-Project NOAH (ISAIAH) Structures Map Up Biliran","status":"ARCHIVED","created":"2016","lastUpdated":"2016","lastActive":"no","area":1928.294953086056,"changesets":517,"mappers":14,"roads":1.01840649614272,"buildings":48559,"edits":48868,"latest":"2016-11-27T13:52:51.000Z"},"geometry":{"type":"Point","coordinates":[124.424880553559,11.6437158228028]}},{"type":"Feature","properties":{"id":1885,"title":"DOST-Project NOAH (ISAIAH) Structures Map Up La Union","status":"PUBLISHED","created":"2016","lastUpdated":"2018","lastActive":"no","area":2912.909394539788,"changesets":301,"mappers":21,"roads":2.28880777917863,"buildings":40198,"edits":41302,"latest":"2018-06-24T04:08:57.000Z"},"geometry":{"type":"Point","coordinates":[120.344232157866,16.5775015179722]}},{"type":"Feature","properties":{"id":4934,"title":"Settlement mapping exercise - Lake Sebu, SCO, PH","status":"ARCHIVED","created":"2018","lastUpdated":"2018","lastActive":"no","area":5.951740845677327,"changesets":135,"mappers":15,"roads":18.7669911239401,"buildings":1228,"edits":1375,"latest":"2018-08-19T16:20:47.000Z"},"geometry":{"type":"Point","coordinates":[124.728218697631,6.34768561053494]}},{"type":"Feature","properties":{"id":3792,"title":"UP-NOAH Mapping Campuses (UP Manila School of Health Sciences, South Cotabato)","status":"PUBLISHED","created":"2017","lastUpdated":"2018","lastActive":"no","area":4.3460409669323505,"changesets":10,"mappers":3,"roads":0.744313973193778,"buildings":45,"edits":67,"latest":"2018-11-10T00:01:08.000Z"},"geometry":{"type":"Point","coordinates":[124.882442269799,6.44755107380189]}},{"type":"Feature","properties":{"id":3794,"title":"UP-NOAH Mapping Campuses (UP Manila School of Health Sciences, Aurora)","status":"PUBLISHED","created":"2017","lastUpdated":"2018","lastActive":"no","area":4.535501398412163,"changesets":9,"mappers":4,"roads":1.96975188471171e-9,"buildings":33,"edits":46,"latest":"2018-11-10T01:41:23.000Z"},"geometry":{"type":"Point","coordinates":[121.540786596002,15.8055494402257]}},{"type":"Feature","properties":{"id":3790,"title":"UP-NOAH Mapping Campuses (UP Open University - Headquarters)","status":"PUBLISHED","created":"2017","lastUpdated":"2017","lastActive":"no","area":1.4776756115042378,"changesets":3,"mappers":1,"roads":0.0132762322661055,"buildings":0,"edits":8,"latest":"2017-11-25T03:52:08.000Z"},"geometry":{"type":"Point","coordinates":[121.263475179868,14.1748876634663]}},{"type":"Feature","properties":{"id":336,"title":"Mapping in Laurel municipality -  SA activities","status":"ARCHIVED","created":"2013","lastUpdated":"2014","lastActive":"no","area":31.488200520668734,"changesets":66,"mappers":3,"roads":23.8203842819254,"buildings":3002,"edits":3213,"latest":"2018-10-08T00:51:39.000Z"},"geometry":{"type":"Point","coordinates":[120.941619395341,14.0665291172123]}},{"type":"Feature","properties":{"id":363,"title":"Typhoon Haiyan - Eastern Side of Panay Island ","status":"ARCHIVED","created":"2013","lastUpdated":"2017","lastActive":"no","area":5119.451144114698,"changesets":0,"mappers":0,"roads":0,"buildings":0,"edits":0,"latest":null},"geometry":{"type":"Point","coordinates":[122.82016392368,11.2188614872727]}},{"type":"Feature","properties":{"id":377,"title":"Mapping in San Nicolas, Philippines - SA activities","status":"PUBLISHED","created":"2013","lastUpdated":"2017","lastActive":"no","area":23.251952235661427,"changesets":0,"mappers":0,"roads":0,"buildings":0,"edits":0,"latest":null},"geometry":{"type":"Point","coordinates":[120.935493640075,13.933195025614]}},{"type":"Feature","properties":{"id":505,"title":"Davao City, Philippines","status":"PUBLISHED","created":"2014","lastUpdated":"2017","lastActive":"no","area":62.25155048812598,"changesets":0,"mappers":0,"roads":0,"buildings":0,"edits":0,"latest":null},"geometry":{"type":"Point","coordinates":[125.611011823409,7.08791274995429]}},{"type":"Feature","properties":{"id":4013,"title":"Quezon, PH - Missing Roads","status":"ARCHIVED","created":"2018","lastUpdated":"2018","lastActive":"no","area":1.3650857673810763,"changesets":24,"mappers":3,"roads":27.0015314027589,"buildings":24,"edits":436,"latest":"2018-09-05T13:24:03.000Z"},"geometry":{"type":"Point","coordinates":[121.763577972109,14.0786702514115]}},{"type":"Feature","properties":{"id":4015,"title":"Laguna, PH - Missing Roads","status":"ARCHIVED","created":"2018","lastUpdated":"2018","lastActive":"no","area":5.171315826889603,"changesets":53,"mappers":3,"roads":105.174397195752,"buildings":24,"edits":1065,"latest":"2018-02-19T18:00:45.000Z"},"geometry":{"type":"Point","coordinates":[121.156738344188,14.2286920198256]}},{"type":"Feature","properties":{"id":5242,"title":"Typhoon Ompong: Cordillera Region structures","status":"ARCHIVED","created":"2018","lastUpdated":"2018","lastActive":"no","area":3806.647315749907,"changesets":2928,"mappers":235,"roads":292.324477616132,"buildings":28501,"edits":29862,"latest":"2018-11-18T23:16:35.000Z"},"geometry":{"type":"Point","coordinates":[121.150332148109,18.0659829308276]}},{"type":"Feature","properties":{"id":4044,"title":"CRS-UP NOAH Building Footprints Mapping - Navotas City","status":"PUBLISHED","created":"2018","lastUpdated":"2018","lastActive":"no","area":10.600105663830165,"changesets":1,"mappers":1,"roads":0,"buildings":0,"edits":2,"latest":"2018-03-22T20:25:17.000Z"},"geometry":{"type":"Point","coordinates":[120.935847530771,14.6751386840262]}},{"type":"Feature","properties":{"id":4165,"title":"Cavite, PH - Missing Roads","status":"ARCHIVED","created":"2018","lastUpdated":"2018","lastActive":"no","area":8.147770355865646,"changesets":0,"mappers":0,"roads":0,"buildings":0,"edits":0,"latest":null},"geometry":{"type":"Point","coordinates":[120.959868463266,14.2904291173807]}},{"type":"Feature","properties":{"id":4306,"title":"CRS-UP NOAH Building Footprints Mapping - Malabon City (Free for All)","status":"PUBLISHED","created":"2018","lastUpdated":"2018","lastActive":"no","area":0.8869727357098613,"changesets":11,"mappers":2,"roads":0,"buildings":86,"edits":86,"latest":"2018-03-18T13:04:12.000Z"},"geometry":{"type":"Point","coordinates":[120.961255644921,14.6574777075648]}},{"type":"Feature","properties":{"id":4180,"title":"Metro Manila, PH - Road Alignment","status":"ARCHIVED","created":"2018","lastUpdated":"2018","lastActive":"no","area":183.45449881914288,"changesets":0,"mappers":0,"roads":0,"buildings":0,"edits":0,"latest":null},"geometry":{"type":"Point","coordinates":[121.036352449656,14.5961072763956]}},{"type":"Feature","properties":{"id":4792,"title":"CRS-UP NOAH Building Footprints Mapping - Navotas","status":"PUBLISHED","created":"2018","lastUpdated":"2018","lastActive":"no","area":10.600105663775858,"changesets":89,"mappers":24,"roads":2.5162272456996,"buildings":3294,"edits":3363,"latest":"2018-10-22T01:34:25.000Z"},"geometry":{"type":"Point","coordinates":[120.935847530772,14.6751386840264]}},{"type":"Feature","properties":{"id":5523,"title":"Post-Disaster Mapping in Brgy Cantao-An, Naga City, Cebu","status":"PUBLISHED","created":"2018","lastUpdated":"2018","lastActive":"no","area":8.578373136287787,"changesets":257,"mappers":8,"roads":0.0144907976786474,"buildings":1560,"edits":1566,"latest":"2018-11-26T21:11:14.000Z"},"geometry":{"type":"Point","coordinates":[123.751319151188,10.2496391615833]}},{"type":"Feature","properties":{"id":133,"title":"Baganga - Typhoon Bopha/Pablo","status":"ARCHIVED","created":"2012","lastUpdated":"2018","lastActive":"no","area":148.7861752355768,"changesets":69,"mappers":12,"roads":133.600912887323,"buildings":13328,"edits":13762,"latest":"2018-11-23T08:46:03.000Z"},"geometry":{"type":"Point","coordinates":[126.545160760843,7.60391729996262]}},{"type":"Feature","properties":{"id":131,"title":"New Bataan - Typhoon Bopha/Pablo","status":"ARCHIVED","created":"2012","lastUpdated":"2018","lastActive":"no","area":106.888571010529,"changesets":719,"mappers":33,"roads":2498.97338320675,"buildings":83340,"edits":93909,"latest":"2018-08-18T10:08:02.000Z"},"geometry":{"type":"Point","coordinates":[126.108576736349,7.55772514395339]}},{"type":"Feature","properties":{"id":5569,"title":"Post-Disaster Mapping in Brgy Uling and Brgy. Pangdan, Naga City, Cebu","status":"PUBLISHED","created":"2018","lastUpdated":"2018","lastActive":"no","area":15.048594361484898,"changesets":191,"mappers":17,"roads":1.59122621032686,"buildings":2435,"edits":2450,"latest":"2018-12-05T04:51:57.000Z"},"geometry":{"type":"Point","coordinates":[123.721821915621,10.267601668473]}},{"type":"Feature","properties":{"id":5256,"title":"Post-Disaster Mapping in Brgy. Naalad and Brgy. Tinaan, Naga City, Cebu","status":"ARCHIVED","created":"2018","lastUpdated":"2018","lastActive":"no","area":4.081334180056122,"changesets":81,"mappers":14,"roads":0.541248657808227,"buildings":2559,"edits":2569,"latest":"2018-09-21T20:43:42.000Z"},"geometry":{"type":"Point","coordinates":[123.744010558498,10.2094401920945]}},{"type":"Feature","properties":{"id":2449,"title":"Missing Maps: San Jose, Panay Island, Philippines","status":"PUBLISHED","created":"2017","lastUpdated":"2018","lastActive":"no","area":92.17194200794256,"changesets":7079,"mappers":210,"roads":144.04700009821,"buildings":23700,"edits":26904,"latest":"2018-03-08T02:15:30.000Z"},"geometry":{"type":"Point","coordinates":[121.979876421365,10.7629163243417]}},{"type":"Feature","properties":{"id":5436,"title":"Palawan Region, Philippines - Mapping for Food Security","status":"ARCHIVED","created":"2018","lastUpdated":"2018","lastActive":"no","area":6259.0846636785745,"changesets":7,"mappers":5,"roads":10.3378114534038,"buildings":332,"edits":373,"latest":"2018-11-08T15:53:48.000Z"},"geometry":{"type":"Point","coordinates":[118.604119573544,9.73950098809045]}},{"type":"Feature","properties":{"id":5448,"title":"Palawan Region, El Nido, Philippines - Mapping for Food Security","status":"PUBLISHED","created":"2018","lastUpdated":"2019","lastActive":"no","area":531.8008952420495,"changesets":105,"mappers":30,"roads":16.0389686887453,"buildings":734,"edits":810,"latest":"2019-01-04T16:22:39.000Z"},"geometry":{"type":"Point","coordinates":[119.456004378106,11.2053832796224]}},{"type":"Feature","properties":{"id":5434,"title":"Panabo, Davao del Norte, Philippines - MapPH","status":"PUBLISHED","created":"2018","lastUpdated":"2018","lastActive":"no","area":111.37433144550731,"changesets":2896,"mappers":116,"roads":149.153513368543,"buildings":31674,"edits":33392,"latest":"2018-11-21T19:59:39.000Z"},"geometry":{"type":"Point","coordinates":[125.654373572769,7.31201677488237]}},{"type":"Feature","properties":{"id":5352,"title":"[demo] local villages, San Juan, NCR","status":"ARCHIVED","created":"2018","lastUpdated":"2018","lastActive":"no","area":5.8122326022660795,"changesets":0,"mappers":0,"roads":0,"buildings":0,"edits":0,"latest":null},"geometry":{"type":"Point","coordinates":[121.036699803478,14.6024727102402]}},{"type":"Feature","properties":{"id":5435,"title":"Mindanao Region, Misamis Oriental (northern), Philippines - Mapping for Food Security","status":"PUBLISHED","created":"2018","lastUpdated":"2018","lastActive":"no","area":2072.929989519479,"changesets":339,"mappers":39,"roads":179.949825684978,"buildings":7380,"edits":7898,"latest":"2018-11-29T20:40:41.000Z"},"geometry":{"type":"Point","coordinates":[124.994799793291,8.76680642717642]}},{"type":"Feature","properties":{"id":5462,"title":"Benguet, Philippines - Mapping for Food Security","status":"PUBLISHED","created":"2018","lastUpdated":"2018","lastActive":"no","area":2654.203403404713,"changesets":69,"mappers":18,"roads":5.92867643282129,"buildings":743,"edits":784,"latest":"2018-12-04T13:39:23.000Z"},"geometry":{"type":"Point","coordinates":[120.704193530323,16.5391664023582]}},{"type":"Feature","properties":{"id":4793,"title":"CRS-UP NOAH Building Footprints Mapping - Meycauayan, Bulacan","status":"PUBLISHED","created":"2018","lastUpdated":"2018","lastActive":"no","area":31.969074351640266,"changesets":571,"mappers":62,"roads":18.1002836567397,"buildings":9560,"edits":10821,"latest":"2018-09-28T05:07:19.000Z"},"geometry":{"type":"Point","coordinates":[120.967937667105,14.752384032173]}},{"type":"Feature","properties":{"id":4874,"title":"Lake Sebu village mapping exercise - A.M. Session","status":"ARCHIVED","created":"2018","lastUpdated":"2018","lastActive":"no","area":0.3850677131208663,"changesets":89,"mappers":12,"roads":2.37643701969865,"buildings":293,"edits":329,"latest":"2018-07-31T11:08:31.000Z"},"geometry":{"type":"Point","coordinates":[124.724594976853,6.29004664300618]}},{"type":"Feature","properties":{"id":4216,"title":"Northern Mindanao, PH - Missing Roads","status":"ARCHIVED","created":"2018","lastUpdated":"2018","lastActive":"no","area":3.6160059552083452,"changesets":0,"mappers":0,"roads":0,"buildings":0,"edits":0,"latest":null},"geometry":{"type":"Point","coordinates":[124.546122781293,8.38191901642987]}},{"type":"Feature","properties":{"id":5483,"title":"Samar Eastern, Philippines - Mapping for Food Security","status":"PUBLISHED","created":"2018","lastUpdated":"2018","lastActive":"no","area":4305.267408054197,"changesets":173,"mappers":55,"roads":28.1269868083261,"buildings":1318,"edits":1570,"latest":"2018-12-11T21:42:16.000Z"},"geometry":{"type":"Point","coordinates":[125.380313420073,11.6564103271826]}},{"type":"Feature","properties":{"id":4202,"title":"Mayon Volcano USAID & USGS","status":"PUBLISHED","created":"2018","lastUpdated":"2018","lastActive":"no","area":23.191221545963582,"changesets":509,"mappers":108,"roads":38.4903837034172,"buildings":8863,"edits":9277,"latest":"2018-12-06T02:41:21.000Z"},"geometry":{"type":"Point","coordinates":[123.716571523024,13.3049864402658]}},{"type":"Feature","properties":{"id":5421,"title":"PRC-VCAD project sites","status":"PUBLISHED","created":"2018","lastUpdated":"2018","lastActive":"no","area":1978.0745869605585,"changesets":9,"mappers":2,"roads":23.8884778366055,"buildings":184,"edits":542,"latest":"2018-11-06T15:36:38.000Z"},"geometry":{"type":"Point","coordinates":[122.624235299629,12.3256284958559]}},{"type":"Feature","properties":{"id":3791,"title":"UP-NOAH Mapping Campuses (UP Mindanao)","status":"PUBLISHED","created":"2017","lastUpdated":"2018","lastActive":"no","area":3.6910639697608496,"changesets":46,"mappers":7,"roads":0.316847621285429,"buildings":575,"edits":608,"latest":"2018-11-15T19:31:54.000Z"},"geometry":{"type":"Point","coordinates":[125.486253418547,7.08574725915938]}},{"type":"Feature","properties":{"id":5464,"title":"Ifugao, Philippines - Mapping for Food Security","status":"PUBLISHED","created":"2018","lastUpdated":"2018","lastActive":"no","area":2517.361965974961,"changesets":395,"mappers":59,"roads":65.38103350358,"buildings":3061,"edits":3308,"latest":"2018-11-16T17:39:50.000Z"},"geometry":{"type":"Point","coordinates":[121.214348946442,16.8519828787362]}},{"type":"Feature","properties":{"id":5458,"title":"Mindanao Region, Misamis Oriental (southern), Philippines - Food Security","status":"PUBLISHED","created":"2018","lastUpdated":"2018","lastActive":"no","area":1277.0811871734315,"changesets":107,"mappers":11,"roads":12.3446250735719,"buildings":247,"edits":296,"latest":"2018-12-06T14:25:01.000Z"},"geometry":{"type":"Point","coordinates":[124.513786993793,8.45080046521423]}},{"type":"Feature","properties":{"id":115,"title":"Typhoon Bopha/Pablo Response Eastern Mindanao Philippines","status":"ARCHIVED","created":"2012","lastUpdated":"2014","lastActive":"no","area":16387.592340836713,"changesets":292,"mappers":13,"roads":276.234321336455,"buildings":39143,"edits":41774,"latest":"2018-11-28T01:53:49.000Z"},"geometry":{"type":"Point","coordinates":[126.210497930795,7.78677618840503]}},{"type":"Feature","properties":{"id":3239,"title":"Barangay San Antonio, MacArthur, Leyte - Missing Maps","status":"ARCHIVED","created":"2017","lastUpdated":"2017","lastActive":"no","area":0.12122390001585517,"changesets":26,"mappers":5,"roads":0.750278355840365,"buildings":335,"edits":380,"latest":"2017-07-10T14:14:28.000Z"},"geometry":{"type":"Point","coordinates":[124.892070662961,10.8277155387306]}},{"type":"Feature","properties":{"id":3225,"title":"Barangay Aslum, Alang Alang, Leyte, Philippines - Missing Maps","status":"ARCHIVED","created":"2017","lastUpdated":"2018","lastActive":"no","area":0.6055093365400158,"changesets":49,"mappers":4,"roads":7.73812367006566,"buildings":376,"edits":730,"latest":"2017-12-19T21:06:45.000Z"},"geometry":{"type":"Point","coordinates":[124.884755059024,11.1692880712302]}},{"type":"Feature","properties":{"id":3227,"title":"Barangay Burabod, MacArthur, Leyte, Philippines - Missing Maps","status":"ARCHIVED","created":"2017","lastUpdated":"2017","lastActive":"no","area":0.6983851403478792,"changesets":21,"mappers":3,"roads":2.37254205259137,"buildings":154,"edits":212,"latest":"2017-10-23T15:37:40.000Z"},"geometry":{"type":"Point","coordinates":[124.939180347741,10.8374430356225]}},{"type":"Feature","properties":{"id":1458,"title":"Northern Cebu Risk Mapping Project - Bogo City","status":"ARCHIVED","created":"2016","lastUpdated":"2018","lastActive":"no","area":185.2414334365492,"changesets":579,"mappers":66,"roads":60.0266484741038,"buildings":23617,"edits":26886,"latest":"2017-02-15T08:51:57.000Z"},"geometry":{"type":"Point","coordinates":[123.993777935566,11.0245272303029]}},{"type":"Feature","properties":{"id":1509,"title":"Northern Cebu Risk Mapping Project - Daanbantayan and Medellin","status":"PUBLISHED","created":"2016","lastUpdated":"2018","lastActive":"no","area":165.4687088247908,"changesets":738,"mappers":125,"roads":62.7229363982263,"buildings":15949,"edits":19110,"latest":"2018-08-25T04:09:52.000Z"},"geometry":{"type":"Point","coordinates":[124.000804368288,11.18293581575]}},{"type":"Feature","properties":{"id":1636,"title":"DOST-Project NOAH (ISAIAH) Structures Map Up Cavite","status":"PUBLISHED","created":"2016","lastUpdated":"2017","lastActive":"no","area":1236.7930267854183,"changesets":11018,"mappers":38,"roads":25.913009487454,"buildings":811687,"edits":826206,"latest":"2018-07-25T08:21:28.000Z"},"geometry":{"type":"Point","coordinates":[120.869224835751,14.2555520122718]}}],"Indonesia":[{"type":"Feature","properties":{"id":896,"title":"Data Preparedness Activity in Kabupaten Situbondo, East Java, Indonesia","status":"PUBLISHED","created":"2015","lastUpdated":"2018","lastActive":"no","area":1673.1534225044552,"changesets":44,"mappers":8,"roads":27.4505932486567,"buildings":4059,"edits":4229,"latest":"2018-08-07T23:11:48.000Z"},"geometry":{"type":"Point","coordinates":[114.052435183027,-7.80132659749921]}},{"type":"Feature","properties":{"id":3037,"title":"Missing Maps: Cilincing Sub Districs #PDC Jakarta","status":"ARCHIVED","created":"2017","lastUpdated":"2017","lastActive":"no","area":41.17584204145506,"changesets":370,"mappers":7,"roads":44.6930557805136,"buildings":61048,"edits":65886,"latest":"2017-10-05T06:00:38.000Z"},"geometry":{"type":"Point","coordinates":[106.943262692355,-6.12798931279952]}},{"type":"Feature","properties":{"id":2749,"title":"Missing Maps: Kemayoran Sub Districs #PDC Jakarta","status":"ARCHIVED","created":"2017","lastUpdated":"2017","lastActive":"no","area":7.795259817267811,"changesets":251,"mappers":4,"roads":14.5073181796966,"buildings":32519,"edits":34144,"latest":"2017-10-04T05:34:24.000Z"},"geometry":{"type":"Point","coordinates":[106.855013657131,-6.16163036742218]}},{"type":"Feature","properties":{"id":3017,"title":"Missing Maps: Pasar Rebo Sub Districs #PDC Jakarta","status":"ARCHIVED","created":"2017","lastUpdated":"2017","lastActive":"no","area":12.342260215364801,"changesets":351,"mappers":5,"roads":10.8466904443053,"buildings":37866,"edits":39283,"latest":"2017-10-06T07:49:46.000Z"},"geometry":{"type":"Point","coordinates":[106.857470769184,-6.3271561630854]}},{"type":"Feature","properties":{"id":2810,"title":"Missing Maps: Cakung Sub Districs #PDC Jakarta","status":"ARCHIVED","created":"2017","lastUpdated":"2017","lastActive":"no","area":40.6731416648683,"changesets":928,"mappers":4,"roads":41.6128199606069,"buildings":102543,"edits":108164,"latest":"2017-09-12T04:31:11.000Z"},"geometry":{"type":"Point","coordinates":[106.940749285978,-6.18934724786333]}},{"type":"Feature","properties":{"id":2690,"title":"Missing Maps: Johar Baru Sub Districs #PDCJakarta","status":"ARCHIVED","created":"2017","lastUpdated":"2017","lastActive":"no","area":2.4040925614066637,"changesets":287,"mappers":7,"roads":10.3530194607153,"buildings":16558,"edits":19052,"latest":"2017-06-02T07:47:00.000Z"},"geometry":{"type":"Point","coordinates":[106.854584144217,-6.18210953519141]}},{"type":"Feature","properties":{"id":2682,"title":"Missing Maps: Mampang Prapatan Sub Districs #PDC Jakarta","status":"ARCHIVED","created":"2017","lastUpdated":"2017","lastActive":"no","area":7.937678176628443,"changesets":322,"mappers":8,"roads":27.7159762684502,"buildings":34460,"edits":37381,"latest":"2017-09-25T07:37:28.000Z"},"geometry":{"type":"Point","coordinates":[106.821002574256,-6.25223001999702]}},{"type":"Feature","properties":{"id":3031,"title":"Missing Maps: Grogol Petamburan Sub Districs #PDC Jakarta","status":"ARCHIVED","created":"2017","lastUpdated":"2017","lastActive":"no","area":10.805656337791167,"changesets":218,"mappers":5,"roads":3.98900637661907,"buildings":47671,"edits":49629,"latest":"2017-10-03T12:21:38.000Z"},"geometry":{"type":"Point","coordinates":[106.786483931117,-6.16359030555416]}},{"type":"Feature","properties":{"id":3035,"title":"Missing Maps: Koja Sub Districs #PDC Jakarta","status":"ARCHIVED","created":"2017","lastUpdated":"2017","lastActive":"no","area":9.89511853564706,"changesets":450,"mappers":10,"roads":18.8340571467575,"buildings":50848,"edits":53904,"latest":"2017-10-06T01:23:57.000Z"},"geometry":{"type":"Point","coordinates":[106.905929549656,-6.12538848485847]}},{"type":"Feature","properties":{"id":2686,"title":"Missing Maps: Kramat Jati Sub Districs #PDCJakarta","status":"ARCHIVED","created":"2017","lastUpdated":"2018","lastActive":"no","area":13.129244982799834,"changesets":567,"mappers":19,"roads":285.753576206208,"buildings":102534,"edits":113731,"latest":"2017-08-18T10:11:25.000Z"},"geometry":{"type":"Point","coordinates":[106.865408049316,-6.27652035093109]}},{"type":"Feature","properties":{"id":2688,"title":"Missing Maps: Matraman Sub Districs #PDCJakarta","status":"ARCHIVED","created":"2017","lastUpdated":"2017","lastActive":"no","area":4.852162587562553,"changesets":558,"mappers":6,"roads":38.9919910337758,"buildings":33387,"edits":36523,"latest":"2017-08-12T01:41:26.000Z"},"geometry":{"type":"Point","coordinates":[106.86450901734,-6.20369990102316]}},{"type":"Feature","properties":{"id":2684,"title":"Missing Maps: Tebet Sub Districs #PDC Jakarta","status":"ARCHIVED","created":"2017","lastUpdated":"2017","lastActive":"no","area":9.408890607713326,"changesets":497,"mappers":20,"roads":19.6793730101626,"buildings":31333,"edits":34092,"latest":"2017-07-19T03:42:49.000Z"},"geometry":{"type":"Point","coordinates":[106.8508708311,-6.22882722261039]}},{"type":"Feature","properties":{"id":3025,"title":"Missing Maps: Cilandak Sub Districs #PDC Jakarta","status":"ARCHIVED","created":"2017","lastUpdated":"2017","lastActive":"no","area":17.826440731180615,"changesets":183,"mappers":4,"roads":28.6590632722901,"buildings":26772,"edits":28477,"latest":"2017-09-18T02:21:25.000Z"},"geometry":{"type":"Point","coordinates":[106.793307284061,-6.29318797958196]}},{"type":"Feature","properties":{"id":3021,"title":"Missing Maps: Kali Deres Sub Districs #PDC Jakarta","status":"ARCHIVED","created":"2017","lastUpdated":"2017","lastActive":"no","area":29.932357603667022,"changesets":1472,"mappers":7,"roads":51.32161785343,"buildings":63634,"edits":68367,"latest":"2017-11-09T10:14:00.000Z"},"geometry":{"type":"Point","coordinates":[106.703602395224,-6.13440116229757]}},{"type":"Feature","properties":{"id":561,"title":"Bukittinggi","status":"PUBLISHED","created":"2014","lastUpdated":"2018","lastActive":"no","area":22.79253327213511,"changesets":0,"mappers":0,"roads":0,"buildings":0,"edits":0,"latest":null},"geometry":{"type":"Point","coordinates":[100.372733667836,-0.298313971675028]}},{"type":"Feature","properties":{"id":454,"title":"Help digitize buildings & roads for better emergency response in Mt. Slamet ","status":"PUBLISHED","created":"2014","lastUpdated":"2018","lastActive":"no","area":6.940715703178464,"changesets":0,"mappers":0,"roads":0,"buildings":0,"edits":0,"latest":null},"geometry":{"type":"Point","coordinates":[109.216043387363,-7.24129473882666]}},{"type":"Feature","properties":{"id":135,"title":"Mapping Selayar Island Indonesia for Preparedness","status":"PUBLISHED","created":"2013","lastUpdated":"2018","lastActive":"no","area":718.4990620335725,"changesets":4,"mappers":2,"roads":0,"buildings":253,"edits":253,"latest":"2017-07-11T09:28:41.000Z"},"geometry":{"type":"Point","coordinates":[120.49588939269,-6.09859405108333]}},{"type":"Feature","properties":{"id":5612,"title":"Pemetaan Kabupaten Demak","status":"PUBLISHED","created":"2018","lastUpdated":"2018","lastActive":"no","area":1008.9633458381105,"changesets":14,"mappers":9,"roads":0.502022963050566,"buildings":65,"edits":68,"latest":"2018-12-17T09:11:39.000Z"},"geometry":{"type":"Point","coordinates":[110.631849970141,-6.91083578731942]}},{"type":"Feature","properties":{"id":2278,"title":"Missing Maps: Bogor","status":"ARCHIVED","created":"2016","lastUpdated":"2017","lastActive":"no","area":105.95848593815685,"changesets":1920,"mappers":154,"roads":20.9793348838668,"buildings":13870,"edits":14971,"latest":"2017-03-09T16:57:18.000Z"},"geometry":{"type":"Point","coordinates":[106.796593334081,-6.58050416012029]}},{"type":"Feature","properties":{"id":2751,"title":"Missing Maps: Gambir Sub Districs #PDC Jakarta","status":"ARCHIVED","created":"2017","lastUpdated":"2017","lastActive":"no","area":7.532639425068289,"changesets":233,"mappers":6,"roads":17.4080305784869,"buildings":17606,"edits":19317,"latest":"2017-07-19T06:19:32.000Z"},"geometry":{"type":"Point","coordinates":[106.818041882526,-6.17148897715882]}},{"type":"Feature","properties":{"id":2649,"title":"Missing Maps: Bogor, Indonesia #1","status":"PUBLISHED","created":"2017","lastUpdated":"2017","lastActive":"no","area":10.061609702608509,"changesets":2346,"mappers":184,"roads":18.0713252341816,"buildings":12765,"edits":14933,"latest":"2017-06-14T08:21:14.000Z"},"geometry":{"type":"Point","coordinates":[106.780059310318,-6.5726612113942]}},{"type":"Feature","properties":{"id":1031,"title":"Aktivitas Pengumpulan Data di Kabupaten Timor Tengah Utara (TTU)","status":"PUBLISHED","created":"2015","lastUpdated":"2015","lastActive":"no","area":2631.88847539912,"changesets":9,"mappers":2,"roads":1.51273446172416,"buildings":70,"edits":150,"latest":"2015-05-11T10:23:20.000Z"},"geometry":{"type":"Point","coordinates":[124.569651212504,-9.37751060730675]}},{"type":"Feature","properties":{"id":2754,"title":"Missing Maps: Tambora Sub Districs #PDC Jakarta","status":"ARCHIVED","created":"2017","lastUpdated":"2017","lastActive":"no","area":5.505383816688497,"changesets":880,"mappers":38,"roads":182.465308905547,"buildings":47577,"edits":56756,"latest":"2017-10-04T05:20:50.000Z"},"geometry":{"type":"Point","coordinates":[106.803435638742,-6.14738508282838]}},{"type":"Feature","properties":{"id":2746,"title":"Missing Maps: Duren Sawit Sub Districs #PDC Jakarta","status":"ARCHIVED","created":"2017","lastUpdated":"2017","lastActive":"no","area":22.148429067321256,"changesets":491,"mappers":5,"roads":51.0456149564015,"buildings":72543,"edits":79091,"latest":"2017-10-25T02:03:27.000Z"},"geometry":{"type":"Point","coordinates":[106.920640753233,-6.23259939543375]}},{"type":"Feature","properties":{"id":4052,"title":"Missing Maps: Pedurungan Sub Districts #PDC Semarang","status":"PUBLISHED","created":"2018","lastUpdated":"2018","lastActive":"no","area":22.337854701407565,"changesets":481,"mappers":31,"roads":46.6776194885713,"buildings":47970,"edits":49143,"latest":"2018-07-23T03:01:55.000Z"},"geometry":{"type":"Point","coordinates":[110.473977056036,-7.00223449583275]}},{"type":"Feature","properties":{"id":95,"title":"Help Digitize Tasikmalaya District for Landslide Assessment ","status":"PUBLISHED","created":"2012","lastUpdated":"2017","lastActive":"no","area":685.6501175075578,"changesets":46,"mappers":1,"roads":436.767067173753,"buildings":6912,"edits":7609,"latest":"2018-01-16T05:09:12.000Z"},"geometry":{"type":"Point","coordinates":[108.024904083238,-7.45993579925139]}},{"type":"Feature","properties":{"id":3026,"title":"Missing Maps: Pesanggrahan Sub Districs #PDC Jakarta","status":"ARCHIVED","created":"2017","lastUpdated":"2017","lastActive":"no","area":13.487998414241458,"changesets":251,"mappers":7,"roads":56.5381680229144,"buildings":41668,"edits":48093,"latest":"2017-10-02T08:03:28.000Z"},"geometry":{"type":"Point","coordinates":[106.758795953061,-6.25061223746763]}},{"type":"Feature","properties":{"id":3020,"title":"Missing Maps: Taman Sari Sub Districs #PDC Jakarta","status":"ARCHIVED","created":"2017","lastUpdated":"2017","lastActive":"no","area":4.54761799681661,"changesets":109,"mappers":3,"roads":19.8164513461639,"buildings":12721,"edits":14125,"latest":"2017-08-28T03:47:21.000Z"},"geometry":{"type":"Point","coordinates":[106.818291468151,-6.1480152119583]}},{"type":"Feature","properties":{"id":3018,"title":"Missing Maps: Cipayung Sub Districs #PDC Jakarta","status":"ARCHIVED","created":"2017","lastUpdated":"2017","lastActive":"no","area":28.30154903074125,"changesets":275,"mappers":8,"roads":83.3339668041295,"buildings":74181,"edits":77136,"latest":"2017-08-30T03:44:15.000Z"},"geometry":{"type":"Point","coordinates":[106.903499743806,-6.32573709887508]}},{"type":"Feature","properties":{"id":3022,"title":"Missing Maps: Pademangan Sub Districs #PDC Jakarta","status":"ARCHIVED","created":"2017","lastUpdated":"2017","lastActive":"no","area":17.827098830040605,"changesets":346,"mappers":8,"roads":153.407026575275,"buildings":30590,"edits":39877,"latest":"2017-10-26T09:33:55.000Z"},"geometry":{"type":"Point","coordinates":[106.852281816423,-6.12226440717232]}},{"type":"Feature","properties":{"id":3036,"title":"Missing Maps: Kelapa Gading Sub Districs #PDC Jakarta","status":"ARCHIVED","created":"2017","lastUpdated":"2017","lastActive":"no","area":15.528538143753476,"changesets":117,"mappers":4,"roads":149.40801202277,"buildings":31103,"edits":37501,"latest":"2017-10-02T03:57:46.000Z"},"geometry":{"type":"Point","coordinates":[106.903887020811,-6.16149093687374]}},{"type":"Feature","properties":{"id":3030,"title":"Missing Maps: Sawah Besar Sub Districs #PDC Jakarta","status":"ARCHIVED","created":"2017","lastUpdated":"2017","lastActive":"no","area":5.440310267845165,"changesets":133,"mappers":3,"roads":15.8262917961787,"buildings":12940,"edits":13867,"latest":"2017-08-04T04:30:15.000Z"},"geometry":{"type":"Point","coordinates":[106.83314677533,-6.15413667191174]}},{"type":"Feature","properties":{"id":3024,"title":"Missing Maps: Pasar Minggu Sub Districs #PDC Jakarta","status":"ARCHIVED","created":"2017","lastUpdated":"2017","lastActive":"no","area":21.761532552185738,"changesets":1083,"mappers":5,"roads":165.606518286917,"buildings":59648,"edits":71407,"latest":"2017-11-06T03:43:48.000Z"},"geometry":{"type":"Point","coordinates":[106.829340706002,-6.29072437783467]}},{"type":"Feature","properties":{"id":3034,"title":"Missing Maps: Tanjung Priok Sub Districs #PDC Jakarta","status":"ARCHIVED","created":"2017","lastUpdated":"2017","lastActive":"no","area":20.15061201281578,"changesets":374,"mappers":16,"roads":1.28290461708598,"buildings":54267,"edits":55399,"latest":"2017-10-13T02:51:12.000Z"},"geometry":{"type":"Point","coordinates":[106.874349153301,-6.13557873230582]}},{"type":"Feature","properties":{"id":3028,"title":"Missing Maps: Kebayoran Lama Sub Districs #PDC Jakarta","status":"ARCHIVED","created":"2017","lastUpdated":"2017","lastActive":"no","area":19.26976843037759,"changesets":335,"mappers":8,"roads":62.00245880754,"buildings":47777,"edits":51474,"latest":"2017-09-27T03:17:09.000Z"},"geometry":{"type":"Point","coordinates":[106.780207081608,-6.25004536188288]}},{"type":"Feature","properties":{"id":3032,"title":"Missing Maps: Cengkareng Sub Districs #PDC Jakarta","status":"ARCHIVED","created":"2017","lastUpdated":"2017","lastActive":"no","area":25.82857150432463,"changesets":866,"mappers":16,"roads":8.1098523832297,"buildings":77439,"edits":80659,"latest":"2017-11-07T08:20:40.000Z"},"geometry":{"type":"Point","coordinates":[106.736991116163,-6.15144367320129]}},{"type":"Feature","properties":{"id":3638,"title":"Mont Agung (Bali, Indonesia)","status":"ARCHIVED","created":"2017","lastUpdated":"2017","lastActive":"no","area":1441.56284076509,"changesets":0,"mappers":0,"roads":0,"buildings":0,"edits":0,"latest":null},"geometry":{"type":"Point","coordinates":[115.468245563688,-8.41743231363821]}},{"type":"Feature","properties":{"id":908,"title":"Karangetang Volcano Mitigation and Preparedness","status":"PUBLISHED","created":"2015","lastUpdated":"2017","lastActive":"no","area":126.20571151989787,"changesets":451,"mappers":33,"roads":27.2139922947724,"buildings":1850,"edits":2105,"latest":"2017-09-07T16:46:00.000Z"},"geometry":{"type":"Point","coordinates":[125.401234797259,2.73690010041481]}},{"type":"Feature","properties":{"id":1011,"title":"Aktivitas Pengumpulan Data di DAS Jeneberang","status":"PUBLISHED","created":"2015","lastUpdated":"2015","lastActive":"no","area":2353.106322075065,"changesets":83,"mappers":3,"roads":18.9318585168149,"buildings":1318,"edits":2128,"latest":"2015-08-12T05:02:39.000Z"},"geometry":{"type":"Point","coordinates":[119.730948333476,-5.2697108809525]}},{"type":"Feature","properties":{"id":1064,"title":"Lokon Eruption, Tomohon, North Sulawesi","status":"ARCHIVED","created":"2015","lastUpdated":"2017","lastActive":"no","area":301.05854055841337,"changesets":107,"mappers":8,"roads":103.342312368624,"buildings":1987,"edits":2744,"latest":"2015-07-30T02:44:33.000Z"},"geometry":{"type":"Point","coordinates":[124.777879000023,1.37015517859608]}},{"type":"Feature","properties":{"id":1032,"title":"Mapping Activity in Nagekeo District, NTT","status":"PUBLISHED","created":"2015","lastUpdated":"2015","lastActive":"no","area":1450.2407534924623,"changesets":0,"mappers":0,"roads":0,"buildings":0,"edits":0,"latest":null},"geometry":{"type":"Point","coordinates":[121.269705764205,-8.68766778892447]}},{"type":"Feature","properties":{"id":1149,"title":"Exposure Mapping in Lembata District, NTT","status":"PUBLISHED","created":"2015","lastUpdated":"2017","lastActive":"no","area":1267.3428895525565,"changesets":560,"mappers":14,"roads":478.898477952848,"buildings":35341,"edits":38868,"latest":"2018-03-03T19:23:11.000Z"},"geometry":{"type":"Point","coordinates":[123.54234419197,-8.38028074282829]}},{"type":"Feature","properties":{"id":1013,"title":"Aktivitas Pengumpulan Data di Ancaman Gempa Bumi","status":"PUBLISHED","created":"2015","lastUpdated":"2018","lastActive":"no","area":12064.797843912818,"changesets":32,"mappers":3,"roads":44.8710683798205,"buildings":826,"edits":1174,"latest":"2018-10-01T16:08:41.000Z"},"geometry":{"type":"Point","coordinates":[120.769267743527,-2.5142859621583]}},{"type":"Feature","properties":{"id":4056,"title":"Missing Maps: Semarang Tengah Sub Districts #PDC Semarang","status":"ARCHIVED","created":"2018","lastUpdated":"2018","lastActive":"no","area":5.39883144937884,"changesets":47,"mappers":3,"roads":1.56794116826866,"buildings":550,"edits":773,"latest":"2018-06-28T02:48:20.000Z"},"geometry":{"type":"Point","coordinates":[110.420989498907,-6.98031805440703]}},{"type":"Feature","properties":{"id":4048,"title":"Missing Maps: Genuk Sub Districts #PDC Semarang","status":"PUBLISHED","created":"2018","lastUpdated":"2018","lastActive":"no","area":26.89138122809543,"changesets":337,"mappers":17,"roads":211.651213602355,"buildings":30048,"edits":32607,"latest":"2018-07-23T04:32:20.000Z"},"geometry":{"type":"Point","coordinates":[110.476936026215,-6.96338054019794]}},{"type":"Feature","properties":{"id":4058,"title":"Missing Maps: Tembalang Sub Districts #PDC Semarang","status":"PUBLISHED","created":"2018","lastUpdated":"2018","lastActive":"no","area":40.54145098859969,"changesets":665,"mappers":56,"roads":264.065386297172,"buildings":45216,"edits":48320,"latest":"2018-07-23T04:57:28.000Z"},"geometry":{"type":"Point","coordinates":[110.460995575373,-7.04854201123433]}},{"type":"Feature","properties":{"id":4054,"title":"Missing Maps: Semarang Selatan Sub Districts #PDC Semarang","status":"ARCHIVED","created":"2018","lastUpdated":"2018","lastActive":"no","area":6.216206220761751,"changesets":317,"mappers":4,"roads":104.549294432283,"buildings":7273,"edits":9672,"latest":"2018-06-28T09:25:52.000Z"},"geometry":{"type":"Point","coordinates":[110.424620763431,-6.99694059104644]}},{"type":"Feature","properties":{"id":4046,"title":"Missing Maps: Gajah Mungkur Sub Districts #PDC Semarang","status":"ARCHIVED","created":"2018","lastUpdated":"2018","lastActive":"no","area":9.7825467368316,"changesets":119,"mappers":3,"roads":24.996948716469,"buildings":6160,"edits":7312,"latest":"2018-06-26T09:46:00.000Z"},"geometry":{"type":"Point","coordinates":[110.405596342639,-7.01275552509079]}},{"type":"Feature","properties":{"id":4043,"title":"Missing Maps: Banyumanik Sub Districts #PDC Semarang","status":"ARCHIVED","created":"2018","lastUpdated":"2018","lastActive":"no","area":31.263404954853762,"changesets":619,"mappers":13,"roads":288.064224597288,"buildings":29152,"edits":34454,"latest":"2018-07-17T04:20:43.000Z"},"geometry":{"type":"Point","coordinates":[110.420634743892,-7.0698505073789]}},{"type":"Feature","properties":{"id":4050,"title":"Missing Maps: Mijen Sub Districts #PDC Semarang","status":"ARCHIVED","created":"2018","lastUpdated":"2018","lastActive":"no","area":58.38424258359907,"changesets":641,"mappers":16,"roads":248.15917317191,"buildings":44462,"edits":48895,"latest":"2018-07-17T03:41:21.000Z"},"geometry":{"type":"Point","coordinates":[110.316039793238,-7.05292695812427]}},{"type":"Feature","properties":{"id":2752,"title":"Missing Maps: Kembangan Sub Districs #PDC Jakarta","status":"ARCHIVED","created":"2017","lastUpdated":"2017","lastActive":"no","area":25.229228382556542,"changesets":1726,"mappers":6,"roads":261.075363905223,"buildings":77494,"edits":96219,"latest":"2017-10-06T07:17:24.000Z"},"geometry":{"type":"Point","coordinates":[106.741932072569,-6.1983588926559]}},{"type":"Feature","properties":{"id":2748,"title":"Missing Maps: Senen Sub Districs #PDC Jakarta","status":"ARCHIVED","created":"2017","lastUpdated":"2017","lastActive":"no","area":4.380864638256325,"changesets":147,"mappers":4,"roads":20.1052342060612,"buildings":9397,"edits":11318,"latest":"2017-07-19T06:02:29.000Z"},"geometry":{"type":"Point","coordinates":[106.845942265554,-6.18433938607949]}},{"type":"Feature","properties":{"id":2750,"title":"Missing Maps: Pulo Gadung Sub Districs #PDC Jakarta","status":"ARCHIVED","created":"2017","lastUpdated":"2017","lastActive":"no","area":15.017768102585904,"changesets":314,"mappers":4,"roads":6.68953063373833,"buildings":40209,"edits":41840,"latest":"2017-08-03T08:07:09.000Z"},"geometry":{"type":"Point","coordinates":[106.888970840117,-6.19320943394448]}},{"type":"Feature","properties":{"id":2689,"title":"Missing Maps: Menteng Sub Districs #PDCJakarta","status":"ARCHIVED","created":"2017","lastUpdated":"2017","lastActive":"no","area":6.49624219448772,"changesets":218,"mappers":7,"roads":31.9405292719671,"buildings":12253,"edits":16293,"latest":"2017-07-19T03:15:12.000Z"},"geometry":{"type":"Point","coordinates":[106.835377701302,-6.19598238539176]}},{"type":"Feature","properties":{"id":2685,"title":"Missing Maps: Setiabudi Sub Districs #PDCJakarta","status":"ARCHIVED","created":"2017","lastUpdated":"2017","lastActive":"no","area":8.932975151497558,"changesets":688,"mappers":5,"roads":46.1882909657013,"buildings":23820,"edits":30885,"latest":"2017-08-07T16:17:37.000Z"},"geometry":{"type":"Point","coordinates":[106.829944052177,-6.21961131960167]}},{"type":"Feature","properties":{"id":2691,"title":"Missing Maps: Cempaka Putih Sub Districs #PDCJakarta","status":"ARCHIVED","created":"2017","lastUpdated":"2017","lastActive":"no","area":4.778549026419479,"changesets":434,"mappers":19,"roads":59.0535390938455,"buildings":19115,"edits":22286,"latest":"2017-08-12T05:38:39.000Z"},"geometry":{"type":"Point","coordinates":[106.868155693381,-6.18091922866915]}},{"type":"Feature","properties":{"id":2683,"title":"Missing Maps: Pancoran Sub Districs #PDC Jakarta","status":"ARCHIVED","created":"2017","lastUpdated":"2017","lastActive":"no","area":8.932455561387133,"changesets":1195,"mappers":5,"roads":146.859901413294,"buildings":51134,"edits":59754,"latest":"2017-08-09T02:24:30.000Z"},"geometry":{"type":"Point","coordinates":[106.843665402227,-6.25528917297567]}},{"type":"Feature","properties":{"id":2687,"title":"Missing Maps: Jatinegara Sub Districs #PDCJakarta","status":"ARCHIVED","created":"2017","lastUpdated":"2017","lastActive":"no","area":10.387964772587344,"changesets":411,"mappers":8,"roads":34.1880286676882,"buildings":32672,"edits":35555,"latest":"2017-07-04T03:37:09.000Z"},"geometry":{"type":"Point","coordinates":[106.877440010053,-6.22742244071777]}},{"type":"Feature","properties":{"id":2068,"title":"Missing Maps: Tegalsari Sub Districts #PDC Surabaya","status":"ARCHIVED","created":"2016","lastUpdated":"2017","lastActive":"no","area":4.352705367877991,"changesets":811,"mappers":19,"roads":14.4948079330338,"buildings":19707,"edits":21119,"latest":"2017-02-23T06:43:22.000Z"},"geometry":{"type":"Point","coordinates":[112.736792302739,-7.27550770658726]}},{"type":"Feature","properties":{"id":2076,"title":"Missing Maps: Tenggilis Mejoyo Sub Districts #PDC Surabaya","status":"ARCHIVED","created":"2016","lastUpdated":"2017","lastActive":"no","area":5.81606387737379,"changesets":231,"mappers":7,"roads":20.1319289322623,"buildings":17498,"edits":19337,"latest":"2017-02-24T07:01:54.000Z"},"geometry":{"type":"Point","coordinates":[112.754039565117,-7.32446207213862]}},{"type":"Feature","properties":{"id":2064,"title":"Missing Maps: Dukuh Pakis Sub Districts #PDC Surabaya","status":"ARCHIVED","created":"2016","lastUpdated":"2017","lastActive":"no","area":10.670068972482527,"changesets":330,"mappers":6,"roads":11.5774127841071,"buildings":16983,"edits":18105,"latest":"2017-03-13T02:51:56.000Z"},"geometry":{"type":"Point","coordinates":[112.699915104771,-7.29191298711053]}},{"type":"Feature","properties":{"id":2090,"title":"Missing Maps: Sambikerep Sub Districs #PDC Surabaya","status":"ARCHIVED","created":"2016","lastUpdated":"2017","lastActive":"no","area":15.750260933436985,"changesets":533,"mappers":22,"roads":22.4715844008338,"buildings":19822,"edits":21122,"latest":"2017-03-09T07:31:00.000Z"},"geometry":{"type":"Point","coordinates":[112.653167636603,-7.27654836091664]}},{"type":"Feature","properties":{"id":2082,"title":"Missing Maps: Karang Pilang Sub Districts #PDC Surabaya","status":"ARCHIVED","created":"2016","lastUpdated":"2017","lastActive":"no","area":9.73798164199747,"changesets":679,"mappers":8,"roads":25.8296648923577,"buildings":21870,"edits":24773,"latest":"2017-02-06T09:38:03.000Z"},"geometry":{"type":"Point","coordinates":[112.688446945796,-7.33517055124967]}},{"type":"Feature","properties":{"id":2080,"title":"Missing Maps: Sawahan Sub Districs #PDC Surabaya","status":"ARCHIVED","created":"2016","lastUpdated":"2017","lastActive":"no","area":7.263045329272611,"changesets":429,"mappers":10,"roads":77.4732011526463,"buildings":43367,"edits":46164,"latest":"2017-02-24T08:52:56.000Z"},"geometry":{"type":"Point","coordinates":[112.721454106416,-7.27305731862904]}},{"type":"Feature","properties":{"id":2084,"title":"Missing Maps: Wonocolo Sub Districs #PDC Surabaya","status":"ARCHIVED","created":"2016","lastUpdated":"2017","lastActive":"no","area":6.440117053980919,"changesets":272,"mappers":4,"roads":0.830678729600805,"buildings":19566,"edits":19821,"latest":"2017-03-13T07:14:37.000Z"},"geometry":{"type":"Point","coordinates":[112.741662990172,-7.32231779624896]}},{"type":"Feature","properties":{"id":2086,"title":"Missing Maps: Tandes Sub Districs #PDC Surabaya","status":"ARCHIVED","created":"2016","lastUpdated":"2017","lastActive":"no","area":9.59192105411639,"changesets":282,"mappers":6,"roads":19.6289853943348,"buildings":19034,"edits":20892,"latest":"2017-03-13T03:23:29.000Z"},"geometry":{"type":"Point","coordinates":[112.671503697337,-7.25568243266654]}},{"type":"Feature","properties":{"id":2088,"title":"Missing Maps: Lakarsantri Sub Districs #PDC Surabaya","status":"ARCHIVED","created":"2016","lastUpdated":"2017","lastActive":"no","area":22.43183782528366,"changesets":160,"mappers":6,"roads":37.0228489101557,"buildings":21307,"edits":23405,"latest":"2017-03-14T05:40:53.000Z"},"geometry":{"type":"Point","coordinates":[112.655730102499,-7.31312967131522]}}],"Russia":[{"type":"Feature","properties":{"id":5074,"title":"Voronezh, RU - Road Alignment","status":"PUBLISHED","created":"2018","lastUpdated":"2018","lastActive":"no","area":51.88857016130644,"changesets":35,"mappers":2,"roads":1.27753682271313,"buildings":19,"edits":549,"latest":"2019-01-02T20:39:43.000Z"},"geometry":{"type":"Point","coordinates":[40.2695201655274,50.9627839626112]}},{"type":"Feature","properties":{"id":5114,"title":"Tuva, RU - Road Alignment","status":"PUBLISHED","created":"2018","lastUpdated":"2018","lastActive":"no","area":2.5382251706946253,"changesets":11,"mappers":1,"roads":0.699784508480752,"buildings":20,"edits":104,"latest":"2018-10-19T10:22:55.000Z"},"geometry":{"type":"Point","coordinates":[94.0463114123556,51.781508254766]}},{"type":"Feature","properties":{"id":5110,"title":"Yamalia, RU - Road Alignment","status":"PUBLISHED","created":"2018","lastUpdated":"2018","lastActive":"no","area":8.273190558193892,"changesets":6,"mappers":3,"roads":8.28800679414206,"buildings":20,"edits":130,"latest":"2018-11-20T10:22:28.000Z"},"geometry":{"type":"Point","coordinates":[75.2427001306948,65.7007370208771]}},{"type":"Feature","properties":{"id":5118,"title":"Amur, RU - Road Alignment","status":"PUBLISHED","created":"2018","lastUpdated":"2018","lastActive":"no","area":19.385680339287482,"changesets":7,"mappers":1,"roads":5.53178454751479,"buildings":28,"edits":99,"latest":"2018-10-17T10:54:27.000Z"},"geometry":{"type":"Point","coordinates":[127.669291747133,51.1636667407178]}},{"type":"Feature","properties":{"id":5120,"title":"JAO, RU - Road Alignment","status":"PUBLISHED","created":"2018","lastUpdated":"2018","lastActive":"no","area":5.488146548063193,"changesets":4,"mappers":1,"roads":0.0327054624556719,"buildings":1,"edits":20,"latest":"2018-10-24T16:47:52.000Z"},"geometry":{"type":"Point","coordinates":[132.011691687188,48.253714915435]}},{"type":"Feature","properties":{"id":5122,"title":"Khabarovsk, RU - Road Alignment","status":"PUBLISHED","created":"2018","lastUpdated":"2018","lastActive":"no","area":11.161541130978934,"changesets":42,"mappers":1,"roads":24.3213672545452,"buildings":19,"edits":928,"latest":"2018-11-12T19:15:17.000Z"},"geometry":{"type":"Point","coordinates":[138.396774935942,51.8199623333501]}},{"type":"Feature","properties":{"id":5084,"title":"Astrakhan, RU - Road Alignment","status":"PUBLISHED","created":"2018","lastUpdated":"2018","lastActive":"no","area":5.310775583716296,"changesets":6,"mappers":1,"roads":0.576440915991893,"buildings":4,"edits":39,"latest":"2018-10-09T13:35:52.000Z"},"geometry":{"type":"Point","coordinates":[47.1830142680223,46.8862236799227]}},{"type":"Feature","properties":{"id":5096,"title":"Chuvashia, RU - Road Alignment","status":"PUBLISHED","created":"2018","lastUpdated":"2018","lastActive":"no","area":7.0000954431448505,"changesets":8,"mappers":1,"roads":0.192223935155805,"buildings":0,"edits":41,"latest":"2018-11-05T21:08:48.000Z"},"geometry":{"type":"Point","coordinates":[47.0169444267199,55.6395929732244]}},{"type":"Feature","properties":{"id":5102,"title":"Udmurtia, RU - Road Alignment","status":"PUBLISHED","created":"2018","lastUpdated":"2018","lastActive":"no","area":15.013904617904839,"changesets":11,"mappers":1,"roads":0.256342391628613,"buildings":1,"edits":279,"latest":"2018-10-24T15:26:13.000Z"},"geometry":{"type":"Point","coordinates":[53.1292263202367,56.6504098059281]}},{"type":"Feature","properties":{"id":5116,"title":"Buryatia, RU - Road Alignment","status":"PUBLISHED","created":"2018","lastUpdated":"2018","lastActive":"no","area":11.921423464616145,"changesets":7,"mappers":2,"roads":3.08056904568076,"buildings":19,"edits":104,"latest":"2018-10-19T08:54:02.000Z"},"geometry":{"type":"Point","coordinates":[107.505299618937,51.7364622992778]}},{"type":"Feature","properties":{"id":5104,"title":"Sverdlovsk, RU - Road Alignment","status":"PUBLISHED","created":"2018","lastUpdated":"2018","lastActive":"no","area":17.833303273592076,"changesets":82,"mappers":1,"roads":1.41269675484537,"buildings":18,"edits":539,"latest":"2018-10-04T16:03:26.000Z"},"geometry":{"type":"Point","coordinates":[60.7296830055128,57.3551621895813]}},{"type":"Feature","properties":{"id":5088,"title":"North Ossetia-Alania, RU - Road Alignment","status":"PUBLISHED","created":"2018","lastUpdated":"2018","lastActive":"no","area":14.537601490829601,"changesets":32,"mappers":1,"roads":0.783488296930156,"buildings":1,"edits":447,"latest":"2018-11-01T08:23:46.000Z"},"geometry":{"type":"Point","coordinates":[44.4413630478819,43.1296771004067]}},{"type":"Feature","properties":{"id":5047,"title":"Vologda, RU - Road Alignment","status":"PUBLISHED","created":"2018","lastUpdated":"2018","lastActive":"no","area":35.28516778928109,"changesets":0,"mappers":0,"roads":0,"buildings":0,"edits":0,"latest":null},"geometry":{"type":"Point","coordinates":[40.0393416965148,59.7751178689939]}},{"type":"Feature","properties":{"id":5112,"title":"Kemerovo, RU - Road Alignment","status":"PUBLISHED","created":"2018","lastUpdated":"2018","lastActive":"no","area":21.798294661428333,"changesets":45,"mappers":1,"roads":2.23533517272834,"buildings":3,"edits":261,"latest":"2018-10-28T12:56:04.000Z"},"geometry":{"type":"Point","coordinates":[86.6571581706989,54.816528983781]}},{"type":"Feature","properties":{"id":5108,"title":"Novosibirsk, RU - Road Alignment","status":"PUBLISHED","created":"2018","lastUpdated":"2018","lastActive":"no","area":42.469762848735236,"changesets":173,"mappers":2,"roads":3.64613396752742,"buildings":69,"edits":670,"latest":"2018-12-11T02:56:30.000Z"},"geometry":{"type":"Point","coordinates":[80.3670447235961,54.8613031461299]}},{"type":"Feature","properties":{"id":5121,"title":"Sakhalin, RU - Road Alignment","status":"PUBLISHED","created":"2018","lastUpdated":"2018","lastActive":"no","area":5.566677215936195,"changesets":5,"mappers":1,"roads":1.36468434946041,"buildings":3,"edits":40,"latest":"2018-10-24T17:19:44.000Z"},"geometry":{"type":"Point","coordinates":[142.738432590344,48.9062608568148]}},{"type":"Feature","properties":{"id":5117,"title":"Zabaykalsk, RU - Road Alignment","status":"PUBLISHED","created":"2018","lastUpdated":"2018","lastActive":"no","area":15.535301906848705,"changesets":0,"mappers":0,"roads":0,"buildings":0,"edits":0,"latest":null},"geometry":{"type":"Point","coordinates":[115.893622536766,50.898877166788]}},{"type":"Feature","properties":{"id":5050,"title":"Moscow, RU - Road Alignment","status":"PUBLISHED","created":"2018","lastUpdated":"2019","lastActive":"yes","area":67.22729165523474,"changesets":1065,"mappers":30,"roads":383.130362499677,"buildings":2104,"edits":14723,"latest":"2019-01-08T11:01:23.000Z"},"geometry":{"type":"Point","coordinates":[37.5334085802161,55.6984793925584]}},{"type":"Feature","properties":{"id":5115,"title":"Krasnoyarsk, RU - Road Alignment","status":"PUBLISHED","created":"2018","lastUpdated":"2018","lastActive":"no","area":22.824888459707374,"changesets":78,"mappers":1,"roads":15.4802476295007,"buildings":108,"edits":630,"latest":"2018-10-20T05:40:12.000Z"},"geometry":{"type":"Point","coordinates":[93.4116099617817,57.0117959504218]}},{"type":"Feature","properties":{"id":5109,"title":"Khantia-Mansia, RU - Road Alignment","status":"PUBLISHED","created":"2018","lastUpdated":"2018","lastActive":"no","area":30.253087893790546,"changesets":15,"mappers":1,"roads":4.51497994941806,"buildings":10,"edits":99,"latest":"2018-11-06T07:57:43.000Z"},"geometry":{"type":"Point","coordinates":[71.975901037221,61.2624729564418]}},{"type":"Feature","properties":{"id":5032,"title":"Murmansk, RU - Road Alignment","status":"PUBLISHED","created":"2018","lastUpdated":"2018","lastActive":"no","area":6.135141048257239,"changesets":14,"mappers":6,"roads":0.689965285509894,"buildings":0,"edits":42,"latest":"2018-12-24T16:27:16.000Z"},"geometry":{"type":"Point","coordinates":[32.1535937499972,68.1519441236096]}},{"type":"Feature","properties":{"id":5094,"title":"Rostov, RU - Road Alignment","status":"PUBLISHED","created":"2018","lastUpdated":"2018","lastActive":"no","area":62.059436486990585,"changesets":18,"mappers":1,"roads":0.459103509151284,"buildings":1,"edits":86,"latest":"2018-10-09T12:50:48.000Z"},"geometry":{"type":"Point","coordinates":[40.7358927267966,47.7150064178919]}},{"type":"Feature","properties":{"id":5038,"title":"Novgorod, RU - Road Alignment","status":"PUBLISHED","created":"2018","lastUpdated":"2018","lastActive":"no","area":10.46150373873454,"changesets":0,"mappers":0,"roads":0,"buildings":0,"edits":0,"latest":null},"geometry":{"type":"Point","coordinates":[31.9263050659094,58.2489414609353]}},{"type":"Feature","properties":{"id":5092,"title":"Krasnodar, RU - Road Alignment","status":"PUBLISHED","created":"2018","lastUpdated":"2018","lastActive":"no","area":65.77382796758191,"changesets":924,"mappers":2,"roads":102.053933053736,"buildings":4010,"edits":11187,"latest":"2018-12-13T20:57:54.000Z"},"geometry":{"type":"Point","coordinates":[39.4116507753946,45.4518856931549]}}],"Haiti":[{"type":"Feature","properties":{"id":243,"title":"Haiti, Projet Cap103, Corridor de dÃ©veloppement de Cap-Haitien, zones urbaines prioritaires Ã  cartographier sur le terrain","status":"ARCHIVED","created":"2013","lastUpdated":"2018","lastActive":"no","area":15.529602384071627,"changesets":0,"mappers":0,"roads":0,"buildings":0,"edits":0,"latest":null},"geometry":{"type":"Point","coordinates":[-72.0409312086335,19.6547519721993]}},{"type":"Feature","properties":{"id":4446,"title":"Missing Maps: Canaan IV, Haiti","status":"PUBLISHED","created":"2018","lastUpdated":"2018","lastActive":"no","area":0.4201295268703867,"changesets":140,"mappers":4,"roads":2.02896945346659,"buildings":1727,"edits":2053,"latest":"2019-01-03T00:51:57.000Z"},"geometry":{"type":"Point","coordinates":[-72.2667456137484,18.6549119813216]}},{"type":"Feature","properties":{"id":4444,"title":"Missing Maps: Canaan II, Haiti","status":"PUBLISHED","created":"2018","lastUpdated":"2018","lastActive":"no","area":2.383771891558137,"changesets":28,"mappers":2,"roads":3.17073374577838,"buildings":410,"edits":497,"latest":"2018-08-06T13:30:12.000Z"},"geometry":{"type":"Point","coordinates":[-72.2910717021208,18.6620171605518]}},{"type":"Feature","properties":{"id":4042,"title":"INACT: Gressier/Leogane (Haiti)","status":"PUBLISHED","created":"2018","lastUpdated":"2018","lastActive":"no","area":472.76468088091855,"changesets":2036,"mappers":83,"roads":201.367121956984,"buildings":9330,"edits":10279,"latest":"2018-11-15T10:25:02.000Z"},"geometry":{"type":"Point","coordinates":[-72.5733402442701,18.4525648797599]}},{"type":"Feature","properties":{"id":4025,"title":"Cartographie pour le patrimoine - Dessalines, Haiti","status":"ARCHIVED","created":"2018","lastUpdated":"2018","lastActive":"no","area":8.588403012081995,"changesets":658,"mappers":37,"roads":24.776839530837,"buildings":4533,"edits":5385,"latest":"2018-04-16T14:35:26.000Z"},"geometry":{"type":"Point","coordinates":[-72.52062206142,19.2644200179047]}},{"type":"Feature","properties":{"id":334,"title":"Additional Ranquitte","status":"ARCHIVED","created":"2013","lastUpdated":"2015","lastActive":"no","area":8.53958357101521,"changesets":0,"mappers":0,"roads":0,"buildings":0,"edits":0,"latest":null},"geometry":{"type":"Point","coordinates":[-72.0418318543623,19.4116629918197]}},{"type":"Feature","properties":{"id":2205,"title":"Hurricane Matthew: Nippes coast","status":"ARCHIVED","created":"2016","lastUpdated":"2017","lastActive":"no","area":186.25076226692414,"changesets":3201,"mappers":389,"roads":119.067381251107,"buildings":39513,"edits":42533,"latest":"2016-10-27T20:04:56.000Z"},"geometry":{"type":"Point","coordinates":[-73.0168605515557,18.445445160502]}},{"type":"Feature","properties":{"id":2211,"title":"Hurricane Matthew: Leogane","status":"ARCHIVED","created":"2016","lastUpdated":"2017","lastActive":"no","area":52.25210018110833,"changesets":1219,"mappers":133,"roads":14.7218037490781,"buildings":17513,"edits":18711,"latest":"2017-12-23T11:22:26.000Z"},"geometry":{"type":"Point","coordinates":[-72.6356352556371,18.4748148400757]}},{"type":"Feature","properties":{"id":589,"title":"Saint Marc - Image Drone OSM Haiti","status":"ARCHIVED","created":"2014","lastUpdated":"2014","lastActive":"no","area":18.10676957737397,"changesets":0,"mappers":0,"roads":0,"buildings":0,"edits":0,"latest":null},"geometry":{"type":"Point","coordinates":[-72.6971386390312,19.1058190151133]}},{"type":"Feature","properties":{"id":585,"title":"Cite Soleil - Haiti","status":"ARCHIVED","created":"2014","lastUpdated":"2017","lastActive":"no","area":4.5115631688750435,"changesets":0,"mappers":0,"roads":0,"buildings":0,"edits":0,"latest":null},"geometry":{"type":"Point","coordinates":[-72.3373387466212,18.5805593957682]}},{"type":"Feature","properties":{"id":2231,"title":"Hurricane Matthew: Anse-Rouge","status":"ARCHIVED","created":"2016","lastUpdated":"2017","lastActive":"no","area":76.41447687739348,"changesets":288,"mappers":48,"roads":153.715630252784,"buildings":8017,"edits":8842,"latest":"2016-10-15T19:35:42.000Z"},"geometry":{"type":"Point","coordinates":[-73.0499356600749,19.6560331809892]}},{"type":"Feature","properties":{"id":247,"title":"CAP103 Corridor de developpement de Cap-Haitien , nouvelles zones","status":"ARCHIVED","created":"2013","lastUpdated":"2018","lastActive":"no","area":5.448810357917753,"changesets":439,"mappers":5,"roads":157.435576638987,"buildings":2633,"edits":4674,"latest":"2018-03-21T14:12:25.000Z"},"geometry":{"type":"Point","coordinates":[-72.0584394684114,19.6350542425365]}},{"type":"Feature","properties":{"id":245,"title":"Haiti, Projet Cap103, Corridor de dÃ©veloppement de Cap-Haitien, communes prioritaires Ã  cartographier sur imagerie","status":"ARCHIVED","created":"2013","lastUpdated":"2016","lastActive":"no","area":849.3522870023475,"changesets":11,"mappers":1,"roads":7.12711872544457,"buildings":543,"edits":1021,"latest":"2017-12-04T22:46:55.000Z"},"geometry":{"type":"Point","coordinates":[-71.9725269262952,19.6182822635876]}},{"type":"Feature","properties":{"id":2359,"title":"Missing Maps: Port-au-Prince, Haiti (buildings only)","status":"ARCHIVED","created":"2016","lastUpdated":"2017","lastActive":"no","area":7.171696692468598,"changesets":4009,"mappers":260,"roads":33.6453609548638,"buildings":55191,"edits":60495,"latest":"2017-05-03T16:33:41.000Z"},"geometry":{"type":"Point","coordinates":[-72.3560085819227,18.5266785779554]}},{"type":"Feature","properties":{"id":4428,"title":"Missing Maps: Corail, Canaan, Haiti","status":"PUBLISHED","created":"2018","lastUpdated":"2018","lastActive":"no","area":2.4013850588610666,"changesets":360,"mappers":17,"roads":24.4383865572948,"buildings":6775,"edits":8292,"latest":"2018-07-26T16:53:18.000Z"},"geometry":{"type":"Point","coordinates":[-72.2471008503852,18.654580845554]}},{"type":"Feature","properties":{"id":240,"title":"Saint-Raphael, Haiti - Pre-Mapping Party Tracing","status":"PUBLISHED","created":"2013","lastUpdated":"2018","lastActive":"no","area":2.6599766274161962,"changesets":1361,"mappers":47,"roads":1446.00106160672,"buildings":47581,"edits":55489,"latest":"2017-12-12T03:16:42.000Z"},"geometry":{"type":"Point","coordinates":[-72.1993588003244,19.4370863632806]}},{"type":"Feature","properties":{"id":4375,"title":"Missing Maps: Village des Pecheurs, Canaan, Haiti","status":"ARCHIVED","created":"2018","lastUpdated":"2018","lastActive":"no","area":1.2890756205464486,"changesets":328,"mappers":33,"roads":15.9212981423199,"buildings":2917,"edits":3739,"latest":"2018-05-09T14:17:13.000Z"},"geometry":{"type":"Point","coordinates":[-72.3163210533764,18.687169864577]}},{"type":"Feature","properties":{"id":879,"title":"Missing Maps: St. Christop, Haiti","status":"ARCHIVED","created":"2015","lastUpdated":"2017","lastActive":"no","area":9.29362943103361,"changesets":508,"mappers":34,"roads":26.6770999908886,"buildings":2232,"edits":3994,"latest":"2015-11-21T02:00:48.000Z"},"geometry":{"type":"Point","coordinates":[-72.3131352761924,18.6858165513167]}},{"type":"Feature","properties":{"id":4445,"title":"Missing Maps: Canaan III, Haiti","status":"PUBLISHED","created":"2018","lastUpdated":"2018","lastActive":"no","area":4.546956198198137,"changesets":5,"mappers":3,"roads":0.322035792496887,"buildings":53,"edits":87,"latest":"2018-06-27T07:36:07.000Z"},"geometry":{"type":"Point","coordinates":[-72.2727801239332,18.6484260908099]}},{"type":"Feature","properties":{"id":4443,"title":"Missing Maps: Canaan I, Haiti","status":"PUBLISHED","created":"2018","lastUpdated":"2018","lastActive":"no","area":1.8557013284627175,"changesets":4,"mappers":3,"roads":0.0354219453506869,"buildings":62,"edits":68,"latest":"2018-10-06T06:19:52.000Z"},"geometry":{"type":"Point","coordinates":[-72.2821356524043,18.6679586099648]}},{"type":"Feature","properties":{"id":3742,"title":"Missing Maps: Haiti, CitÃ© Soleil: Extended Area","status":"PUBLISHED","created":"2017","lastUpdated":"2017","lastActive":"no","area":5.42144685042618,"changesets":283,"mappers":51,"roads":12.0008248729073,"buildings":3164,"edits":4226,"latest":"2017-12-21T05:35:59.000Z"},"geometry":{"type":"Point","coordinates":[-72.3271514881281,18.5983368751644]}},{"type":"Feature","properties":{"id":2821,"title":"Haiti - Sud-Est mapping catchment areas","status":"PUBLISHED","created":"2017","lastUpdated":"2018","lastActive":"no","area":49.24895220171569,"changesets":245,"mappers":18,"roads":159.790192250908,"buildings":3036,"edits":5306,"latest":"2018-04-22T02:30:11.000Z"},"geometry":{"type":"Point","coordinates":[-72.9008069846992,18.2361504836479]}},{"type":"Feature","properties":{"id":1080,"title":"Haiti, Caracol - Missing Maps, MapGive","status":"ARCHIVED","created":"2015","lastUpdated":"2017","lastActive":"no","area":141.1436524740866,"changesets":464,"mappers":84,"roads":70.9919529611392,"buildings":640,"edits":1637,"latest":"2016-10-05T21:27:15.000Z"},"geometry":{"type":"Point","coordinates":[-71.9900975784181,19.6793745607697]}},{"type":"Feature","properties":{"id":2422,"title":"Missing Maps: Canaan, Haiti (2016 Update)","status":"ARCHIVED","created":"2017","lastUpdated":"2017","lastActive":"no","area":44.10731213915542,"changesets":207,"mappers":21,"roads":54.8176263084735,"buildings":7213,"edits":12393,"latest":"2017-12-04T15:58:53.000Z"},"geometry":{"type":"Point","coordinates":[-72.2555215685013,18.6540276324923]}},{"type":"Feature","properties":{"id":2251,"title":"Hurricane Matthew: La GonÃ¢ve - East - 2 of 2 (buildings only)","status":"ARCHIVED","created":"2016","lastUpdated":"2018","lastActive":"no","area":81.97562159685141,"changesets":214,"mappers":34,"roads":25.2679300240509,"buildings":4722,"edits":5271,"latest":"2017-02-20T13:19:50.000Z"},"geometry":{"type":"Point","coordinates":[-72.8381806071653,18.7659109234226]}},{"type":"Feature","properties":{"id":2224,"title":"Hurricane Matthew: Central Grand Anse","status":"ARCHIVED","created":"2016","lastUpdated":"2016","lastActive":"no","area":308.49862301934087,"changesets":1223,"mappers":185,"roads":76.1313710540835,"buildings":10380,"edits":11258,"latest":"2016-10-18T01:12:27.000Z"},"geometry":{"type":"Point","coordinates":[-74.1318946887692,18.4896415985316]}},{"type":"Feature","properties":{"id":1237,"title":"Missing Maps: Campeche, Haiti","status":"ARCHIVED","created":"2015","lastUpdated":"2017","lastActive":"no","area":1.2003011221330415,"changesets":1791,"mappers":147,"roads":19.4990722475007,"buildings":14562,"edits":18242,"latest":"2016-07-06T17:32:37.000Z"},"geometry":{"type":"Point","coordinates":[-72.3359335308041,18.5229710654349]}},{"type":"Feature","properties":{"id":1400,"title":"Missing Maps: Chambellan, Haiti - Clinton Health Access Initiative #2","status":"ARCHIVED","created":"2015","lastUpdated":"2017","lastActive":"no","area":73.91855739445765,"changesets":483,"mappers":40,"roads":71.2018232934687,"buildings":4127,"edits":4841,"latest":"2016-04-05T14:22:08.000Z"},"geometry":{"type":"Point","coordinates":[-74.3311410621843,18.5172058976937]}},{"type":"Feature","properties":{"id":1402,"title":"Missing Maps: St. Christophe jpmc","status":"ARCHIVED","created":"2015","lastUpdated":"2018","lastActive":"no","area":8.017369015286967,"changesets":3229,"mappers":17,"roads":57.0425384920896,"buildings":11861,"edits":16886,"latest":"2016-01-20T20:20:33.000Z"},"geometry":{"type":"Point","coordinates":[-72.3056985679597,18.6819983320491]}},{"type":"Feature","properties":{"id":1398,"title":"Missing Maps: Anse-d'Hainault, Haiti","status":"ARCHIVED","created":"2015","lastUpdated":"2017","lastActive":"no","area":97.91282101800105,"changesets":153,"mappers":12,"roads":72.5761426959883,"buildings":2551,"edits":3120,"latest":"2016-01-18T15:02:55.000Z"},"geometry":{"type":"Point","coordinates":[-74.3989827262933,18.4605534504422]}},{"type":"Feature","properties":{"id":2287,"title":"Hurricane Matthew: Sud Est","status":"ARCHIVED","created":"2016","lastUpdated":"2017","lastActive":"no","area":7.463384019048663,"changesets":133,"mappers":14,"roads":186.594474158711,"buildings":657,"edits":2077,"latest":"2017-03-13T08:51:55.000Z"},"geometry":{"type":"Point","coordinates":[-72.5980314681104,18.2451561390513]}}],"Mali":[{"type":"Feature","properties":{"id":150,"title":"Mali Activation : Mopti - Gao, Infrastructures","status":"ARCHIVED","created":"2013","lastUpdated":"2018","lastActive":"no","area":142955.93405144772,"changesets":319,"mappers":17,"roads":346.494077647405,"buildings":34178,"edits":35163,"latest":"2018-08-14T04:52:16.000Z"},"geometry":{"type":"Point","coordinates":[-2.404446858522,15.3501801820934]}},{"type":"Feature","properties":{"id":152,"title":"Mali Activation : Konna","status":"ARCHIVED","created":"2013","lastUpdated":"2014","lastActive":"no","area":11.616153142192664,"changesets":0,"mappers":0,"roads":0,"buildings":0,"edits":0,"latest":null},"geometry":{"type":"Point","coordinates":[-3.88892144397879,14.9395168084342]}},{"type":"Feature","properties":{"id":3099,"title":"Mapping the city of Sofara, Mopti Region, Mali","status":"ARCHIVED","created":"2017","lastUpdated":"2017","lastActive":"no","area":5.867404201495011,"changesets":259,"mappers":6,"roads":42.5590983626354,"buildings":3250,"edits":4144,"latest":"2017-06-23T02:48:35.000Z"},"geometry":{"type":"Point","coordinates":[-4.2319490078547,14.0186283261342]}},{"type":"Feature","properties":{"id":3010,"title":"Mapping city of M'pessoba, Sikasso Region, Mali","status":"PUBLISHED","created":"2017","lastUpdated":"2018","lastActive":"no","area":96.3686175104118,"changesets":342,"mappers":25,"roads":337.275797327884,"buildings":4239,"edits":6733,"latest":"2018-10-27T20:33:33.000Z"},"geometry":{"type":"Point","coordinates":[-5.72546879101369,12.6719472751961]}},{"type":"Feature","properties":{"id":164,"title":"Mali Activation : LÃ©rÃ©","status":"PUBLISHED","created":"2013","lastUpdated":"2014","lastActive":"no","area":581.6425459029207,"changesets":271,"mappers":21,"roads":269.944002982893,"buildings":30242,"edits":31401,"latest":"2018-08-15T04:05:18.000Z"},"geometry":{"type":"Point","coordinates":[-4.93177203640814,15.721368238229]}},{"type":"Feature","properties":{"id":2994,"title":"Missing Maps: Mali Malaria Elimination 2","status":"ARCHIVED","created":"2017","lastUpdated":"2018","lastActive":"no","area":819.5720338571357,"changesets":709,"mappers":25,"roads":0.0529038050284276,"buildings":29753,"edits":29781,"latest":"2018-01-20T21:14:07.000Z"},"geometry":{"type":"Point","coordinates":[-3.86733616855638,15.3049064305213]}},{"type":"Feature","properties":{"id":3000,"title":"Missing Maps: Mali Malaria Elimination 4","status":"ARCHIVED","created":"2017","lastUpdated":"2017","lastActive":"no","area":839.6776039878634,"changesets":587,"mappers":24,"roads":42.9989313120615,"buildings":45900,"edits":47719,"latest":"2017-06-09T04:53:52.000Z"},"geometry":{"type":"Point","coordinates":[-3.95667653202885,14.6899281426734]}},{"type":"Feature","properties":{"id":3005,"title":"Missing Maps: Mali Malaria Elimination 8","status":"ARCHIVED","created":"2017","lastUpdated":"2017","lastActive":"no","area":812.3178404771083,"changesets":384,"mappers":16,"roads":69.1197320217911,"buildings":10823,"edits":11365,"latest":"2017-07-05T03:21:58.000Z"},"geometry":{"type":"Point","coordinates":[-4.4731215502326,14.4210537089072]}},{"type":"Feature","properties":{"id":3003,"title":"Missing Maps: Mali Malaria Elimination 6","status":"ARCHIVED","created":"2017","lastUpdated":"2017","lastActive":"no","area":878.7178199799332,"changesets":450,"mappers":17,"roads":49.5067221893628,"buildings":22243,"edits":23306,"latest":"2017-07-03T06:05:02.000Z"},"geometry":{"type":"Point","coordinates":[-4.19407799940267,14.7723072123216]}},{"type":"Feature","properties":{"id":2561,"title":"Mali: Mapping Climate Change Affected Areas","status":"PUBLISHED","created":"2017","lastUpdated":"2018","lastActive":"no","area":3798.202277416878,"changesets":0,"mappers":0,"roads":0,"buildings":0,"edits":0,"latest":null},"geometry":{"type":"Point","coordinates":[-4.90792420534238,12.8473314294065]}},{"type":"Feature","properties":{"id":3311,"title":"Missing Maps: Mali Malaria Elimination 36","status":"ARCHIVED","created":"2017","lastUpdated":"2017","lastActive":"no","area":687.5259528835134,"changesets":208,"mappers":15,"roads":10.1924782327941,"buildings":12929,"edits":13413,"latest":"2017-08-02T03:30:41.000Z"},"geometry":{"type":"Point","coordinates":[-4.74279910281316,14.1798219266197]}},{"type":"Feature","properties":{"id":3299,"title":"Missing Maps: Mali Malaria Elimination 34","status":"ARCHIVED","created":"2017","lastUpdated":"2017","lastActive":"no","area":855.6108995208135,"changesets":424,"mappers":20,"roads":8.69033330943002,"buildings":44337,"edits":45104,"latest":"2017-07-31T08:03:57.000Z"},"geometry":{"type":"Point","coordinates":[-4.69527489735605,13.7161535461744]}},{"type":"Feature","properties":{"id":4304,"title":"Missing Maps: Improving access to healthcare in Douentza, Mali (2)","status":"PUBLISHED","created":"2018","lastUpdated":"2018","lastActive":"no","area":101.10525282167983,"changesets":1774,"mappers":143,"roads":74.8479369888058,"buildings":15005,"edits":15348,"latest":"2018-11-24T07:43:08.000Z"},"geometry":{"type":"Point","coordinates":[-2.97106903045674,14.7127210039585]}},{"type":"Feature","properties":{"id":3316,"title":"Missing Maps: Mali Malaria Elimination 37","status":"ARCHIVED","created":"2017","lastUpdated":"2017","lastActive":"no","area":702.7410242038177,"changesets":336,"mappers":28,"roads":11.6992965160806,"buildings":32375,"edits":32838,"latest":"2017-08-02T08:56:42.000Z"},"geometry":{"type":"Point","coordinates":[-4.53903512376961,14.1743156438655]}},{"type":"Feature","properties":{"id":3262,"title":"Missing Maps: Mali Malaria Elimination 23","status":"ARCHIVED","created":"2017","lastUpdated":"2017","lastActive":"no","area":909.960978589335,"changesets":733,"mappers":42,"roads":102.12431027956,"buildings":45189,"edits":47639,"latest":"2017-08-01T16:15:18.000Z"},"geometry":{"type":"Point","coordinates":[-3.80081326138464,14.416915444567]}},{"type":"Feature","properties":{"id":3260,"title":"Missing Maps: Mali Malaria Elimination 21","status":"ARCHIVED","created":"2017","lastUpdated":"2017","lastActive":"no","area":620.3077167773902,"changesets":480,"mappers":37,"roads":47.2620188342354,"buildings":52853,"edits":53369,"latest":"2017-07-15T11:07:23.000Z"},"geometry":{"type":"Point","coordinates":[-3.89924062543233,14.0894410470206]}},{"type":"Feature","properties":{"id":3270,"title":"Missing Maps: Mali Malaria Elimination 29","status":"ARCHIVED","created":"2017","lastUpdated":"2017","lastActive":"no","area":761.8857805266672,"changesets":455,"mappers":23,"roads":28.2826970775662,"buildings":32221,"edits":33433,"latest":"2017-07-27T05:10:34.000Z"},"geometry":{"type":"Point","coordinates":[-3.72668453039565,14.6199448033456]}},{"type":"Feature","properties":{"id":4789,"title":"Cartographie du cercle de Koutiala","status":"PUBLISHED","created":"2018","lastUpdated":"2018","lastActive":"no","area":9394.014140308713,"changesets":348,"mappers":22,"roads":440.278973908809,"buildings":5288,"edits":6397,"latest":"2018-12-20T00:01:51.000Z"},"geometry":{"type":"Point","coordinates":[-5.56490955398211,12.3873940288223]}},{"type":"Feature","properties":{"id":1133,"title":"Nara Circle (Mali)","status":"PUBLISHED","created":"2015","lastUpdated":"2017","lastActive":"no","area":35826.9176523416,"changesets":2920,"mappers":29,"roads":14881.479844588,"buildings":938,"edits":25111,"latest":"2018-01-23T01:37:06.000Z"},"geometry":{"type":"Point","coordinates":[-7.5357537403945,14.9074067952649]}},{"type":"Feature","properties":{"id":1273,"title":"Peace Corps Senegal - Illimalo ","status":"PUBLISHED","created":"2015","lastUpdated":"2016","lastActive":"no","area":0.032404286552637496,"changesets":48,"mappers":5,"roads":0.829229879258379,"buildings":160,"edits":180,"latest":"2016-04-19T03:36:28.000Z"},"geometry":{"type":"Point","coordinates":[-11.4859135079813,13.1133654245091]}},{"type":"Feature","properties":{"id":1534,"title":"Please delete","status":"ARCHIVED","created":"2016","lastUpdated":"2016","lastActive":"no","area":19659.47654194139,"changesets":0,"mappers":0,"roads":0,"buildings":0,"edits":0,"latest":null},"geometry":{"type":"Point","coordinates":[-6.38625106878943,13.3749680800588]}},{"type":"Feature","properties":{"id":1574,"title":"GuirÃ©, cercle de Nara (Mali)","status":"ARCHIVED","created":"2016","lastUpdated":"2016","lastActive":"no","area":0.7189109808900567,"changesets":476,"mappers":12,"roads":29.5198200096267,"buildings":1132,"edits":2098,"latest":"2016-04-23T17:00:08.000Z"},"geometry":{"type":"Point","coordinates":[-6.69224362629136,14.6422774544629]}}],"Uganda":[{"type":"Feature","properties":{"id":5193,"title":"Uganda Crowdsourcing Non-Camp Refugee Data Urban Mapping Kisoro Town, Kisoro District","status":"PUBLISHED","created":"2018","lastUpdated":"2018","lastActive":"no","area":31.214552016699503,"changesets":141,"mappers":9,"roads":0.12289320711668,"buildings":12430,"edits":12471,"latest":"2018-11-01T10:15:35.000Z"},"geometry":{"type":"Point","coordinates":[29.6916206568608,-1.2854421210458]}},{"type":"Feature","properties":{"id":4135,"title":"Salesforce, Uganda Crowd-sourcing Non-Camp Refugee Data (Urban Mapping), Ndeeba, Wankulukuku","status":"PUBLISHED","created":"2018","lastUpdated":"2018","lastActive":"no","area":4.371431618487186,"changesets":1035,"mappers":145,"roads":9.29574392161781,"buildings":10522,"edits":10746,"latest":"2018-11-19T12:53:59.000Z"},"geometry":{"type":"Point","coordinates":[32.5567293812962,0.28494997937009]}},{"type":"Feature","properties":{"id":4141,"title":"Uganda Crowd sourcing Non-Camp Refugee Data, Arua, Omugo Imvepi Area","status":"ARCHIVED","created":"2018","lastUpdated":"2018","lastActive":"no","area":163.51668169498143,"changesets":2759,"mappers":187,"roads":137.275119852827,"buildings":14837,"edits":15599,"latest":"2018-05-09T15:55:29.000Z"},"geometry":{"type":"Point","coordinates":[31.1915165073517,3.20976337704671]}},{"type":"Feature","properties":{"id":4981,"title":"Uganda Crowdsourcing Non-Camp Refugee Data Nyumanzi Refugee Settlement","status":"PUBLISHED","created":"2018","lastUpdated":"2018","lastActive":"no","area":8.8771854068323,"changesets":302,"mappers":39,"roads":57.1082082654173,"buildings":5072,"edits":5252,"latest":"2018-08-22T13:48:40.000Z"},"geometry":{"type":"Point","coordinates":[31.9504353519991,3.46672137413676]}},{"type":"Feature","properties":{"id":5020,"title":"Uganda Crowdsourcing Non-Camp Refugee Data Olua Refugee Settlement Adjumani District","status":"PUBLISHED","created":"2018","lastUpdated":"2018","lastActive":"no","area":1.0733591387640204,"changesets":43,"mappers":3,"roads":0,"buildings":676,"edits":676,"latest":"2018-08-22T13:47:24.000Z"},"geometry":{"type":"Point","coordinates":[31.8917519171841,3.29508397657283]}},{"type":"Feature","properties":{"id":3731,"title":"Rhino Refugee Camp (part 2), Uganda","status":"ARCHIVED","created":"2017","lastUpdated":"2018","lastActive":"no","area":100.91685128040962,"changesets":712,"mappers":61,"roads":258.531411277776,"buildings":8107,"edits":10053,"latest":"2017-10-23T00:27:08.000Z"},"geometry":{"type":"Point","coordinates":[31.4144798338023,3.05601512923643]}},{"type":"Feature","properties":{"id":5207,"title":"Ebola 2018, DRC/Ntoroko District Border Mapping","status":"PUBLISHED","created":"2018","lastUpdated":"2019","lastActive":"no","area":1827.2729891423319,"changesets":1595,"mappers":277,"roads":464.371404212448,"buildings":8324,"edits":10766,"latest":"2019-01-02T23:26:47.000Z"},"geometry":{"type":"Point","coordinates":[30.2710121990189,1.08357516305285]}},{"type":"Feature","properties":{"id":3732,"title":"Saving Mothers Giving Life: Kyenjojo, Uganda","status":"ARCHIVED","created":"2017","lastUpdated":"2018","lastActive":"no","area":2366.1273157793985,"changesets":7902,"mappers":655,"roads":8561.83893691153,"buildings":127814,"edits":251183,"latest":"2018-04-10T01:54:13.000Z"},"geometry":{"type":"Point","coordinates":[30.6620978302436,0.659377083365902]}},{"type":"Feature","properties":{"id":3815,"title":"Palorinya Refugee Camp, Moyo District, Uganda","status":"ARCHIVED","created":"2017","lastUpdated":"2018","lastActive":"no","area":48.290477115658256,"changesets":698,"mappers":77,"roads":129.325256236033,"buildings":12886,"edits":14860,"latest":"2017-12-06T18:21:40.000Z"},"geometry":{"type":"Point","coordinates":[31.6830063852259,3.51337385498218]}},{"type":"Feature","properties":{"id":2770,"title":"Palorinya Refugee Camp, Moyo District, Uganda ","status":"ARCHIVED","created":"2017","lastUpdated":"2017","lastActive":"no","area":53.107368138798506,"changesets":703,"mappers":90,"roads":299.253719200193,"buildings":26966,"edits":29048,"latest":"2017-04-12T20:52:03.000Z"},"geometry":{"type":"Point","coordinates":[31.5796627315964,3.42915486471554]}},{"type":"Feature","properties":{"id":5610,"title":"Mutumba Sub-County, Namayingo District, Uganda","status":"PUBLISHED","created":"2018","lastUpdated":"2018","lastActive":"no","area":104.29176135017,"changesets":685,"mappers":65,"roads":3.3161140319944,"buildings":13926,"edits":13938,"latest":"2018-12-20T01:36:58.000Z"},"geometry":{"type":"Point","coordinates":[33.7793084994007,0.237809542358964]}},{"type":"Feature","properties":{"id":5349,"title":"Mudslides - Bududa District","status":"PUBLISHED","created":"2018","lastUpdated":"2018","lastActive":"no","area":17.19062596276267,"changesets":405,"mappers":57,"roads":79.1466139398541,"buildings":4106,"edits":4794,"latest":"2018-10-19T17:07:00.000Z"},"geometry":{"type":"Point","coordinates":[34.4034860289397,1.00821182647094]}},{"type":"Feature","properties":{"id":4133,"title":"Salesforce, Uganda Crowd-sourcing Non-Camp Refugee Data (Urban Mapping), Kansanga, Kibuli, Namuwongo","status":"PUBLISHED","created":"2018","lastUpdated":"2018","lastActive":"no","area":5.519847154808274,"changesets":1289,"mappers":114,"roads":1.69459137017284,"buildings":6253,"edits":6365,"latest":"2018-03-14T19:38:14.000Z"},"geometry":{"type":"Point","coordinates":[32.5999384617162,0.302886522164371]}},{"type":"Feature","properties":{"id":4267,"title":"Uganda Crowdsourcing Non-Camp Refugee Data, Paludar, Padwar Villages, Lamwo District","status":"ARCHIVED","created":"2018","lastUpdated":"2018","lastActive":"no","area":64.49965935741052,"changesets":387,"mappers":46,"roads":200.562108394955,"buildings":15053,"edits":15640,"latest":"2018-04-10T03:36:42.000Z"},"geometry":{"type":"Point","coordinates":[32.4565538301097,3.37542367635277]}},{"type":"Feature","properties":{"id":4277,"title":"Uganda Crowdsourcing Non-Camp Refugee Data Base Mapping, Kyangwali Area, Hoima, Kagadi District","status":"ARCHIVED","created":"2018","lastUpdated":"2018","lastActive":"no","area":223.49057286073074,"changesets":1366,"mappers":183,"roads":169.046331057569,"buildings":21328,"edits":22458,"latest":"2018-06-26T16:14:34.000Z"},"geometry":{"type":"Point","coordinates":[30.7734076863128,1.16885563007676]}},{"type":"Feature","properties":{"id":4970,"title":"Clean Streets Kampala","status":"PUBLISHED","created":"2018","lastUpdated":"2018","lastActive":"no","area":1.1349195259435116,"changesets":281,"mappers":33,"roads":2.86296845781359,"buildings":3260,"edits":3404,"latest":"2018-12-04T14:20:19.000Z"},"geometry":{"type":"Point","coordinates":[32.5913183551921,0.351818893458289]}},{"type":"Feature","properties":{"id":4593,"title":"Uganda Crowd-sourcing Non-Camp Refugee Data (Urban Mapping), Hoima Municipality, Hoima District","status":"PUBLISHED","created":"2018","lastUpdated":"2018","lastActive":"no","area":40.21494542121517,"changesets":871,"mappers":157,"roads":17.7255524448422,"buildings":12454,"edits":12687,"latest":"2018-12-30T14:22:49.000Z"},"geometry":{"type":"Point","coordinates":[31.3454547455693,1.43808881418473]}},{"type":"Feature","properties":{"id":4327,"title":"Salesforce, Uganda Crowd-Sourcing Non-Camp Refugee Data (Urban Mapping) Rubaga Division Part 1, Kampala District","status":"PUBLISHED","created":"2018","lastUpdated":"2018","lastActive":"no","area":8.40126840870032,"changesets":3095,"mappers":186,"roads":4.91097859192049,"buildings":18597,"edits":18724,"latest":"2018-07-25T17:55:29.000Z"},"geometry":{"type":"Point","coordinates":[32.544026798867,0.336460670269526]}},{"type":"Feature","properties":{"id":4314,"title":"Uganda Crowd-sourcing Non-Camp Refugee Data, Offaka, Anyiribu Subcounty, Arua District Base Mapping","status":"PUBLISHED","created":"2018","lastUpdated":"2019","lastActive":"no","area":292.26457151971164,"changesets":1624,"mappers":185,"roads":169.589196433847,"buildings":11046,"edits":12217,"latest":"2019-01-02T08:51:15.000Z"},"geometry":{"type":"Point","coordinates":[31.065256649407,2.63401821477129]}},{"type":"Feature","properties":{"id":5577,"title":"Kiryandongo District Roads Mapping","status":"PUBLISHED","created":"2018","lastUpdated":"2018","lastActive":"no","area":3647.7812630637227,"changesets":576,"mappers":19,"roads":1533.81991763583,"buildings":11573,"edits":13875,"latest":"2018-12-18T20:55:05.000Z"},"geometry":{"type":"Point","coordinates":[32.041618424462,2.02288277482153]}},{"type":"Feature","properties":{"id":5056,"title":"Uganda Crowdsourcing Non-Camp Refugee Data Arivu Subcounty, Arua District","status":"PUBLISHED","created":"2018","lastUpdated":"2018","lastActive":"no","area":144.28092010200572,"changesets":142,"mappers":9,"roads":0.129906072175552,"buildings":11055,"edits":11072,"latest":"2018-09-03T12:22:42.000Z"},"geometry":{"type":"Point","coordinates":[30.9664177907221,2.8359897833636]}},{"type":"Feature","properties":{"id":5059,"title":"Uganda Crowdsourcing Non-Camp Refugee Data Adumi Subcounty, Arua District","status":"PUBLISHED","created":"2018","lastUpdated":"2018","lastActive":"no","area":65.22649556163152,"changesets":247,"mappers":8,"roads":0.311206684157506,"buildings":14188,"edits":14238,"latest":"2018-09-03T12:03:36.000Z"},"geometry":{"type":"Point","coordinates":[30.8253293585244,3.03935367078327]}},{"type":"Feature","properties":{"id":5505,"title":"Kiryandongo District, Uganda","status":"PUBLISHED","created":"2018","lastUpdated":"2018","lastActive":"no","area":2478.332860346222,"changesets":2025,"mappers":68,"roads":23.0145547280738,"buildings":141904,"edits":142015,"latest":"2018-12-05T09:09:33.000Z"},"geometry":{"type":"Point","coordinates":[32.1099919646167,1.96952847861348]}},{"type":"Feature","properties":{"id":5212,"title":"Missing Maps: Kitagwenda County, Western Sub-Region, Uganda","status":"PUBLISHED","created":"2018","lastUpdated":"2018","lastActive":"no","area":720.4273400392675,"changesets":3005,"mappers":160,"roads":7.39176720720533,"buildings":17885,"edits":18104,"latest":"2018-10-22T09:44:10.000Z"},"geometry":{"type":"Point","coordinates":[30.3404283336177,0.014955365673615]}},{"type":"Feature","properties":{"id":5552,"title":"Adjumani District, Uganda -Refugee Mapping","status":"PUBLISHED","created":"2018","lastUpdated":"2018","lastActive":"no","area":1451.1457567869315,"changesets":1125,"mappers":33,"roads":1.57842855439283,"buildings":48307,"edits":48423,"latest":"2018-11-25T15:57:46.000Z"},"geometry":{"type":"Point","coordinates":[31.906987872274,3.30700822508436]}},{"type":"Feature","properties":{"id":5564,"title":"Kampala District, Kawempe Division, Uganda - Refugee Mapping","status":"PUBLISHED","created":"2018","lastUpdated":"2018","lastActive":"no","area":31.05372452854765,"changesets":1201,"mappers":37,"roads":2.60927704607908,"buildings":81712,"edits":82082,"latest":"2018-12-11T11:36:18.000Z"},"geometry":{"type":"Point","coordinates":[32.5754890211266,0.36743038747919]}},{"type":"Feature","properties":{"id":5567,"title":"Makindye Division,Kampala District, Uganda - Refugee Mapping","status":"PUBLISHED","created":"2018","lastUpdated":"2018","lastActive":"no","area":48.79786058471487,"changesets":876,"mappers":38,"roads":2.46292777671149,"buildings":61779,"edits":62346,"latest":"2018-12-07T09:36:10.000Z"},"geometry":{"type":"Point","coordinates":[32.6134602826585,0.272561398196064]}},{"type":"Feature","properties":{"id":5210,"title":"Ebola 2018, DRC/Kasese District Border Roads  Mapping","status":"PUBLISHED","created":"2018","lastUpdated":"2019","lastActive":"yes","area":370.51964845627447,"changesets":1445,"mappers":276,"roads":1282.10231745661,"buildings":3988,"edits":12217,"latest":"2019-01-08T04:22:47.000Z"},"geometry":{"type":"Point","coordinates":[29.7439454702374,0.045849191372524]}},{"type":"Feature","properties":{"id":5581,"title":"Nebbi  District, Uganda Refugee Mapping","status":"PUBLISHED","created":"2018","lastUpdated":"2018","lastActive":"no","area":779.5449311146575,"changesets":774,"mappers":27,"roads":90.5491126793865,"buildings":96876,"edits":97010,"latest":"2018-12-10T15:51:27.000Z"},"geometry":{"type":"Point","coordinates":[31.1944776120686,2.3560572644194]}},{"type":"Feature","properties":{"id":5445,"title":"Mparo Division and Buhanika Subcounty, Hoima District, Uganda","status":"PUBLISHED","created":"2018","lastUpdated":"2018","lastActive":"no","area":181.89432975513586,"changesets":574,"mappers":23,"roads":1.64164097195028,"buildings":12852,"edits":12930,"latest":"2018-11-16T13:58:40.000Z"},"geometry":{"type":"Point","coordinates":[31.426515825295,1.3700422947166]}},{"type":"Feature","properties":{"id":5452,"title":"Busiisi, Bujumbura,Subcounty, Hoima District, Uganda","status":"PUBLISHED","created":"2018","lastUpdated":"2018","lastActive":"no","area":140.36645870963497,"changesets":439,"mappers":25,"roads":0.994103249974874,"buildings":12047,"edits":12129,"latest":"2018-11-26T00:23:30.000Z"},"geometry":{"type":"Point","coordinates":[31.3246638047757,1.43938302679903]}},{"type":"Feature","properties":{"id":5069,"title":"Uganda Crowdsourcing Non-Camp Refugee Data Baratuku Refugee Settlement, Adjumani District","status":"PUBLISHED","created":"2018","lastUpdated":"2018","lastActive":"no","area":9.00863186321426,"changesets":18,"mappers":2,"roads":0,"buildings":238,"edits":238,"latest":"2018-08-24T21:17:13.000Z"},"geometry":{"type":"Point","coordinates":[31.895626923864,3.46854635451249]}},{"type":"Feature","properties":{"id":3193,"title":"Adjumani Town","status":"PUBLISHED","created":"2017","lastUpdated":"2018","lastActive":"no","area":12.19607221223854,"changesets":660,"mappers":41,"roads":139.726730765495,"buildings":12885,"edits":15350,"latest":"2017-09-24T10:56:17.000Z"},"geometry":{"type":"Point","coordinates":[31.7888665446857,3.37512889161942]}},{"type":"Feature","properties":{"id":4359,"title":"CFYDDI Training","status":"ARCHIVED","created":"2018","lastUpdated":"2018","lastActive":"no","area":27.820896722399368,"changesets":11,"mappers":3,"roads":0,"buildings":14,"edits":14,"latest":"2018-03-24T15:56:59.000Z"},"geometry":{"type":"Point","coordinates":[32.6375174892928,0.482318647545628]}},{"type":"Feature","properties":{"id":4798,"title":"Uganda Crowdsourcing Non-Camp Refugee Data, Rwamwanja Refugee Settlement, Kamwenge District","status":"PUBLISHED","created":"2018","lastUpdated":"2018","lastActive":"no","area":343.59803817321034,"changesets":1718,"mappers":164,"roads":180.094444968631,"buildings":24734,"edits":26622,"latest":"2018-08-19T09:15:33.000Z"},"geometry":{"type":"Point","coordinates":[30.681410042181,0.325864901010008]}},{"type":"Feature","properties":{"id":5171,"title":"Ebola 2018, DRC/Kanungu District Border Roads Mapping","status":"PUBLISHED","created":"2018","lastUpdated":"2018","lastActive":"no","area":653.4038399066059,"changesets":404,"mappers":57,"roads":824.602674625517,"buildings":885,"edits":3698,"latest":"2018-12-09T16:59:08.000Z"},"geometry":{"type":"Point","coordinates":[29.638815766461,-0.765965544201528]}},{"type":"Feature","properties":{"id":5209,"title":"Ebola 2018, DRC/Kasese District Border Mapping","status":"PUBLISHED","created":"2018","lastUpdated":"2018","lastActive":"no","area":322.8536752846355,"changesets":670,"mappers":88,"roads":55.4896063560609,"buildings":26532,"edits":27825,"latest":"2018-11-26T05:50:13.000Z"},"geometry":{"type":"Point","coordinates":[29.7365617256048,0.06069365863441]}},{"type":"Feature","properties":{"id":5300,"title":"Eastern Division - Kapchorwa Town Council mapping to help end FGM - Uganda","status":"PUBLISHED","created":"2018","lastUpdated":"2018","lastActive":"no","area":2.680962226924354,"changesets":351,"mappers":11,"roads":11.5665538636238,"buildings":1881,"edits":1987,"latest":"2018-10-10T14:09:05.000Z"},"geometry":{"type":"Point","coordinates":[34.4651098338578,1.39633929784753]}},{"type":"Feature","properties":{"id":3739,"title":"Lobule Refugee Settlement- Koboko District","status":"ARCHIVED","created":"2017","lastUpdated":"2018","lastActive":"no","area":98.2527749032228,"changesets":1026,"mappers":85,"roads":35.6395814949507,"buildings":11917,"edits":12393,"latest":"2017-12-05T19:04:15.000Z"},"geometry":{"type":"Point","coordinates":[31.0281768979421,3.39428486044615]}},{"type":"Feature","properties":{"id":3587,"title":"Ibanda Floods - Western Uganda","status":"ARCHIVED","created":"2017","lastUpdated":"2018","lastActive":"no","area":20.609120926153867,"changesets":327,"mappers":18,"roads":97.108671006253,"buildings":1666,"edits":2049,"latest":"2017-09-15T18:53:28.000Z"},"geometry":{"type":"Point","coordinates":[29.9850938234277,-1.00300604176077]}},{"type":"Feature","properties":{"id":5274,"title":"2018 Ebola, Kigorobya Subcounty, Hoima District, Uganda","status":"PUBLISHED","created":"2018","lastUpdated":"2018","lastActive":"no","area":523.5626068607933,"changesets":798,"mappers":61,"roads":118.465264933848,"buildings":41196,"edits":41456,"latest":"2018-11-27T20:55:56.000Z"},"geometry":{"type":"Point","coordinates":[31.2684257295975,1.61960269032494]}},