{"totalEdits":44793683,"totalBuildings":37329312,"totalRoads":939314.523408907,"mappersOnline":59,"totalTasksMapped":1779600,"totalMappers":153035,"totalProjects":4307,"Uganda":[{"type":"Feature","properties":{"id":3374,"title":"Uganda Bureau of Statistics Educational Facilities Buildings and Road Network Mapping","status":"PUBLISHED","created":"2017","lastUpdated":"2018","lastActive":"no","area":243082.79180043133,"changesets":154,"mappers":17,"roads":1047.26188867145,"buildings":4404,"edits":5935,"latest":"2019-01-09T14:17:55.000Z"},"geometry":{"type":"Point","coordinates":[32.3913221758817,1.28071652713602]}},{"type":"Feature","properties":{"id":839,"title":"Mapping Eastern Uganda","status":"ARCHIVED","created":"2015","lastUpdated":"2015","lastActive":"no","area":38492.808770526186,"changesets":0,"mappers":0,"roads":0,"buildings":0,"edits":0,"latest":null},"geometry":{"type":"Point","coordinates":[33.725713353498,0.986348559412214]}},{"type":"Feature","properties":{"id":1196,"title":"Peace Corps Uganda - Masaka","status":"PUBLISHED","created":"2015","lastUpdated":"2018","lastActive":"no","area":43.130343075892235,"changesets":741,"mappers":102,"roads":231.711531316098,"buildings":15963,"edits":18969,"latest":"2018-04-17T22:43:56.000Z"},"geometry":{"type":"Point","coordinates":[31.7449660374259,-0.328482453726074]}},{"type":"Feature","properties":{"id":5056,"title":"Uganda Crowdsourcing Non-Camp Refugee Data Arivu Subcounty, Arua District","status":"PUBLISHED","created":"2018","lastUpdated":"2018","lastActive":"no","area":144.28092010200572,"changesets":142,"mappers":9,"roads":0.129906072175552,"buildings":11055,"edits":11072,"latest":"2018-09-03T12:22:42.000Z"},"geometry":{"type":"Point","coordinates":[30.9664177907221,2.8359897833636]}},{"type":"Feature","properties":{"id":1437,"title":"MapUganda - Phase 2: Tororo (Butaleja, Namutumba, Bugiri, Namiyango and Busia)","status":"PUBLISHED","created":"2016","lastUpdated":"2018","lastActive":"no","area":5529.26414171349,"changesets":468,"mappers":97,"roads":799.003526632192,"buildings":8014,"edits":12431,"latest":"2018-11-14T22:51:54.000Z"},"geometry":{"type":"Point","coordinates":[33.8839172184962,0.592549617620751]}},{"type":"Feature","properties":{"id":5207,"title":"Ebola 2018, DRC/Ntoroko District Border Mapping","status":"PUBLISHED","created":"2018","lastUpdated":"2019","lastActive":"no","area":1827.2729891423319,"changesets":1610,"mappers":278,"roads":467.142973487044,"buildings":8587,"edits":11046,"latest":"2019-01-14T16:29:04.000Z"},"geometry":{"type":"Point","coordinates":[30.2710121990189,1.08357516305285]}},{"type":"Feature","properties":{"id":3732,"title":"Saving Mothers Giving Life: Kyenjojo, Uganda","status":"ARCHIVED","created":"2017","lastUpdated":"2018","lastActive":"no","area":2366.1273157793985,"changesets":7902,"mappers":655,"roads":8561.83893691151,"buildings":127814,"edits":251183,"latest":"2018-04-10T01:54:13.000Z"},"geometry":{"type":"Point","coordinates":[30.6620978302436,0.659377083365902]}},{"type":"Feature","properties":{"id":2770,"title":"Palorinya Refugee Camp, Moyo District, Uganda ","status":"ARCHIVED","created":"2017","lastUpdated":"2017","lastActive":"no","area":53.107368138798506,"changesets":703,"mappers":90,"roads":299.253719200193,"buildings":26966,"edits":29048,"latest":"2017-04-12T20:52:03.000Z"},"geometry":{"type":"Point","coordinates":[31.5796627315964,3.42915486471554]}},{"type":"Feature","properties":{"id":5610,"title":"Mutumba Sub-County, Namayingo District, Uganda","status":"PUBLISHED","created":"2018","lastUpdated":"2019","lastActive":"no","area":104.29176135017,"changesets":688,"mappers":66,"roads":3.3161140319944,"buildings":13940,"edits":13952,"latest":"2019-01-11T09:35:56.000Z"},"geometry":{"type":"Point","coordinates":[33.7793084994007,0.237809542358964]}},{"type":"Feature","properties":{"id":5596,"title":"Lamwo District Roads Mapping","status":"PUBLISHED","created":"2018","lastUpdated":"2019","lastActive":"yes","area":4809.246792498921,"changesets":342,"mappers":14,"roads":1121.34789597406,"buildings":7925,"edits":9385,"latest":"2019-01-15T13:48:22.000Z"},"geometry":{"type":"Point","coordinates":[32.757186543365,3.5779333797391]}},{"type":"Feature","properties":{"id":5209,"title":"Ebola 2018, DRC/Kasese District Border Mapping","status":"PUBLISHED","created":"2018","lastUpdated":"2019","lastActive":"no","area":322.8536752846355,"changesets":670,"mappers":88,"roads":55.489606356061,"buildings":26532,"edits":27825,"latest":"2018-11-26T05:50:13.000Z"},"geometry":{"type":"Point","coordinates":[29.7365617256048,0.06069365863441]}},{"type":"Feature","properties":{"id":4970,"title":"Clean Streets Kampala","status":"PUBLISHED","created":"2018","lastUpdated":"2018","lastActive":"no","area":1.1349195259435116,"changesets":281,"mappers":33,"roads":2.86296845781359,"buildings":3260,"edits":3404,"latest":"2018-12-04T14:20:19.000Z"},"geometry":{"type":"Point","coordinates":[32.5913183551921,0.351818893458289]}},{"type":"Feature","properties":{"id":1477,"title":"Missing Maps: Uganda (Lakes George, Edward and the Kazinga Channel) - Rural","status":"ARCHIVED","created":"2016","lastUpdated":"2016","lastActive":"no","area":185.6829237552295,"changesets":1119,"mappers":49,"roads":513.733445778957,"buildings":15261,"edits":19383,"latest":"2016-03-29T21:38:30.000Z"},"geometry":{"type":"Point","coordinates":[30.2912262406782,-0.059470487988049]}},{"type":"Feature","properties":{"id":1427,"title":"TO DELETE","status":"ARCHIVED","created":"2016","lastUpdated":"2016","lastActive":"no","area":39.25407577410402,"changesets":0,"mappers":0,"roads":0,"buildings":0,"edits":0,"latest":null},"geometry":{"type":"Point","coordinates":[30.0046043688596,-0.107777662789444]}},{"type":"Feature","properties":{"id":3588,"title":"Ngoma Floods - Western Uganda","status":"ARCHIVED","created":"2017","lastUpdated":"2018","lastActive":"no","area":11.391254678845172,"changesets":168,"mappers":14,"roads":32.908183427561,"buildings":1389,"edits":1717,"latest":"2017-09-16T12:32:46.000Z"},"geometry":{"type":"Point","coordinates":[29.9561221706196,-0.950854072671534]}},{"type":"Feature","properties":{"id":3734,"title":"Ocea Zone, Rhino Camp, Uganda","status":"ARCHIVED","created":"2017","lastUpdated":"2018","lastActive":"no","area":2.874349426478466,"changesets":205,"mappers":20,"roads":16.7826692701172,"buildings":2454,"edits":2878,"latest":"2017-12-25T16:07:50.000Z"},"geometry":{"type":"Point","coordinates":[31.2818479517423,3.08310950522608]}},{"type":"Feature","properties":{"id":4975,"title":"Missing Maps: Ndorwa County (NE part), Southwest Sub-Region, Uganda","status":"ARCHIVED","created":"2018","lastUpdated":"2018","lastActive":"no","area":347.47640850622633,"changesets":5887,"mappers":372,"roads":25.0014438579042,"buildings":81922,"edits":82482,"latest":"2018-09-19T04:22:38.000Z"},"geometry":{"type":"Point","coordinates":[30.0490897178157,-1.18196538029396]}},{"type":"Feature","properties":{"id":5505,"title":"Kiryandongo District, Uganda","status":"PUBLISHED","created":"2018","lastUpdated":"2018","lastActive":"no","area":2478.332860346222,"changesets":2025,"mappers":68,"roads":23.0145547280738,"buildings":141904,"edits":142015,"latest":"2018-12-05T09:09:33.000Z"},"geometry":{"type":"Point","coordinates":[32.1099919646167,1.96952847861348]}},{"type":"Feature","properties":{"id":5445,"title":"Mparo Division and Buhanika Subcounty, Hoima District, Uganda","status":"PUBLISHED","created":"2018","lastUpdated":"2018","lastActive":"no","area":181.89432975513586,"changesets":574,"mappers":23,"roads":1.64164097195028,"buildings":12852,"edits":12930,"latest":"2018-11-16T13:58:40.000Z"},"geometry":{"type":"Point","coordinates":[31.426515825295,1.3700422947166]}},{"type":"Feature","properties":{"id":5454,"title":"Buseruka, Kizirafumbi Subcounty Hoima, Uganda","status":"PUBLISHED","created":"2018","lastUpdated":"2018","lastActive":"no","area":668.2757904201408,"changesets":586,"mappers":30,"roads":5.11922937035868,"buildings":27478,"edits":27531,"latest":"2018-11-20T10:03:35.000Z"},"geometry":{"type":"Point","coordinates":[31.1193703429499,1.44560886297994]}},{"type":"Feature","properties":{"id":5443,"title":"Kitoba and Kyabigamire Subcounty, Hoima District, Uganda","status":"PUBLISHED","created":"2018","lastUpdated":"2018","lastActive":"no","area":515.0246137830939,"changesets":501,"mappers":13,"roads":2.4582039764687,"buildings":40325,"edits":40452,"latest":"2018-11-13T15:14:57.000Z"},"geometry":{"type":"Point","coordinates":[31.426850899203,1.49336723438459]}},{"type":"Feature","properties":{"id":3850,"title":"Smart Cities Mapping- Kiteezi","status":"ARCHIVED","created":"2017","lastUpdated":"2018","lastActive":"no","area":5.78404342872706,"changesets":344,"mappers":23,"roads":10.8770828869207,"buildings":5001,"edits":5227,"latest":"2018-02-13T14:44:17.000Z"},"geometry":{"type":"Point","coordinates":[32.570530576259,0.416483116088845]}},{"type":"Feature","properties":{"id":5456,"title":"Kyangwali Subcounty, Hoima District, Uganda","status":"PUBLISHED","created":"2018","lastUpdated":"2018","lastActive":"no","area":495.99932479912576,"changesets":435,"mappers":26,"roads":2.18249531944726,"buildings":16135,"edits":16188,"latest":"2018-11-28T12:12:07.000Z"},"geometry":{"type":"Point","coordinates":[30.8450375976689,1.23352105668042]}},{"type":"Feature","properties":{"id":5469,"title":"Babakara, Hapuuyo, Kyegegwa Town Council, Kyegegwa District, Uganda","status":"PUBLISHED","created":"2018","lastUpdated":"2018","lastActive":"no","area":713.164590218725,"changesets":675,"mappers":33,"roads":8.83235552469332,"buildings":43839,"edits":44104,"latest":"2018-11-20T14:40:21.000Z"},"geometry":{"type":"Point","coordinates":[31.0059218176027,0.574104523109574]}},{"type":"Feature","properties":{"id":5023,"title":"Uganda Crowdsourcing Non-Camp Refugee Data Ayilo Refugee Settlement Adjumani District","status":"PUBLISHED","created":"2018","lastUpdated":"2018","lastActive":"no","area":8.431347575060217,"changesets":138,"mappers":5,"roads":0.0124358352302912,"buildings":6392,"edits":6402,"latest":"2018-08-24T13:48:14.000Z"},"geometry":{"type":"Point","coordinates":[31.9466760047503,3.27608662441525]}},{"type":"Feature","properties":{"id":5552,"title":"Adjumani District, Uganda -Refugee Mapping","status":"PUBLISHED","created":"2018","lastUpdated":"2018","lastActive":"no","area":1451.1457567869315,"changesets":1125,"mappers":33,"roads":1.57842855439283,"buildings":48307,"edits":48423,"latest":"2018-11-25T15:57:46.000Z"},"geometry":{"type":"Point","coordinates":[31.906987872274,3.30700822508436]}},{"type":"Feature","properties":{"id":5567,"title":"Makindye Division,Kampala District, Uganda - Refugee Mapping","status":"PUBLISHED","created":"2018","lastUpdated":"2018","lastActive":"no","area":48.79786058471487,"changesets":876,"mappers":38,"roads":2.46292777671149,"buildings":61779,"edits":62346,"latest":"2018-12-07T09:36:10.000Z"},"geometry":{"type":"Point","coordinates":[32.6134602826585,0.272561398196064]}},{"type":"Feature","properties":{"id":5060,"title":"Uganda Crowdsourcing Non-Camp Refugee Data Ayivuni Subcounty, Arua District","status":"PUBLISHED","created":"2018","lastUpdated":"2018","lastActive":"no","area":47.139643321499555,"changesets":252,"mappers":12,"roads":0.0374757520399794,"buildings":8634,"edits":8641,"latest":"2018-08-30T07:17:11.000Z"},"geometry":{"type":"Point","coordinates":[30.8327459940097,3.08918993054192]}},{"type":"Feature","properties":{"id":5564,"title":"Kampala District, Kawempe Division, Uganda - Refugee Mapping","status":"PUBLISHED","created":"2018","lastUpdated":"2018","lastActive":"no","area":31.05372452854765,"changesets":1201,"mappers":37,"roads":2.60927704607908,"buildings":81712,"edits":82082,"latest":"2018-12-11T11:36:18.000Z"},"geometry":{"type":"Point","coordinates":[32.5754890211266,0.36743038747919]}},{"type":"Feature","properties":{"id":5577,"title":"Kiryandongo District Roads Mapping","status":"PUBLISHED","created":"2018","lastUpdated":"2018","lastActive":"no","area":3647.7812630637227,"changesets":576,"mappers":19,"roads":1533.81991763583,"buildings":11573,"edits":13875,"latest":"2018-12-18T20:55:05.000Z"},"geometry":{"type":"Point","coordinates":[32.041618424462,2.02288277482153]}},{"type":"Feature","properties":{"id":1434,"title":"Uganda Bureau Of Statistics Educational Facilities Import","status":"PUBLISHED","created":"2016","lastUpdated":"2017","lastActive":"no","area":176984.6233742301,"changesets":1338,"mappers":33,"roads":203.407137763958,"buildings":3793,"edits":52339,"latest":"2017-10-13T22:44:23.000Z"},"geometry":{"type":"Point","coordinates":[32.1499827349937,1.27510398381826]}},{"type":"Feature","properties":{"id":3254,"title":"Yumbe District ","status":"ARCHIVED","created":"2017","lastUpdated":"2018","lastActive":"no","area":2341.0954129420443,"changesets":2770,"mappers":43,"roads":2302.884639571,"buildings":174538,"edits":192671,"latest":"2017-07-17T14:22:43.000Z"},"geometry":{"type":"Point","coordinates":[31.2880837446486,3.52081849247251]}},{"type":"Feature","properties":{"id":2271,"title":"PEPFAR Uganda: Buvuma","status":"ARCHIVED","created":"2016","lastUpdated":"2016","lastActive":"no","area":2352.9896783170648,"changesets":1,"mappers":1,"roads":0.158660069128969,"buildings":14,"edits":18,"latest":"2016-11-16T07:18:12.000Z"},"geometry":{"type":"Point","coordinates":[33.237361234543,0.070341023126681]}},{"type":"Feature","properties":{"id":5171,"title":"Ebola 2018, DRC/Kanungu District Border Roads Mapping","status":"PUBLISHED","created":"2018","lastUpdated":"2018","lastActive":"no","area":653.4038399066059,"changesets":404,"mappers":57,"roads":824.602674625517,"buildings":885,"edits":3698,"latest":"2018-12-09T16:59:08.000Z"},"geometry":{"type":"Point","coordinates":[29.638815766461,-0.765965544201528]}},{"type":"Feature","properties":{"id":2421,"title":"Zone 5, Bidibidi Refugee Camp, Yumbe Area, Uganda, Camp - WatSan","status":"ARCHIVED","created":"2017","lastUpdated":"2017","lastActive":"no","area":215.10479716417387,"changesets":1415,"mappers":104,"roads":1176.4652173541,"buildings":8470,"edits":16564,"latest":"2017-09-30T12:32:53.000Z"},"geometry":{"type":"Point","coordinates":[31.3956416824407,3.28312365631806]}},{"type":"Feature","properties":{"id":2379,"title":"Yumbe Camp, Uganda - MSF","status":"ARCHIVED","created":"2016","lastUpdated":"2017","lastActive":"no","area":36.305565581280995,"changesets":326,"mappers":25,"roads":271.133440821412,"buildings":14539,"edits":18549,"latest":"2016-12-29T20:59:59.000Z"},"geometry":{"type":"Point","coordinates":[31.3512544157566,3.52864741016445]}},{"type":"Feature","properties":{"id":2290,"title":"PEPFAR Uganda: Rakai Coast, Kasensero Landing Site","status":"PUBLISHED","created":"2016","lastUpdated":"2018","lastActive":"no","area":390.7426047377783,"changesets":487,"mappers":33,"roads":447.456340402132,"buildings":9032,"edits":12430,"latest":"2018-02-21T23:52:26.000Z"},"geometry":{"type":"Point","coordinates":[31.7723008652389,-0.712675200149192]}},{"type":"Feature","properties":{"id":4322,"title":"Uganda - Bridges to Prosperity - Bridge AOI Mapping","status":"ARCHIVED","created":"2018","lastUpdated":"2018","lastActive":"no","area":6.405450259715074,"changesets":140,"mappers":11,"roads":52.7012264258264,"buildings":1606,"edits":1975,"latest":"2018-04-09T05:13:11.000Z"},"geometry":{"type":"Point","coordinates":[34.2550829145807,1.11600197899798]}},{"type":"Feature","properties":{"id":4134,"title":"Salesforce, Uganda Crowd-sourcing Non-Camp Refugee Data (Urban Mapping), Kibuye, Katwe, Makindye","status":"PUBLISHED","created":"2018","lastUpdated":"2019","lastActive":"yes","area":5.069268955123824,"changesets":2898,"mappers":192,"roads":16.3851745679139,"buildings":25878,"edits":26503,"latest":"2019-01-15T17:45:49.000Z"},"geometry":{"type":"Point","coordinates":[32.5781360722246,0.290453912383011]}},{"type":"Feature","properties":{"id":4120,"title":"Uganda Crowd-sourcing Non-Camp Refugee Data, Madi-Okollo, Ajibu Parish","status":"ARCHIVED","created":"2018","lastUpdated":"2018","lastActive":"no","area":74.10769411316731,"changesets":731,"mappers":90,"roads":578.998482436729,"buildings":5183,"edits":8489,"latest":"2018-03-22T18:40:58.000Z"},"geometry":{"type":"Point","coordinates":[31.1217456222401,2.73635846884362]}},{"type":"Feature","properties":{"id":4123,"title":"Uganda Crowd-sourcing Non-Camp Refugee Data, Madi-Okollo,Onyomu Parish","status":"ARCHIVED","created":"2018","lastUpdated":"2018","lastActive":"no","area":121.54325315707095,"changesets":302,"mappers":39,"roads":68.1042178765754,"buildings":2208,"edits":2478,"latest":"2018-03-26T19:23:42.000Z"},"geometry":{"type":"Point","coordinates":[31.2132972595582,2.75840510430834]}},{"type":"Feature","properties":{"id":4140,"title":"Uganda Crowd sourcing Non-Camp Refugee Data , Arua, Ofua Zone Area, Rhino Refugee Settlement","status":"ARCHIVED","created":"2018","lastUpdated":"2018","lastActive":"no","area":123.68500987609691,"changesets":921,"mappers":124,"roads":30.8913147433652,"buildings":8008,"edits":8234,"latest":"2018-03-09T18:11:13.000Z"},"geometry":{"type":"Point","coordinates":[31.2021225377434,3.12878610113241]}},{"type":"Feature","properties":{"id":5581,"title":"Nebbi  District, Uganda Refugee Mapping","status":"PUBLISHED","created":"2018","lastUpdated":"2018","lastActive":"no","area":779.5449311146575,"changesets":774,"mappers":27,"roads":90.5491126793865,"buildings":96876,"edits":97010,"latest":"2018-12-10T15:51:27.000Z"},"geometry":{"type":"Point","coordinates":[31.1944776120686,2.3560572644194]}},{"type":"Feature","properties":{"id":1426,"title":"DELETE","status":"ARCHIVED","created":"2016","lastUpdated":"2016","lastActive":"no","area":39.25407577410402,"changesets":0,"mappers":0,"roads":0,"buildings":0,"edits":0,"latest":null},"geometry":{"type":"Point","coordinates":[30.0046043688596,-0.107777662789444]}},{"type":"Feature","properties":{"id":1428,"title":"Missing Maps: Uganda (Lakes George, Edward and the Kazinga Channel) - Urban","status":"ARCHIVED","created":"2016","lastUpdated":"2016","lastActive":"no","area":39.25407577410402,"changesets":67,"mappers":2,"roads":32.730798363527,"buildings":4705,"edits":4859,"latest":"2016-02-09T09:52:05.000Z"},"geometry":{"type":"Point","coordinates":[30.0046043688596,-0.107777662789444]}},{"type":"Feature","properties":{"id":1436,"title":"MapUganda - Phase 1: Mbale (Pallisa, Kaliro, Kibuku and Budaka)","status":"PUBLISHED","created":"2016","lastUpdated":"2018","lastActive":"no","area":2884.303189069722,"changesets":1018,"mappers":108,"roads":741.729924921987,"buildings":9980,"edits":14528,"latest":"2019-01-13T03:04:57.000Z"},"geometry":{"type":"Point","coordinates":[33.7084365828725,1.12548842040835]}},{"type":"Feature","properties":{"id":4966,"title":"Missing Maps: Bwamba County, Western Sub-Region, Uganda","status":"ARCHIVED","created":"2018","lastUpdated":"2018","lastActive":"no","area":281.6584044189153,"changesets":2369,"mappers":301,"roads":17.8228962542698,"buildings":48043,"edits":48289,"latest":"2018-10-18T14:38:50.000Z"},"geometry":{"type":"Point","coordinates":[30.020962205808,0.740122803683257]}},{"type":"Feature","properties":{"id":4121,"title":"Uganda Crowd-sourcing Non-Camp Refugee Data, Madi-Okollo,Baito Parish","status":"ARCHIVED","created":"2018","lastUpdated":"2018","lastActive":"no","area":115.57634607861536,"changesets":338,"mappers":40,"roads":129.59810557319,"buildings":2411,"edits":2968,"latest":"2018-03-23T21:21:59.000Z"},"geometry":{"type":"Point","coordinates":[31.2437596327978,2.70017875405747]}},{"type":"Feature","properties":{"id":1197,"title":"Peace Corps Uganda - Arua","status":"PUBLISHED","created":"2015","lastUpdated":"2018","lastActive":"no","area":7.649398362963315,"changesets":795,"mappers":45,"roads":86.0095814458602,"buildings":13691,"edits":15829,"latest":"2018-01-12T01:21:21.000Z"},"geometry":{"type":"Point","coordinates":[30.9119356211069,3.02216600149258]}},{"type":"Feature","properties":{"id":4359,"title":"CFYDDI Training","status":"ARCHIVED","created":"2018","lastUpdated":"2018","lastActive":"no","area":27.820896722399368,"changesets":11,"mappers":3,"roads":0,"buildings":14,"edits":14,"latest":"2018-03-24T15:56:59.000Z"},"geometry":{"type":"Point","coordinates":[32.6375174892928,0.482318647545628]}},{"type":"Feature","properties":{"id":4593,"title":"Uganda Crowd-sourcing Non-Camp Refugee Data (Urban Mapping), Hoima Municipality, Hoima District","status":"PUBLISHED","created":"2018","lastUpdated":"2018","lastActive":"no","area":40.21494542121517,"changesets":871,"mappers":157,"roads":17.7255524448422,"buildings":12454,"edits":12687,"latest":"2018-12-30T14:22:49.000Z"},"geometry":{"type":"Point","coordinates":[31.3454547455693,1.43808881418473]}},{"type":"Feature","properties":{"id":5452,"title":"Busiisi, Bujumbura,Subcounty, Hoima District, Uganda","status":"PUBLISHED","created":"2018","lastUpdated":"2018","lastActive":"no","area":140.36645870963497,"changesets":439,"mappers":25,"roads":0.994103249974874,"buildings":12047,"edits":12129,"latest":"2018-11-26T00:23:30.000Z"},"geometry":{"type":"Point","coordinates":[31.3246638047757,1.43938302679903]}},{"type":"Feature","properties":{"id":4135,"title":"Salesforce, Uganda Crowd-sourcing Non-Camp Refugee Data (Urban Mapping), Ndeeba, Wankulukuku","status":"PUBLISHED","created":"2018","lastUpdated":"2018","lastActive":"no","area":4.371431618487186,"changesets":1035,"mappers":145,"roads":9.29574392161781,"buildings":10522,"edits":10746,"latest":"2018-11-19T12:53:59.000Z"},"geometry":{"type":"Point","coordinates":[32.5567293812962,0.28494997937009]}},{"type":"Feature","properties":{"id":5300,"title":"Eastern Division - Kapchorwa Town Council mapping to help end FGM - Uganda","status":"PUBLISHED","created":"2018","lastUpdated":"2018","lastActive":"no","area":2.680962226924354,"changesets":351,"mappers":11,"roads":11.5665538636238,"buildings":1881,"edits":1987,"latest":"2018-10-10T14:09:05.000Z"},"geometry":{"type":"Point","coordinates":[34.4651098338578,1.39633929784753]}},{"type":"Feature","properties":{"id":3187,"title":"Maji Refugee Settlements, Adjumani Area","status":"PUBLISHED","created":"2017","lastUpdated":"2017","lastActive":"no","area":13.620559082078705,"changesets":492,"mappers":43,"roads":135.22450885648,"buildings":8791,"edits":12095,"latest":"2017-09-25T08:43:59.000Z"},"geometry":{"type":"Point","coordinates":[31.6535257441306,3.20704703625468]}},{"type":"Feature","properties":{"id":5299,"title":"Kirwoko, Siron  Parishes - Kapchorwa District mapping to help end FGM - Uganda","status":"PUBLISHED","created":"2018","lastUpdated":"2018","lastActive":"no","area":8.630813776064755,"changesets":258,"mappers":15,"roads":47.456731253572,"buildings":1955,"edits":2397,"latest":"2018-11-02T13:08:34.000Z"},"geometry":{"type":"Point","coordinates":[34.4699761423445,1.4195506684342]}},{"type":"Feature","properties":{"id":5294,"title":"Tumboboi Parish, Kaptanya Sub-county, Kapchorwa District mapping to help end FGM - Uganda","status":"PUBLISHED","created":"2018","lastUpdated":"2018","lastActive":"no","area":11.924554159362645,"changesets":332,"mappers":21,"roads":93.0161344736902,"buildings":1257,"edits":1788,"latest":"2018-10-17T09:02:27.000Z"},"geometry":{"type":"Point","coordinates":[34.464190889598,1.45283355265955]}},{"type":"Feature","properties":{"id":5069,"title":"Uganda Crowdsourcing Non-Camp Refugee Data Baratuku Refugee Settlement, Adjumani District","status":"PUBLISHED","created":"2018","lastUpdated":"2018","lastActive":"no","area":9.00863186321426,"changesets":18,"mappers":2,"roads":0,"buildings":238,"edits":238,"latest":"2018-08-24T21:17:13.000Z"},"geometry":{"type":"Point","coordinates":[31.895626923864,3.46854635451249]}},{"type":"Feature","properties":{"id":5054,"title":"Uganda Crowdsourcing Non-Camp Refugee Data Uleppi Subcounty, Arua District","status":"ARCHIVED","created":"2018","lastUpdated":"2018","lastActive":"no","area":111.60526811307514,"changesets":157,"mappers":7,"roads":0.199441541099154,"buildings":5831,"edits":5862,"latest":"2018-09-07T01:58:18.000Z"},"geometry":{"type":"Point","coordinates":[31.0672369715303,2.78650774798417]}},{"type":"Feature","properties":{"id":5019,"title":"Uganda Crowdsourcing Non-Camp Refugee Data Mungula 1 Refugee Settlement Adjumani District","status":"PUBLISHED","created":"2018","lastUpdated":"2018","lastActive":"no","area":1.9878667365284295,"changesets":73,"mappers":5,"roads":0,"buildings":1594,"edits":1594,"latest":"2018-08-23T06:38:50.000Z"},"geometry":{"type":"Point","coordinates":[31.7917565331246,3.19005820627249]}},{"type":"Feature","properties":{"id":5004,"title":"Uganda Crowdsourcing Non-Camp Refugee Data Baroli Refugee Settlement, Adjumani District","status":"PUBLISHED","created":"2018","lastUpdated":"2018","lastActive":"no","area":1.0795136184381657,"changesets":82,"mappers":10,"roads":0.612074934819944,"buildings":2075,"edits":2087,"latest":"2018-08-22T12:10:15.000Z"},"geometry":{"type":"Point","coordinates":[31.8678608543468,3.29418717287429]}},{"type":"Feature","properties":{"id":5057,"title":"Uganda Crowdsourcing Non-Camp Refugee Data Arivu Subcounty, Arua District","status":"ARCHIVED","created":"2018","lastUpdated":"2018","lastActive":"no","area":144.28092010200572,"changesets":161,"mappers":8,"roads":0.01078135629435,"buildings":2821,"edits":2860,"latest":"2018-09-07T01:44:37.000Z"},"geometry":{"type":"Point","coordinates":[30.9664177907221,2.8359897833636]}},{"type":"Feature","properties":{"id":4967,"title":"Missing Maps: Bughendera County, Western Sub-Region, Uganda","status":"ARCHIVED","created":"2018","lastUpdated":"2018","lastActive":"no","area":575.7970774248723,"changesets":2200,"mappers":239,"roads":18.7121626103336,"buildings":25622,"edits":25804,"latest":"2018-09-07T19:42:48.000Z"},"geometry":{"type":"Point","coordinates":[30.0725371138497,0.67793010618373]}},{"type":"Feature","properties":{"id":4829,"title":"Uganda Crowdsourcing Non-Camp Refugee Data, Oruchinga, Isingiro District","status":"PUBLISHED","created":"2018","lastUpdated":"2018","lastActive":"no","area":362.6687747467698,"changesets":706,"mappers":71,"roads":7.82374290592274,"buildings":29048,"edits":29143,"latest":"2018-08-24T16:30:45.000Z"},"geometry":{"type":"Point","coordinates":[30.6482833665806,-0.957818207888592]}}],"totalArea":9257571.530068943,"Nigeria":[{"type":"Feature","properties":{"id":4494,"title":"Missing Maps: Mapping residential areas and buildings in Niger State, Nigeria (project 13)","status":"PUBLISHED","created":"2018","lastUpdated":"2018","lastActive":"no","area":280.66752277263464,"changesets":2005,"mappers":122,"roads":24.8008980983205,"buildings":24596,"edits":24788,"latest":"2018-12-11T13:37:33.000Z"},"geometry":{"type":"Point","coordinates":[6.566681180791,9.78911477761924]}},{"type":"Feature","properties":{"id":1433,"title":"Imo State Road Network Mapping for Vaccine Delivery Routing, Nigeria","status":"PUBLISHED","created":"2016","lastUpdated":"2018","lastActive":"no","area":5168.1770074971455,"changesets":1758,"mappers":28,"roads":13032.9668048125,"buildings":133,"edits":97772,"latest":"2018-02-05T12:04:59.000Z"},"geometry":{"type":"Point","coordinates":[7.0588258665606,5.57205885454012]}},{"type":"Feature","properties":{"id":1450,"title":"Ogun State Road Network Mapping for Vaccine Delivery Routing, Nigeria","status":"PUBLISHED","created":"2016","lastUpdated":"2018","lastActive":"no","area":16802.452860339767,"changesets":1807,"mappers":37,"roads":10241.6324302017,"buildings":417,"edits":81748,"latest":"2018-02-02T18:11:15.000Z"},"geometry":{"type":"Point","coordinates":[3.47788632058762,6.99254377219402]}},{"type":"Feature","properties":{"id":5250,"title":"Missing Maps: Villages in Kebbi State, Nigeria (1)","status":"PUBLISHED","created":"2018","lastUpdated":"2018","lastActive":"no","area":3744.624137845002,"changesets":16,"mappers":3,"roads":0.0000781166629977292,"buildings":0,"edits":1,"latest":"2018-09-24T17:26:01.000Z"},"geometry":{"type":"Point","coordinates":[4.69297612781228,11.6527299828523]}},{"type":"Feature","properties":{"id":1360,"title":"Ekiti State Road Network Mapping for Vaccine Delivery Routing, Nigeria","status":"ARCHIVED","created":"2015","lastUpdated":"2015","lastActive":"no","area":5819.8685550308655,"changesets":29,"mappers":2,"roads":16.9863701744165,"buildings":0,"edits":96,"latest":"2015-11-26T11:28:33.000Z"},"geometry":{"type":"Point","coordinates":[5.31091296609966,7.71898164631485]}},{"type":"Feature","properties":{"id":1310,"title":"Kwara State Road Network Mapping for Vaccine Delivery Routing, Nigeria","status":"ARCHIVED","created":"2015","lastUpdated":"2016","lastActive":"no","area":33583.379264104595,"changesets":502,"mappers":14,"roads":5552.76706610478,"buildings":2,"edits":5742,"latest":"2015-11-19T07:47:14.000Z"},"geometry":{"type":"Point","coordinates":[4.3935933299499,8.96072166947418]}},{"type":"Feature","properties":{"id":1224,"title":"Rivers Road Network Mapping for Vaccine Delivery Routing, Nigeria","status":"ARCHIVED","created":"2015","lastUpdated":"2016","lastActive":"no","area":9484.658194525004,"changesets":164,"mappers":3,"roads":2906.5745665963,"buildings":0,"edits":5905,"latest":"2016-03-11T10:10:58.000Z"},"geometry":{"type":"Point","coordinates":[6.89157770188641,4.86716393435389]}},{"type":"Feature","properties":{"id":3584,"title":"Mapping for Flooding Emergency Intervention and Support #NRCSkano","status":"PUBLISHED","created":"2017","lastUpdated":"2018","lastActive":"no","area":1802.032750673025,"changesets":495,"mappers":96,"roads":952.323956312856,"buildings":11338,"edits":16514,"latest":"2018-12-01T18:52:51.000Z"},"geometry":{"type":"Point","coordinates":[8.84825950123226,7.36919363607563]}},{"type":"Feature","properties":{"id":1246,"title":"Akwa Ibom Road Network Mapping for Vaccine Delivery Routing, Nigeria","status":"ARCHIVED","created":"2015","lastUpdated":"2016","lastActive":"no","area":6762.434395928488,"changesets":342,"mappers":40,"roads":2387.51237941942,"buildings":2827,"edits":8586,"latest":"2016-03-07T10:26:28.000Z"},"geometry":{"type":"Point","coordinates":[7.85293010736966,4.90871825746431]}},{"type":"Feature","properties":{"id":1179,"title":"Cross River Road Network Mapping for Vaccine Delivery Routing, Nigeria","status":"ARCHIVED","created":"2015","lastUpdated":"2016","lastActive":"no","area":21267.877839034907,"changesets":801,"mappers":18,"roads":5550.50018331739,"buildings":72,"edits":8117,"latest":"2015-10-08T15:25:30.000Z"},"geometry":{"type":"Point","coordinates":[8.60035811913438,5.86891079661682]}},{"type":"Feature","properties":{"id":1261,"title":"Niger State Road Network Mapping for Vaccine Delivery Routing, Nigeria","status":"ARCHIVED","created":"2015","lastUpdated":"2015","lastActive":"no","area":71134.77751241818,"changesets":366,"mappers":8,"roads":7745.63053075776,"buildings":12,"edits":4462,"latest":"2015-11-02T10:04:39.000Z"},"geometry":{"type":"Point","coordinates":[5.59924290736402,9.9277431033076]}},{"type":"Feature","properties":{"id":1226,"title":"Plateau State Road Network Mapping for Vaccine Delivery Routing, Nigeria","status":"ARCHIVED","created":"2015","lastUpdated":"2015","lastActive":"no","area":26112.83838111782,"changesets":238,"mappers":4,"roads":5371.12079645911,"buildings":3,"edits":5009,"latest":"2015-10-21T13:22:34.000Z"},"geometry":{"type":"Point","coordinates":[9.51643724563267,9.21728517962292]}},{"type":"Feature","properties":{"id":1189,"title":"Nassarawa Road Network Mapping for Vaccine Delivery Routing, Nigeria","status":"ARCHIVED","created":"2015","lastUpdated":"2015","lastActive":"no","area":26575.59772324704,"changesets":131,"mappers":5,"roads":1816.32889541969,"buildings":15,"edits":1836,"latest":"2015-10-29T16:38:13.000Z"},"geometry":{"type":"Point","coordinates":[8.19477130080385,8.49901280214293]}},{"type":"Feature","properties":{"id":1176,"title":"Federal Capital Tettority Road Network Mapping for Polio Eradication, Abuja, Nigeria","status":"ARCHIVED","created":"2015","lastUpdated":"2015","lastActive":"no","area":7529.69006575085,"changesets":264,"mappers":5,"roads":3112.48134455337,"buildings":0,"edits":4013,"latest":"2015-09-21T14:08:09.000Z"},"geometry":{"type":"Point","coordinates":[7.18472689153095,8.90071585039615]}},{"type":"Feature","properties":{"id":1153,"title":"Zamfara Road Network Mapping for Polio Eradication, Nigeria","status":"ARCHIVED","created":"2015","lastUpdated":"2016","lastActive":"no","area":34464.51761659984,"changesets":398,"mappers":8,"roads":5237.43482309222,"buildings":0,"edits":4126,"latest":"2016-03-23T11:36:20.000Z"},"geometry":{"type":"Point","coordinates":[6.2231950826071,12.1208091082899]}},{"type":"Feature","properties":{"id":3717,"title":"#WarwickUni - Mapping Slums in Nigeria to improve Access to Healthcare #SasaIbadan","status":"PUBLISHED","created":"2017","lastUpdated":"2018","lastActive":"no","area":4.932440003961636,"changesets":0,"mappers":0,"roads":0,"buildings":0,"edits":0,"latest":null},"geometry":{"type":"Point","coordinates":[3.91363095491311,7.48135426406079]}},{"type":"Feature","properties":{"id":1183,"title":"Anambra Road Network Mapping for Vaccine Delivery Routing, Nigeria","status":"ARCHIVED","created":"2015","lastUpdated":"2015","lastActive":"no","area":4791.135003899627,"changesets":342,"mappers":6,"roads":2969.40206344138,"buildings":1,"edits":6361,"latest":"2015-10-02T09:25:04.000Z"},"geometry":{"type":"Point","coordinates":[6.93584039764533,6.22794744213852]}},{"type":"Feature","properties":{"id":2572,"title":"Osun State Road Network Mapping for Vaccine Delivery Routing, Nigeria","status":"PUBLISHED","created":"2017","lastUpdated":"2017","lastActive":"no","area":8575.557284255134,"changesets":2,"mappers":2,"roads":30.2235442609461,"buildings":0,"edits":140,"latest":"2017-03-17T23:44:11.000Z"},"geometry":{"type":"Point","coordinates":[4.51999867137735,7.56304846546384]}},{"type":"Feature","properties":{"id":1311,"title":"Taraba State Road Network Mapping for Vaccine Delivery Routing, Nigeria","status":"ARCHIVED","created":"2015","lastUpdated":"2015","lastActive":"no","area":59469.49058112749,"changesets":250,"mappers":8,"roads":5832.8313008505,"buildings":15,"edits":3883,"latest":"2015-11-30T15:49:36.000Z"},"geometry":{"type":"Point","coordinates":[10.7804416772942,7.99569088090967]}},{"type":"Feature","properties":{"id":4867,"title":"Missing Maps: Residential areas in Sokoto State, Nigeria (1)","status":"ARCHIVED","created":"2018","lastUpdated":"2018","lastActive":"no","area":16.006737909543173,"changesets":647,"mappers":72,"roads":389.532430864526,"buildings":1598,"edits":2935,"latest":"2018-08-21T09:04:22.000Z"},"geometry":{"type":"Point","coordinates":[6.48241023533448,13.1612540958641]}},{"type":"Feature","properties":{"id":1510,"title":"Adamawa State Road Network Mapping for Vaccine Delivery Routing, Nigeria","status":"ARCHIVED","created":"2016","lastUpdated":"2016","lastActive":"no","area":37922.35267770573,"changesets":0,"mappers":0,"roads":0,"buildings":0,"edits":0,"latest":null},"geometry":{"type":"Point","coordinates":[12.4004458945727,9.3266444885399]}},{"type":"Feature","properties":{"id":1451,"title":"Kebbi State Road Network Mapping for Vaccine Delivery Routing, Nigeria","status":"PUBLISHED","created":"2016","lastUpdated":"2018","lastActive":"no","area":37552.94735367729,"changesets":959,"mappers":28,"roads":9356.89924584059,"buildings":47,"edits":40649,"latest":"2018-02-02T18:16:33.000Z"},"geometry":{"type":"Point","coordinates":[4.51271072315815,11.7161243185886]}},{"type":"Feature","properties":{"id":4319,"title":"Missing Maps: Mapping residential areas and buildings in Niger State, Nigeria (project 10)","status":"PUBLISHED","created":"2018","lastUpdated":"2019","lastActive":"no","area":912.0481038931594,"changesets":8121,"mappers":726,"roads":282.518936155125,"buildings":102750,"edits":104736,"latest":"2019-01-06T21:28:18.000Z"},"geometry":{"type":"Point","coordinates":[6.5783506101069,9.29145646864751]}},{"type":"Feature","properties":{"id":2247,"title":"Kaduna State Road Network Mapping for Vaccine Delivery Routing, Nigeria","status":"PUBLISHED","created":"2016","lastUpdated":"2018","lastActive":"no","area":45490.273268616584,"changesets":946,"mappers":47,"roads":10003.2742684457,"buildings":992,"edits":77071,"latest":"2018-12-18T20:11:55.000Z"},"geometry":{"type":"Point","coordinates":[7.70505254286358,10.3763106442162]}},{"type":"Feature","properties":{"id":2253,"title":"Minna-1","status":"PUBLISHED","created":"2016","lastUpdated":"2017","lastActive":"no","area":625.325845692418,"changesets":0,"mappers":0,"roads":0,"buildings":0,"edits":0,"latest":null},"geometry":{"type":"Point","coordinates":[6.52936793138706,9.5994371185681]}},{"type":"Feature","properties":{"id":3898,"title":"Sokoto Routine Immunization Catchment Mapping","status":"PUBLISHED","created":"2017","lastUpdated":"2018","lastActive":"no","area":31257.071995494418,"changesets":393,"mappers":83,"roads":2321.66988491534,"buildings":2699,"edits":7571,"latest":"2018-11-05T15:05:51.000Z"},"geometry":{"type":"Point","coordinates":[5.31816596114995,13.0560744884251]}},{"type":"Feature","properties":{"id":3875,"title":"Bauchi RI Catchment Mapping Support","status":"PUBLISHED","created":"2017","lastUpdated":"2017","lastActive":"no","area":49917.703636484526,"changesets":1538,"mappers":39,"roads":2161.96114056074,"buildings":262,"edits":4653,"latest":"2018-12-18T11:17:18.000Z"},"geometry":{"type":"Point","coordinates":[9.99989796204689,10.7773864877194]}},{"type":"Feature","properties":{"id":3229,"title":"Bauchi Road Mapping for Immunization Outreach and Health Intervention","status":"PUBLISHED","created":"2017","lastUpdated":"2018","lastActive":"no","area":49908.28570014466,"changesets":2888,"mappers":64,"roads":14283.0523421366,"buildings":431,"edits":70491,"latest":"2018-08-04T13:10:13.000Z"},"geometry":{"type":"Point","coordinates":[9.99974571160695,10.777296211685]}},{"type":"Feature","properties":{"id":4147,"title":"Urban Waste Mapping in Akure Nigeria","status":"ARCHIVED","created":"2018","lastUpdated":"2018","lastActive":"no","area":175.6616246092787,"changesets":746,"mappers":88,"roads":168.841407660183,"buildings":17004,"edits":18176,"latest":"2018-05-21T14:56:08.000Z"},"geometry":{"type":"Point","coordinates":[5.1797200876074,7.27525025311246]}},{"type":"Feature","properties":{"id":1050,"title":"Sokoto Road Network Mapping for Polio Eradication, Nigeria","status":"ARCHIVED","created":"2015","lastUpdated":"2016","lastActive":"no","area":31548.185636093353,"changesets":48,"mappers":1,"roads":1467.83105751259,"buildings":0,"edits":706,"latest":"2016-03-10T09:02:51.000Z"},"geometry":{"type":"Point","coordinates":[5.31754069907975,13.0427013618203]}},{"type":"Feature","properties":{"id":3326,"title":"Yobe Emergency Response to support Health Intervention","status":"PUBLISHED","created":"2017","lastUpdated":"2018","lastActive":"no","area":45932.01340572601,"changesets":851,"mappers":54,"roads":3970.54204418564,"buildings":28257,"edits":47153,"latest":"2018-12-08T02:38:58.000Z"},"geometry":{"type":"Point","coordinates":[11.4284339709571,12.3041934441732]}},{"type":"Feature","properties":{"id":1227,"title":"Benue State Road Network Mapping for Vaccine Delivery Routing, Nigeria","status":"ARCHIVED","created":"2015","lastUpdated":"2015","lastActive":"no","area":30993.947272357604,"changesets":423,"mappers":6,"roads":8575.97297162643,"buildings":0,"edits":6432,"latest":"2015-11-05T12:47:33.000Z"},"geometry":{"type":"Point","coordinates":[8.7406885900482,7.33400029950342]}},{"type":"Feature","properties":{"id":1188,"title":"Abia Road Network Mapping for Vaccine Delivery Routing, Nigeria","status":"ARCHIVED","created":"2015","lastUpdated":"2016","lastActive":"no","area":4890.208238918961,"changesets":222,"mappers":4,"roads":2214.29893361453,"buildings":12,"edits":4332,"latest":"2016-03-07T10:34:52.000Z"},"geometry":{"type":"Point","coordinates":[7.52453250368347,5.4567147761289]}},{"type":"Feature","properties":{"id":1225,"title":"Bayelsa Road Network Mapping for Vaccine Delivery Routing, Nigeria","status":"ARCHIVED","created":"2015","lastUpdated":"2016","lastActive":"no","area":9391.936663266271,"changesets":115,"mappers":5,"roads":1529.09836777469,"buildings":82,"edits":2552,"latest":"2016-03-07T08:42:00.000Z"},"geometry":{"type":"Point","coordinates":[6.06602728804845,4.77588246045618]}},{"type":"Feature","properties":{"id":4493,"title":"Missing Maps: Mapping residential areas and buildings in Niger State, Nigeria (project 12)","status":"PUBLISHED","created":"2018","lastUpdated":"2018","lastActive":"no","area":218.06571058849335,"changesets":4035,"mappers":383,"roads":68.4791398362584,"buildings":28365,"edits":28843,"latest":"2018-12-07T14:05:49.000Z"},"geometry":{"type":"Point","coordinates":[6.58673124761999,9.97563294826575]}},{"type":"Feature","properties":{"id":1086,"title":"Borno Road Network Mapping for Polio Eradication, Nigeria","status":"ARCHIVED","created":"2015","lastUpdated":"2017","lastActive":"no","area":72809.85182372954,"changesets":1497,"mappers":11,"roads":15434.8446280811,"buildings":2093,"edits":44958,"latest":"2017-01-15T15:34:43.000Z"},"geometry":{"type":"Point","coordinates":[13.1452261932847,11.8828046970682]}},{"type":"Feature","properties":{"id":1335,"title":"Biu city - NE Nigeria crisis","status":"ARCHIVED","created":"2015","lastUpdated":"2016","lastActive":"no","area":18.12749606000366,"changesets":1466,"mappers":138,"roads":278.480638475464,"buildings":21357,"edits":26274,"latest":"2016-01-19T05:28:42.000Z"},"geometry":{"type":"Point","coordinates":[12.188540880277,10.613597862928]}},{"type":"Feature","properties":{"id":1341,"title":"Yobe State Road Network Mapping for Vaccine Delivery Routing, Nigeria","status":"ARCHIVED","created":"2015","lastUpdated":"2015","lastActive":"no","area":46030.869444445314,"changesets":227,"mappers":12,"roads":2452.52638025392,"buildings":3,"edits":2606,"latest":"2016-02-15T01:26:56.000Z"},"geometry":{"type":"Point","coordinates":[11.4281707000238,12.3029477910517]}},{"type":"Feature","properties":{"id":1356,"title":"Kogi State Road Network Mapping for Vaccine Delivery Routing, Nigeria","status":"ARCHIVED","created":"2015","lastUpdated":"2015","lastActive":"no","area":29236.647686284785,"changesets":319,"mappers":13,"roads":2655.43688143588,"buildings":203,"edits":2927,"latest":"2015-12-21T09:49:58.000Z"},"geometry":{"type":"Point","coordinates":[6.69197885129475,7.73299113811308]}},{"type":"Feature","properties":{"id":1147,"title":"Katsina Road Network Mapping for Polio Eradication, Nigeria","status":"ARCHIVED","created":"2015","lastUpdated":"2015","lastActive":"no","area":24383.897544722702,"changesets":62,"mappers":5,"roads":402.242982638399,"buildings":3,"edits":457,"latest":"2015-08-10T10:07:28.000Z"},"geometry":{"type":"Point","coordinates":[7.63746166733989,12.3878373519169]}},{"type":"Feature","properties":{"id":3904,"title":"Missing Maps: Mapping residential areas and buildings in Niger State, Nigeria (project 8)","status":"PUBLISHED","created":"2017","lastUpdated":"2018","lastActive":"no","area":269.04966150739665,"changesets":8482,"mappers":760,"roads":489.799184926236,"buildings":124431,"edits":130927,"latest":"2018-12-18T11:52:59.000Z"},"geometry":{"type":"Point","coordinates":[5.97705370202516,9.18332949513013]}},{"type":"Feature","properties":{"id":937,"title":"eHealth Africa Borno Smaller Settlements Import and Road Editing","status":"ARCHIVED","created":"2015","lastUpdated":"2018","lastActive":"no","area":19948.602095707753,"changesets":262,"mappers":6,"roads":8112.50261972638,"buildings":309,"edits":10334,"latest":"2017-11-06T10:23:42.000Z"},"geometry":{"type":"Point","coordinates":[12.792925089823,11.9194036592783]}},{"type":"Feature","properties":{"id":4504,"title":"Missing Maps: Residential areas in Sokoto and Kebbi States, Nigeria","status":"ARCHIVED","created":"2018","lastUpdated":"2018","lastActive":"no","area":68866.83269858525,"changesets":1020,"mappers":109,"roads":389.165191675773,"buildings":4602,"edits":5682,"latest":"2018-06-12T14:31:50.000Z"},"geometry":{"type":"Point","coordinates":[4.89307430915782,12.3635233044931]}},{"type":"Feature","properties":{"id":4318,"title":"Missing Maps: Mapping residential areas and buildings in Niger State, Nigeria (project 9)","status":"PUBLISHED","created":"2018","lastUpdated":"2018","lastActive":"no","area":222.40535311750966,"changesets":3574,"mappers":274,"roads":429.055784606271,"buildings":69529,"edits":70695,"latest":"2018-10-17T23:41:35.000Z"},"geometry":{"type":"Point","coordinates":[6.28871008278158,9.24530206830857]}},{"type":"Feature","properties":{"id":5512,"title":"Missing Maps: Villages in Zamfara State, Nigeria (2)","status":"ARCHIVED","created":"2018","lastUpdated":"2018","lastActive":"no","area":411.0996311400117,"changesets":47,"mappers":6,"roads":0.100291487960472,"buildings":0,"edits":1,"latest":"2018-11-20T20:07:14.000Z"},"geometry":{"type":"Point","coordinates":[6.46268561857501,11.3305122034545]}},{"type":"Feature","properties":{"id":4787,"title":"Missing Maps: Lake Chad - Nigeria, Yobe, Nguru","status":"PUBLISHED","created":"2018","lastUpdated":"2019","lastActive":"no","area":821.5987000734801,"changesets":337,"mappers":103,"roads":196.763702152916,"buildings":6457,"edits":7009,"latest":"2019-01-09T21:14:49.000Z"},"geometry":{"type":"Point","coordinates":[10.3940218401266,12.9681782188665]}},{"type":"Feature","properties":{"id":2861,"title":"Anambra State Road Network Mapping for Vaccine Delivery Routing, Nigeria","status":"PUBLISHED","created":"2017","lastUpdated":"2018","lastActive":"no","area":4791.1350030987405,"changesets":839,"mappers":42,"roads":1305.60248324489,"buildings":32752,"edits":47884,"latest":"2018-12-14T20:36:27.000Z"},"geometry":{"type":"Point","coordinates":[6.93584039758653,6.22794744212472]}},{"type":"Feature","properties":{"id":2692,"title":" Adamawa State Road Network Mapping","status":"PUBLISHED","created":"2017","lastUpdated":"2018","lastActive":"no","area":39871.1685065904,"changesets":1265,"mappers":30,"roads":7078.64064913966,"buildings":412,"edits":21039,"latest":"2018-06-11T00:02:17.000Z"},"geometry":{"type":"Point","coordinates":[12.4126155790449,9.31859724761912]}},{"type":"Feature","properties":{"id":2635,"title":"Missing Maps Maiduguri - Muna, Borno States, NigÃ©ria","status":"PUBLISHED","created":"2017","lastUpdated":"2017","lastActive":"no","area":12.541621997890752,"changesets":327,"mappers":38,"roads":98.5708873601878,"buildings":5919,"edits":7281,"latest":"2018-10-25T18:44:08.000Z"},"geometry":{"type":"Point","coordinates":[13.2467565375936,11.8694043607117]}},{"type":"Feature","properties":{"id":5334,"title":"Missing Maps - Nigeria - Niger Flooding Djebba-Lokoya","status":"PUBLISHED","created":"2018","lastUpdated":"2019","lastActive":"yes","area":6412.337415729219,"changesets":3199,"mappers":259,"roads":6997.03516267395,"buildings":57974,"edits":74474,"latest":"2019-01-15T11:13:51.000Z"},"geometry":{"type":"Point","coordinates":[6.0071305918705,8.66680686741859]}},{"type":"Feature","properties":{"id":443,"title":"Open Data Day, Open Oil, OML 61","status":"PUBLISHED","created":"2014","lastUpdated":"2014","lastActive":"no","area":1527.857340641795,"changesets":0,"mappers":0,"roads":0,"buildings":0,"edits":0,"latest":null},"geometry":{"type":"Point","coordinates":[6.48158907224908,5.32834346776366]}},{"type":"Feature","properties":{"id":1358,"title":"Ekiti State Road Network Mapping for Vaccine Delivery Routing, Nigeria","status":"PUBLISHED","created":"2015","lastUpdated":"2018","lastActive":"no","area":5819.8685550308655,"changesets":1065,"mappers":24,"roads":7990.00725237454,"buildings":270,"edits":70027,"latest":"2018-01-24T14:42:52.000Z"},"geometry":{"type":"Point","coordinates":[5.31091296609966,7.71898164631485]}},{"type":"Feature","properties":{"id":1355,"title":"North Adamawa, East Borno and NW Cameroon border areas - NE Nigeria Crisis","status":"PUBLISHED","created":"2015","lastUpdated":"2018","lastActive":"no","area":36545.110140529185,"changesets":2050,"mappers":100,"roads":7732.57348692751,"buildings":6730,"edits":28165,"latest":"2018-10-17T00:40:50.000Z"},"geometry":{"type":"Point","coordinates":[13.2678805341561,10.4939404256956]}},{"type":"Feature","properties":{"id":1370,"title":"Oyo State Road Network Mapping for Vaccine Delivery Routing, Nigeria","status":"PUBLISHED","created":"2015","lastUpdated":"2018","lastActive":"no","area":27826.08075540518,"changesets":1817,"mappers":20,"roads":21921.6496062094,"buildings":98,"edits":83936,"latest":"2018-06-07T14:54:06.000Z"},"geometry":{"type":"Point","coordinates":[3.61544829500647,8.15771762711202]}},{"type":"Feature","properties":{"id":1438,"title":"Gombe State Road Network Mapping for Vaccine Delivery Routing, Nigeria","status":"PUBLISHED","created":"2016","lastUpdated":"2018","lastActive":"no","area":16230.248020691795,"changesets":1892,"mappers":35,"roads":11418.4713032426,"buildings":190,"edits":98014,"latest":"2018-02-12T18:08:46.000Z"},"geometry":{"type":"Point","coordinates":[11.2042322517928,10.3540636495086]}},{"type":"Feature","properties":{"id":1420,"title":"Delta State Road Network Mapping for Vaccine Delivery Routing, Nigeria","status":"PUBLISHED","created":"2016","lastUpdated":"2018","lastActive":"no","area":16783.956565654746,"changesets":1038,"mappers":15,"roads":9094.14698935304,"buildings":1,"edits":71950,"latest":"2018-02-02T08:40:42.000Z"},"geometry":{"type":"Point","coordinates":[5.94800813578102,5.71097075504181]}},{"type":"Feature","properties":{"id":1482,"title":"Edo State Road Network Mapping for Vaccine Delivery Routing, Nigeria","status":"PUBLISHED","created":"2016","lastUpdated":"2018","lastActive":"no","area":19683.74941904491,"changesets":1993,"mappers":43,"roads":14473.1090348353,"buildings":1770,"edits":104724,"latest":"2018-02-21T02:39:49.000Z"},"geometry":{"type":"Point","coordinates":[5.93057822234096,6.63453713168272]}},{"type":"Feature","properties":{"id":1725,"title":"Kano State Road Network Mapping for Vaccine Delivery Routing, Nigeria","status":"PUBLISHED","created":"2016","lastUpdated":"2018","lastActive":"no","area":4565.65604433861,"changesets":873,"mappers":16,"roads":5744.40517120162,"buildings":194,"edits":73582,"latest":"2018-01-23T09:26:25.000Z"},"geometry":{"type":"Point","coordinates":[8.76862488842163,11.1720467274171]}},{"type":"Feature","properties":{"id":1457,"title":"Jigawa State Road Network Mapping for Vaccine Delivery Routing, Nigeria","status":"ARCHIVED","created":"2016","lastUpdated":"2016","lastActive":"no","area":23585.965723018166,"changesets":646,"mappers":32,"roads":3625.73224764997,"buildings":62,"edits":5529,"latest":"2016-02-05T18:20:50.000Z"},"geometry":{"type":"Point","coordinates":[9.56105583561993,12.2290521315549]}},{"type":"Feature","properties":{"id":1422,"title":"Ondo State Road Network Mapping for Vaccine Delivery Routing, Nigeria","status":"PUBLISHED","created":"2016","lastUpdated":"2018","lastActive":"no","area":15073.063372042661,"changesets":1272,"mappers":17,"roads":11146.7185045305,"buildings":611,"edits":62184,"latest":"2018-02-05T15:55:48.000Z"},"geometry":{"type":"Point","coordinates":[5.14959599221293,6.91577081998414]}},{"type":"Feature","properties":{"id":441,"title":"Open Data Day, Open Oil, OML 63","status":"PUBLISHED","created":"2014","lastUpdated":"2017","lastActive":"no","area":2247.454295655266,"changesets":0,"mappers":0,"roads":0,"buildings":0,"edits":0,"latest":null},"geometry":{"type":"Point","coordinates":[6.02524630477629,4.73454607550322]}},{"type":"Feature","properties":{"id":439,"title":"Open Data Day, Open Oil, OML 18","status":"PUBLISHED","created":"2014","lastUpdated":"2018","lastActive":"no","area":1024.7249327592526,"changesets":145,"mappers":1,"roads":94.8598125024363,"buildings":9254,"edits":10934,"latest":"2017-09-14T04:52:40.000Z"},"geometry":{"type":"Point","coordinates":[6.97973270167323,4.59012345010185]}}],"Botswana":[{"type":"Feature","properties":{"id":2375,"title":"Missing Maps: Ngami District, Botswana -Part 5/5- Clinton Health Access Initiative - BUILDINGS ONLY","status":"ARCHIVED","created":"2016","lastUpdated":"2016","lastActive":"no","area":16415.13618616339,"changesets":505,"mappers":16,"roads":231.125108678811,"buildings":10898,"edits":12011,"latest":"2016-12-12T08:22:38.000Z"},"geometry":{"type":"Point","coordinates":[23.1309478892041,-20.5306070509265]}},{"type":"Feature","properties":{"id":2558,"title":"Missing Maps: villages of Boteti district, Botswana - Clinton Health Access Initiative","status":"ARCHIVED","created":"2017","lastUpdated":"2017","lastActive":"no","area":13226.173371669527,"changesets":0,"mappers":0,"roads":0,"buildings":0,"edits":0,"latest":null},"geometry":{"type":"Point","coordinates":[25.1866185411067,-21.2589769472281]}},{"type":"Feature","properties":{"id":4339,"title":"Botswana, Gumare Village - National Malaria Programme","status":"PUBLISHED","created":"2018","lastUpdated":"2018","lastActive":"no","area":62.94267106863238,"changesets":408,"mappers":51,"roads":114.3642599087,"buildings":2711,"edits":3636,"latest":"2018-04-18T10:29:18.000Z"},"geometry":{"type":"Point","coordinates":[22.1783284839623,-19.3262353380699]}},{"type":"Feature","properties":{"id":2538,"title":"Missing Maps: BUILDINGS ONLY (5/5)  Botswana - Clinton Health Access Initiative","status":"ARCHIVED","created":"2017","lastUpdated":"2017","lastActive":"no","area":9744.197883420798,"changesets":0,"mappers":0,"roads":0,"buildings":0,"edits":0,"latest":null},"geometry":{"type":"Point","coordinates":[25.3433811085302,-21.7158560536862]}},{"type":"Feature","properties":{"id":2453,"title":"Missing Maps: Sowa Town, Tutume District, Botswana - Clinton Health Access Initiative","status":"ARCHIVED","created":"2017","lastUpdated":"2017","lastActive":"no","area":1151.1903349965148,"changesets":299,"mappers":4,"roads":2.76491989395842,"buildings":603,"edits":611,"latest":"2017-02-13T14:29:45.000Z"},"geometry":{"type":"Point","coordinates":[26.099684019627,-20.4458761575283]}},{"type":"Feature","properties":{"id":2505,"title":"Mopipi, Botswana","status":"ARCHIVED","created":"2017","lastUpdated":"2017","lastActive":"no","area":775.5191953110237,"changesets":216,"mappers":8,"roads":10.1845108419423,"buildings":2461,"edits":2513,"latest":"2017-02-15T12:14:15.000Z"},"geometry":{"type":"Point","coordinates":[24.8752904546617,-21.1263439580856]}},{"type":"Feature","properties":{"id":2530,"title":"Missing Maps: TOROMOJA, Botswana - Clinton Health Access Initiative","status":"ARCHIVED","created":"2017","lastUpdated":"2017","lastActive":"no","area":313.41902484934343,"changesets":0,"mappers":0,"roads":0,"buildings":0,"edits":0,"latest":null},"geometry":{"type":"Point","coordinates":[24.6083678501743,-21.0577627315384]}},{"type":"Feature","properties":{"id":2508,"title":"Missing Maps: Xere, Botswana - Clinton Health Access Initiative","status":"ARCHIVED","created":"2017","lastUpdated":"2017","lastActive":"no","area":938.6740203375277,"changesets":28,"mappers":1,"roads":0.000379540672374958,"buildings":359,"edits":361,"latest":"2017-02-09T09:47:23.000Z"},"geometry":{"type":"Point","coordinates":[24.2169320274099,-21.226511077777]}},{"type":"Feature","properties":{"id":2516,"title":"MAROBELA, Botswana, Clinton Health Access Initiative","status":"ARCHIVED","created":"2017","lastUpdated":"2017","lastActive":"no","area":126.24980928852588,"changesets":291,"mappers":6,"roads":2.29827283959594e-9,"buildings":4778,"edits":4788,"latest":"2017-02-13T14:27:39.000Z"},"geometry":{"type":"Point","coordinates":[27.2226710978192,-20.9161937916415]}},{"type":"Feature","properties":{"id":2510,"title":"Missing Maps: Zone 2B, Botswana - Clinton Health Access Initiative","status":"ARCHIVED","created":"2017","lastUpdated":"2017","lastActive":"no","area":530.648311842292,"changesets":22,"mappers":2,"roads":0,"buildings":140,"edits":140,"latest":"2017-02-11T06:30:26.000Z"},"geometry":{"type":"Point","coordinates":[25.213390792779,-21.636622455615]}},{"type":"Feature","properties":{"id":2377,"title":"Missing Maps: BOBIRWA District, Botswana -Part 2/2- Clinton Health Access Initiative - BUILDINGS ONLY","status":"ARCHIVED","created":"2016","lastUpdated":"2016","lastActive":"no","area":7459.172585725824,"changesets":2689,"mappers":73,"roads":225.269073069513,"buildings":48515,"edits":50458,"latest":"2017-02-14T14:26:54.000Z"},"geometry":{"type":"Point","coordinates":[28.0127304627059,-21.8765103614756]}},{"type":"Feature","properties":{"id":1949,"title":"Peace Corps Botswana -- Sowa Town","status":"ARCHIVED","created":"2016","lastUpdated":"2016","lastActive":"no","area":4.1333326806179285,"changesets":173,"mappers":8,"roads":50.222115659427,"buildings":1316,"edits":1707,"latest":"2016-06-30T14:26:04.000Z"},"geometry":{"type":"Point","coordinates":[26.2234834733339,-20.5650549230502]}},{"type":"Feature","properties":{"id":5185,"title":"Botswana, Bobirwa Sub-district - 02 - National Malaria Programme","status":"ARCHIVED","created":"2018","lastUpdated":"2018","lastActive":"no","area":1470.7566346831622,"changesets":66,"mappers":21,"roads":33.664184057159,"buildings":347,"edits":378,"latest":"2018-09-12T17:11:40.000Z"},"geometry":{"type":"Point","coordinates":[28.50484696108,-22.3820740784452]}},{"type":"Feature","properties":{"id":1802,"title":"Peace Corps Botswana -- Letlhakane","status":"ARCHIVED","created":"2016","lastUpdated":"2017","lastActive":"no","area":14.563107983316547,"changesets":318,"mappers":8,"roads":219.930148905782,"buildings":17474,"edits":20585,"latest":"2016-05-19T14:36:16.000Z"},"geometry":{"type":"Point","coordinates":[25.5876311569084,-21.4177195324705]}},{"type":"Feature","properties":{"id":1590,"title":"Peace Corps Botswana - Sepopa","status":"ARCHIVED","created":"2016","lastUpdated":"2016","lastActive":"no","area":4.126976225822726,"changesets":104,"mappers":27,"roads":45.5905205721354,"buildings":947,"edits":1844,"latest":"2016-04-11T16:42:55.000Z"},"geometry":{"type":"Point","coordinates":[22.1725391962034,-18.7398233857328]}},{"type":"Feature","properties":{"id":1514,"title":"Peace Corps Botswana - Sefhare","status":"ARCHIVED","created":"2016","lastUpdated":"2016","lastActive":"no","area":8.531853188023618,"changesets":236,"mappers":25,"roads":143.944403799365,"buildings":3914,"edits":6431,"latest":"2016-06-05T11:01:48.000Z"},"geometry":{"type":"Point","coordinates":[27.5267822424538,-23.0277600459783]}},{"type":"Feature","properties":{"id":1486,"title":"Peace Corps Botswana - Bobonong","status":"ARCHIVED","created":"2016","lastUpdated":"2016","lastActive":"no","area":25.88976187518653,"changesets":452,"mappers":43,"roads":267.774992115336,"buildings":10759,"edits":13701,"latest":"2016-03-06T04:42:08.000Z"},"geometry":{"type":"Point","coordinates":[28.4166066768311,-21.976029827118]}},{"type":"Feature","properties":{"id":1057,"title":"Peace Corps Botswana - Mosetse","status":"ARCHIVED","created":"2015","lastUpdated":"2015","lastActive":"no","area":5.333755011382229,"changesets":337,"mappers":19,"roads":57.3163294874516,"buildings":1966,"edits":3485,"latest":"2015-06-15T00:22:45.000Z"},"geometry":{"type":"Point","coordinates":[26.6415490804472,-20.6467028463908]}},{"type":"Feature","properties":{"id":950,"title":"Peace Corps Botswana - Thamaga II","status":"ARCHIVED","created":"2015","lastUpdated":"2015","lastActive":"no","area":3.213412678249398,"changesets":0,"mappers":0,"roads":0,"buildings":0,"edits":0,"latest":null},"geometry":{"type":"Point","coordinates":[25.556360448256,-24.6621463738196]}},{"type":"Feature","properties":{"id":2531,"title":"Missing Maps: XHUMO, Botswana - Clinton Health Access Initiative","status":"ARCHIVED","created":"2017","lastUpdated":"2017","lastActive":"no","area":671.5956891817073,"changesets":0,"mappers":0,"roads":0,"buildings":0,"edits":0,"latest":null},"geometry":{"type":"Point","coordinates":[24.6124969127515,-21.2394687054567]}},{"type":"Feature","properties":{"id":2534,"title":"Missing Maps: BUILDINGS ONLY (1/5)  Botswana - Clinton Health Access Initiative","status":"ARCHIVED","created":"2017","lastUpdated":"2017","lastActive":"no","area":6244.03281349213,"changesets":0,"mappers":0,"roads":0,"buildings":0,"edits":0,"latest":null},"geometry":{"type":"Point","coordinates":[26.0345056760396,-19.9466843617669]}},{"type":"Feature","properties":{"id":2518,"title":"Missing Maps: Zone 2A, Botswana - Clinton Health Access Initiative","status":"ARCHIVED","created":"2017","lastUpdated":"2017","lastActive":"no","area":455.6379336094699,"changesets":44,"mappers":5,"roads":123.480967542219,"buildings":399,"edits":563,"latest":"2017-02-15T10:45:11.000Z"},"geometry":{"type":"Point","coordinates":[25.7781965392702,-21.7544639123788]}},{"type":"Feature","properties":{"id":2396,"title":"Missing Maps: Botswana North-West District","status":"ARCHIVED","created":"2016","lastUpdated":"2018","lastActive":"no","area":214.74479144708752,"changesets":4019,"mappers":173,"roads":3653.70602512639,"buildings":32894,"edits":73530,"latest":"2017-10-10T15:59:31.000Z"},"geometry":{"type":"Point","coordinates":[23.0142359482937,-18.602661096688]}},{"type":"Feature","properties":{"id":5181,"title":"Botswana, Okavango Sub-district - National Malaria Programme","status":"ARCHIVED","created":"2018","lastUpdated":"2018","lastActive":"no","area":32466.830756382315,"changesets":0,"mappers":0,"roads":0,"buildings":0,"edits":0,"latest":null},"geometry":{"type":"Point","coordinates":[22.008151679285,-18.9930660401322]}},{"type":"Feature","properties":{"id":1538,"title":"Peace Corps Botswana - Serowe","status":"PUBLISHED","created":"2016","lastUpdated":"2018","lastActive":"no","area":103.03380657395984,"changesets":1123,"mappers":127,"roads":507.440389502026,"buildings":18456,"edits":23113,"latest":"2018-09-12T08:44:26.000Z"},"geometry":{"type":"Point","coordinates":[26.7196956660752,-22.4060053626072]}},{"type":"Feature","properties":{"id":2517,"title":"Missing Maps: Mosu, Botswana - Clinton Health Access Initiative","status":"ARCHIVED","created":"2017","lastUpdated":"2017","lastActive":"no","area":2220.4774511050036,"changesets":115,"mappers":10,"roads":15.9142033171499,"buildings":1089,"edits":1153,"latest":"2017-02-20T14:28:30.000Z"},"geometry":{"type":"Point","coordinates":[26.0504000315427,-21.1107601577386]}},{"type":"Feature","properties":{"id":5162,"title":"Botswana, Boteti Sub-district - National Malaria Programme","status":"ARCHIVED","created":"2018","lastUpdated":"2018","lastActive":"no","area":16562.83359044561,"changesets":3,"mappers":2,"roads":0,"buildings":12,"edits":12,"latest":"2018-09-05T18:50:51.000Z"},"geometry":{"type":"Point","coordinates":[24.6092839036636,-21.0752686480163]}},{"type":"Feature","properties":{"id":2513,"title":"Missing Maps: Gweta, Botswana - Clinton Health Access Initiative","status":"ARCHIVED","created":"2017","lastUpdated":"2017","lastActive":"no","area":1940.7752036684858,"changesets":213,"mappers":6,"roads":17.3186077468129,"buildings":1825,"edits":1865,"latest":"2017-02-17T12:52:04.000Z"},"geometry":{"type":"Point","coordinates":[25.2779963364484,-20.087218476579]}},{"type":"Feature","properties":{"id":1772,"title":"Missing Maps: Chobe District, Botswana - Clinton Health Access Initiative ","status":"ARCHIVED","created":"2016","lastUpdated":"2017","lastActive":"no","area":21188.486703991395,"changesets":600,"mappers":121,"roads":1701.20767748245,"buildings":14170,"edits":20230,"latest":"2017-08-15T15:41:18.000Z"},"geometry":{"type":"Point","coordinates":[24.8039971245855,-18.5134283179712]}},{"type":"Feature","properties":{"id":5184,"title":"Botswana, Bobirwa Sub-district - 01 - National Malaria Programme","status":"ARCHIVED","created":"2018","lastUpdated":"2018","lastActive":"no","area":5662.561868598544,"changesets":1,"mappers":1,"roads":0,"buildings":9,"edits":9,"latest":"2018-09-09T12:52:54.000Z"},"geometry":{"type":"Point","coordinates":[28.5750267323985,-21.934321446397]}},{"type":"Feature","properties":{"id":949,"title":"Peace Corps Botswana - Thamaga I","status":"ARCHIVED","created":"2015","lastUpdated":"2015","lastActive":"no","area":3.527206017690731,"changesets":40,"mappers":4,"roads":12.1907925864018,"buildings":316,"edits":534,"latest":"2015-04-30T02:52:00.000Z"},"geometry":{"type":"Point","coordinates":[25.5589824638168,-24.6797797735272]}},{"type":"Feature","properties":{"id":1785,"title":"Peace Corps Botswana -- Kazungula","status":"ARCHIVED","created":"2016","lastUpdated":"2016","lastActive":"no","area":3.942240308091935,"changesets":36,"mappers":3,"roads":1.28391841024684,"buildings":1354,"edits":1378,"latest":"2016-04-15T19:11:59.000Z"},"geometry":{"type":"Point","coordinates":[25.2338838124251,-17.8043180080254]}},{"type":"Feature","properties":{"id":951,"title":"Peace Corps Botswana - Thamaga III","status":"ARCHIVED","created":"2015","lastUpdated":"2015","lastActive":"no","area":3.7556273469953556,"changesets":8,"mappers":2,"roads":2.6898167562845,"buildings":89,"edits":179,"latest":"2015-07-15T16:19:46.000Z"},"geometry":{"type":"Point","coordinates":[25.5420282300923,-24.6580149837597]}},{"type":"Feature","properties":{"id":952,"title":"Peace Corps Botswana - Thamaga IV","status":"PUBLISHED","created":"2015","lastUpdated":"2015","lastActive":"no","area":6.236986219341584,"changesets":21,"mappers":2,"roads":16.2447485867183,"buildings":554,"edits":788,"latest":"2015-07-18T11:59:51.000Z"},"geometry":{"type":"Point","coordinates":[25.524147538995,-24.6564067764375]}},{"type":"Feature","properties":{"id":954,"title":"Peace Corps Botswana - Thamaga VI","status":"PUBLISHED","created":"2015","lastUpdated":"2017","lastActive":"no","area":5.315276500548214,"changesets":70,"mappers":6,"roads":42.1040000400871,"buildings":855,"edits":1511,"latest":"2017-02-24T07:46:57.000Z"},"geometry":{"type":"Point","coordinates":[25.5260766960465,-24.6828435379038]}},{"type":"Feature","properties":{"id":2376,"title":"Missing Maps: BOBIRWA District, Botswana -Part 1/2- Clinton Health Access Initiative - BUILDINGS ONLY  ","status":"ARCHIVED","created":"2016","lastUpdated":"2016","lastActive":"no","area":7146.471227371979,"changesets":2455,"mappers":47,"roads":23.8959178272802,"buildings":20700,"edits":20908,"latest":"2017-02-13T14:31:19.000Z"},"geometry":{"type":"Point","coordinates":[28.5849034996303,-22.1952816839487]}},{"type":"Feature","properties":{"id":2374,"title":"Missing Maps: Ngami District, Botswana -Part 4/5- Clinton Health Access Initiative - BUILDINGS ONLYoject","status":"ARCHIVED","created":"2016","lastUpdated":"2016","lastActive":"no","area":9146.493797836127,"changesets":0,"mappers":0,"roads":0,"buildings":0,"edits":0,"latest":null},"geometry":{"type":"Point","coordinates":[23.2213603571419,-19.783292692621]}},{"type":"Feature","properties":{"id":1513,"title":"Peace Corps Botswana - Maun","status":"ARCHIVED","created":"2016","lastUpdated":"2016","lastActive":"no","area":96.34975375540765,"changesets":1749,"mappers":138,"roads":825.663688851592,"buildings":45930,"edits":59711,"latest":"2016-03-22T09:28:24.000Z"},"geometry":{"type":"Point","coordinates":[23.4396045710877,-19.9882200021714]}},{"type":"Feature","properties":{"id":1331,"title":"Peace Corps Botswana - Goodhope","status":"ARCHIVED","created":"2015","lastUpdated":"2016","lastActive":"no","area":62.06260037376828,"changesets":674,"mappers":33,"roads":564.874062205233,"buildings":5335,"edits":10718,"latest":"2016-03-02T23:34:31.000Z"},"geometry":{"type":"Point","coordinates":[25.4586365642769,-25.4834764948192]}},{"type":"Feature","properties":{"id":1162,"title":"Peace Corps Botswana - Mathathane","status":"ARCHIVED","created":"2015","lastUpdated":"2016","lastActive":"no","area":3.4753621827977477,"changesets":35,"mappers":7,"roads":14.0990783535182,"buildings":348,"edits":479,"latest":"2016-05-10T14:29:03.000Z"},"geometry":{"type":"Point","coordinates":[28.74806515514,-22.2684164073292]}},{"type":"Feature","properties":{"id":992,"title":"Peace Corps Botswana -- Ramotswa II","status":"ARCHIVED","created":"2015","lastUpdated":"2016","lastActive":"no","area":11.65623342030065,"changesets":508,"mappers":31,"roads":107.281953328146,"buildings":7753,"edits":9709,"latest":"2015-10-07T05:44:37.000Z"},"geometry":{"type":"Point","coordinates":[25.8608854325674,-24.8644633709076]}},{"type":"Feature","properties":{"id":1632,"title":"Peace Corps Botswana - Gaborone","status":"ARCHIVED","created":"2016","lastUpdated":"2016","lastActive":"no","area":7.452356334019266,"changesets":476,"mappers":14,"roads":20.0820135855463,"buildings":4148,"edits":4662,"latest":"2016-04-07T19:48:45.000Z"},"geometry":{"type":"Point","coordinates":[25.8866538546227,-24.6846239368507]}},{"type":"Feature","properties":{"id":1035,"title":"Peace Corps Botswana - Molepolole III","status":"PUBLISHED","created":"2015","lastUpdated":"2017","lastActive":"no","area":14.04745954473544,"changesets":538,"mappers":49,"roads":28.6935776094552,"buildings":6177,"edits":6837,"latest":"2017-02-24T10:34:09.000Z"},"geometry":{"type":"Point","coordinates":[25.5010282541785,-24.3865919107098]}},{"type":"Feature","properties":{"id":1099,"title":"Peace Corps Botswana - Francistown","status":"ARCHIVED","created":"2015","lastUpdated":"2017","lastActive":"no","area":104.562896710975,"changesets":991,"mappers":108,"roads":1750.96965222628,"buildings":27404,"edits":35860,"latest":"2018-03-05T08:51:15.000Z"},"geometry":{"type":"Point","coordinates":[27.5077143602993,-21.1735716520143]}},{"type":"Feature","properties":{"id":4337,"title":"Botswana, Nata Village - National Malaria Programme","status":"ARCHIVED","created":"2018","lastUpdated":"2018","lastActive":"no","area":434.7624185042024,"changesets":307,"mappers":52,"roads":193.648583756651,"buildings":1256,"edits":1783,"latest":"2018-03-29T17:19:17.000Z"},"geometry":{"type":"Point","coordinates":[26.168439315419,-20.3921706084066]}},{"type":"Feature","properties":{"id":2527,"title":"Untitled project","status":"ARCHIVED","created":"2017","lastUpdated":"2017","lastActive":"no","area":240.0800264822955,"changesets":0,"mappers":0,"roads":0,"buildings":0,"edits":0,"latest":null},"geometry":{"type":"Point","coordinates":[27.2381725518904,-20.4791243437741]}},{"type":"Feature","properties":{"id":2503,"title":"Orapa, Botswana","status":"ARCHIVED","created":"2017","lastUpdated":"2017","lastActive":"no","area":360.2381174668008,"changesets":111,"mappers":2,"roads":0.000655108738693123,"buildings":3858,"edits":3882,"latest":"2017-02-13T12:35:52.000Z"},"geometry":{"type":"Point","coordinates":[25.3645079634206,-21.2845231070072]}},{"type":"Feature","properties":{"id":2512,"title":"WMA, Botswana, Clinton Health Access Initiative","status":"ARCHIVED","created":"2017","lastUpdated":"2017","lastActive":"no","area":10119.295625237915,"changesets":10,"mappers":1,"roads":0,"buildings":207,"edits":207,"latest":"2017-02-14T10:28:14.000Z"},"geometry":{"type":"Point","coordinates":[25.6000717391353,-19.4105744561759]}},{"type":"Feature","properties":{"id":2499,"title":"NKANGE, Botswana - Clinton Health Access Initiative","status":"ARCHIVED","created":"2017","lastUpdated":"2017","lastActive":"no","area":157.52170444706366,"changesets":151,"mappers":4,"roads":0,"buildings":3193,"edits":3193,"latest":"2017-02-13T06:40:52.000Z"},"geometry":{"type":"Point","coordinates":[27.1518789450639,-20.2933744526696]}},{"type":"Feature","properties":{"id":2491,"title":"Changate, Botswana - Clinton Health Access Initiative","status":"ARCHIVED","created":"2017","lastUpdated":"2017","lastActive":"no","area":93.80606413322549,"changesets":87,"mappers":1,"roads":0,"buildings":1733,"edits":1733,"latest":"2017-02-10T14:31:35.000Z"},"geometry":{"type":"Point","coordinates":[27.237449845083,-20.29682033743]}},{"type":"Feature","properties":{"id":2497,"title":"MARAPONG, Botswana - Clinton Health Access Initiative","status":"ARCHIVED","created":"2017","lastUpdated":"2017","lastActive":"no","area":404.47681596670554,"changesets":127,"mappers":2,"roads":0,"buildings":2889,"edits":2889,"latest":"2017-02-17T06:20:49.000Z"},"geometry":{"type":"Point","coordinates":[26.9638444741489,-20.8946752912905]}},{"type":"Feature","properties":{"id":2495,"title":"ZORGOA, Botswana - Clinton Health Access Initiative","status":"ARCHIVED","created":"2017","lastUpdated":"2017","lastActive":"no","area":2281.5260163522767,"changesets":92,"mappers":2,"roads":0.0000551241330686025,"buildings":364,"edits":366,"latest":"2017-03-02T09:26:45.000Z"},"geometry":{"type":"Point","coordinates":[25.7065765158285,-20.3189219602555]}},{"type":"Feature","properties":{"id":2493,"title":"WILDLIFE MGMT AREA CT10- Botswana - Clinton Health Access Initiative","status":"ARCHIVED","created":"2017","lastUpdated":"2017","lastActive":"no","area":5129.758003508448,"changesets":83,"mappers":1,"roads":0,"buildings":1627,"edits":1627,"latest":"2017-02-10T14:29:19.000Z"},"geometry":{"type":"Point","coordinates":[25.1987290458312,-20.7395242624559]}},{"type":"Feature","properties":{"id":1037,"title":"Peace Corps Botswana - Molepolole V","status":"PUBLISHED","created":"2015","lastUpdated":"2017","lastActive":"no","area":16.31817162737985,"changesets":1051,"mappers":90,"roads":230.955311071122,"buildings":8536,"edits":11426,"latest":"2017-02-24T11:38:02.000Z"},"geometry":{"type":"Point","coordinates":[25.4719983568004,-24.4020611534747]}},{"type":"Feature","properties":{"id":1512,"title":"Peace Corps Botswana - Tutume","status":"ARCHIVED","created":"2016","lastUpdated":"2016","lastActive":"no","area":40.503255387374736,"changesets":1474,"mappers":73,"roads":179.304518754093,"buildings":17279,"edits":19864,"latest":"2016-10-14T10:43:00.000Z"},"geometry":{"type":"Point","coordinates":[27.0371385282309,-20.5004223442006]}},{"type":"Feature","properties":{"id":1803,"title":"Peace Corps Botswana -- Kang","status":"PUBLISHED","created":"2016","lastUpdated":"2018","lastActive":"no","area":28.34379858272266,"changesets":227,"mappers":17,"roads":197.59128660123,"buildings":4564,"edits":7204,"latest":"2018-03-13T19:53:20.000Z"},"geometry":{"type":"Point","coordinates":[22.7981988818947,-23.6740237881026]}},{"type":"Feature","properties":{"id":760,"title":"Peace Corps Stomp Out Malaria - Pandamatenga Area","status":"ARCHIVED","created":"2014","lastUpdated":"2014","lastActive":"no","area":16.266774590535444,"changesets":0,"mappers":0,"roads":0,"buildings":0,"edits":0,"latest":null},"geometry":{"type":"Point","coordinates":[25.6420927772446,-18.5410442291454]}},{"type":"Feature","properties":{"id":1993,"title":"Missing Maps: Tutume District, Botswana - Clinton Health Access Initiative ","status":"ARCHIVED","created":"2016","lastUpdated":"2017","lastActive":"no","area":40073.08018870562,"changesets":0,"mappers":0,"roads":0,"buildings":0,"edits":0,"latest":null},"geometry":{"type":"Point","coordinates":[26.0373918311498,-20.1707055622474]}},{"type":"Feature","properties":{"id":1991,"title":"Missing Maps: Ngami District, Botswana - Clinton Health Access Initiative ","status":"ARCHIVED","created":"2016","lastUpdated":"2017","lastActive":"no","area":65777.26250106131,"changesets":0,"mappers":0,"roads":0,"buildings":0,"edits":0,"latest":null},"geometry":{"type":"Point","coordinates":[23.2841323904972,-20.0026575598528]}},{"type":"Feature","properties":{"id":2152,"title":"Peace Corps -- Botswana","status":"PUBLISHED","created":"2016","lastUpdated":"2018","lastActive":"no","area":399.9650587062993,"changesets":3534,"mappers":386,"roads":3661.07145658057,"buildings":85793,"edits":113013,"latest":"2018-11-13T13:40:52.000Z"},"geometry":{"type":"Point","coordinates":[25.7667174209141,-23.123439124819]}}],"Russia":[{"type":"Feature","properties":{"id":5094,"title":"Rostov, RU - Road Alignment","status":"PUBLISHED","created":"2018","lastUpdated":"2018","lastActive":"no","area":62.059436486990585,"changesets":18,"mappers":1,"roads":0.459103509151284,"buildings":1,"edits":86,"latest":"2018-10-09T12:50:48.000Z"},"geometry":{"type":"Point","coordinates":[40.7358927267966,47.7150064178919]}},{"type":"Feature","properties":{"id":5033,"title":"Karelia, RU - Road Alignment","status":"PUBLISHED","created":"2018","lastUpdated":"2018","lastActive":"no","area":15.783143957120704,"changesets":0,"mappers":0,"roads":0,"buildings":0,"edits":0,"latest":null},"geometry":{"type":"Point","coordinates":[32.653970249643,63.1683112124834]}},{"type":"Feature","properties":{"id":5039,"title":"Smolensk, RU - Road Alignment","status":"PUBLISHED","created":"2018","lastUpdated":"2018","lastActive":"no","area":28.43951608669756,"changesets":18,"mappers":1,"roads":13.5643616443056,"buildings":128,"edits":711,"latest":"2018-11-06T18:43:12.000Z"},"geometry":{"type":"Point","coordinates":[32.8547004619526,54.8764930805367]}},{"type":"Feature","properties":{"id":5047,"title":"Vologda, RU - Road Alignment","status":"PUBLISHED","created":"2018","lastUpdated":"2018","lastActive":"no","area":35.28516778928109,"changesets":0,"mappers":0,"roads":0,"buildings":0,"edits":0,"latest":null},"geometry":{"type":"Point","coordinates":[40.0393416965148,59.7751178689939]}},{"type":"Feature","properties":{"id":5041,"title":"Yaroslavl, RU - Road Alignment","status":"PUBLISHED","created":"2018","lastUpdated":"2018","lastActive":"no","area":4.819215675862653,"changesets":155,"mappers":2,"roads":3.05788891442387,"buildings":74,"edits":691,"latest":"2018-12-02T21:43:27.000Z"},"geometry":{"type":"Point","coordinates":[39.1443497130268,57.5982859823097]}},{"type":"Feature","properties":{"id":5092,"title":"Krasnodar, RU - Road Alignment","status":"PUBLISHED","created":"2018","lastUpdated":"2018","lastActive":"no","area":65.77382796758191,"changesets":924,"mappers":2,"roads":102.053933053736,"buildings":4010,"edits":11187,"latest":"2018-12-13T20:57:54.000Z"},"geometry":{"type":"Point","coordinates":[39.4116507753946,45.4518856931549]}},{"type":"Feature","properties":{"id":5117,"title":"Zabaykalsk, RU - Road Alignment","status":"PUBLISHED","created":"2018","lastUpdated":"2018","lastActive":"no","area":15.535301906848705,"changesets":0,"mappers":0,"roads":0,"buildings":0,"edits":0,"latest":null},"geometry":{"type":"Point","coordinates":[115.893622536766,50.898877166788]}},{"type":"Feature","properties":{"id":5095,"title":"Ulianovsk, RU - Road Alignment","status":"PUBLISHED","created":"2018","lastUpdated":"2018","lastActive":"no","area":10.512720117766863,"changesets":13,"mappers":1,"roads":0.195155068289131,"buildings":0,"edits":78,"latest":"2018-11-01T07:42:38.000Z"},"geometry":{"type":"Point","coordinates":[48.0134617931904,53.772705368293]}},{"type":"Feature","properties":{"id":5085,"title":"Kalmykia, RU - Road Alignment","status":"PUBLISHED","created":"2018","lastUpdated":"2018","lastActive":"no","area":10.056908395488977,"changesets":10,"mappers":1,"roads":4.37148898049341,"buildings":12,"edits":202,"latest":"2018-10-31T16:42:50.000Z"},"geometry":{"type":"Point","coordinates":[44.9932637551155,46.0090609593374]}},{"type":"Feature","properties":{"id":5111,"title":"Tomsk, RU - Road Alignment","status":"PUBLISHED","created":"2018","lastUpdated":"2018","lastActive":"no","area":8.291597604665306,"changesets":5,"mappers":1,"roads":0.629914577296326,"buildings":5,"edits":37,"latest":"2018-10-20T21:50:51.000Z"},"geometry":{"type":"Point","coordinates":[83.3986752670868,57.7318453073323]}},{"type":"Feature","properties":{"id":5045,"title":"Nenetsia, RU - Road Alignment","status":"PUBLISHED","created":"2018","lastUpdated":"2018","lastActive":"no","area":1.271696291426983,"changesets":7,"mappers":2,"roads":8.39223990109274,"buildings":130,"edits":410,"latest":"2018-11-05T20:55:39.000Z"},"geometry":{"type":"Point","coordinates":[56.0799294668555,67.3851766016729]}},{"type":"Feature","properties":{"id":5079,"title":"Nizhny Novgorod, RU - Road Alignment","status":"PUBLISHED","created":"2018","lastUpdated":"2018","lastActive":"no","area":23.49516750453581,"changesets":37,"mappers":2,"roads":6.19314781133766,"buildings":0,"edits":61,"latest":"2018-12-06T06:48:53.000Z"},"geometry":{"type":"Point","coordinates":[44.5683003348931,55.6787726091367]}},{"type":"Feature","properties":{"id":5049,"title":"Kaluga, RU - Road Alignment","status":"PUBLISHED","created":"2018","lastUpdated":"2018","lastActive":"no","area":10.587303562416615,"changesets":1,"mappers":1,"roads":0.159744480365076,"buildings":0,"edits":43,"latest":"2018-10-29T12:17:28.000Z"},"geometry":{"type":"Point","coordinates":[35.7221561476756,54.5927443769091]}},{"type":"Feature","properties":{"id":5099,"title":"Samara, RU - Road Alignment","status":"PUBLISHED","created":"2018","lastUpdated":"2018","lastActive":"no","area":30.485075606543912,"changesets":154,"mappers":1,"roads":22.7766838309259,"buildings":611,"edits":2758,"latest":"2018-12-26T14:53:31.000Z"},"geometry":{"type":"Point","coordinates":[50.3445307565892,53.3708217054506]}},{"type":"Feature","properties":{"id":5115,"title":"Krasnoyarsk, RU - Road Alignment","status":"PUBLISHED","created":"2018","lastUpdated":"2018","lastActive":"no","area":22.824888459707374,"changesets":78,"mappers":1,"roads":15.4802476295007,"buildings":108,"edits":630,"latest":"2018-10-20T05:40:12.000Z"},"geometry":{"type":"Point","coordinates":[93.4116099617817,57.0117959504218]}},{"type":"Feature","properties":{"id":5083,"title":"Saratov, RU - Road Alignment","status":"PUBLISHED","created":"2018","lastUpdated":"2018","lastActive":"no","area":32.40097117720466,"changesets":34,"mappers":1,"roads":0.77353210229752,"buildings":6,"edits":341,"latest":"2018-10-28T13:14:20.000Z"},"geometry":{"type":"Point","coordinates":[46.1811223773877,51.5916763633425]}},{"type":"Feature","properties":{"id":5081,"title":"Tambov, RU - Road Alignment","status":"PUBLISHED","created":"2018","lastUpdated":"2018","lastActive":"no","area":26.18715669406076,"changesets":2,"mappers":2,"roads":0.00403649833909725,"buildings":1,"edits":32,"latest":"2018-11-19T18:17:20.000Z"},"geometry":{"type":"Point","coordinates":[41.3729375849855,52.7601922019812]}},{"type":"Feature","properties":{"id":5037,"title":"Pskov, RU - Road Alignment","status":"PUBLISHED","created":"2018","lastUpdated":"2018","lastActive":"no","area":6.7397348411403035,"changesets":0,"mappers":0,"roads":0,"buildings":0,"edits":0,"latest":null},"geometry":{"type":"Point","coordinates":[28.7196206931114,57.4529744401669]}}],"Zambia":[{"type":"Feature","properties":{"id":2695,"title":"Missing Maps: Zambia Malaria Elimination 62","status":"ARCHIVED","created":"2017","lastUpdated":"2017","lastActive":"no","area":51.13514152568108,"changesets":838,"mappers":120,"roads":173.537791642928,"buildings":3216,"edits":5411,"latest":"2017-05-11T18:23:23.000Z"},"geometry":{"type":"Point","coordinates":[26.3806990487336,-16.9367301018994]}},{"type":"Feature","properties":{"id":2546,"title":"Missing Maps: Zambia Malaria Elimination 6","status":"ARCHIVED","created":"2017","lastUpdated":"2017","lastActive":"no","area":33.848371279562905,"changesets":1125,"mappers":60,"roads":59.5274783501727,"buildings":5533,"edits":5905,"latest":"2017-03-20T13:03:45.000Z"},"geometry":{"type":"Point","coordinates":[26.2861727088638,-15.8927405111516]}},{"type":"Feature","properties":{"id":2548,"title":"Missing Maps: Zambia Malaria Elimination 8","status":"ARCHIVED","created":"2017","lastUpdated":"2017","lastActive":"no","area":41.631798204787955,"changesets":1318,"mappers":57,"roads":76.2881293155675,"buildings":7120,"edits":7570,"latest":"2017-03-25T19:39:09.000Z"},"geometry":{"type":"Point","coordinates":[26.791156583287,-15.7950682288584]}},{"type":"Feature","properties":{"id":2632,"title":"Missing Maps: Zambia Malaria Elimination 47","status":"ARCHIVED","created":"2017","lastUpdated":"2017","lastActive":"no","area":39.791315431881884,"changesets":608,"mappers":36,"roads":11.5886398532412,"buildings":2428,"edits":2531,"latest":"2017-03-18T18:18:41.000Z"},"geometry":{"type":"Point","coordinates":[27.3180403968393,-16.624657481662]}},{"type":"Feature","properties":{"id":5343,"title":"Missing Maps - Zambia - Malengwa","status":"ARCHIVED","created":"2018","lastUpdated":"2018","lastActive":"no","area":19.26248831210457,"changesets":409,"mappers":36,"roads":129.920029364859,"buildings":2828,"edits":4381,"latest":"2018-10-23T20:14:30.000Z"},"geometry":{"type":"Point","coordinates":[23.1496450351179,-15.21927210925]}},{"type":"Feature","properties":{"id":2582,"title":"Missing Maps: Zambia Malaria Elimination 21","status":"ARCHIVED","created":"2017","lastUpdated":"2017","lastActive":"no","area":33.664759342899956,"changesets":1117,"mappers":45,"roads":3.11622270231003,"buildings":6257,"edits":6323,"latest":"2017-03-24T06:47:38.000Z"},"geometry":{"type":"Point","coordinates":[27.6071403992898,-16.2228775931531]}},{"type":"Feature","properties":{"id":2659,"title":"Missing Maps: Zambia Malaria Elimination 53","status":"ARCHIVED","created":"2017","lastUpdated":"2017","lastActive":"no","area":46.56177364588499,"changesets":1124,"mappers":44,"roads":170.883635532992,"buildings":16338,"edits":17239,"latest":"2017-04-14T16:17:55.000Z"},"geometry":{"type":"Point","coordinates":[26.9784802450858,-16.7848355634603]}},{"type":"Feature","properties":{"id":2622,"title":"Missing Maps: Zambia Malaria Elimination 43","status":"ARCHIVED","created":"2017","lastUpdated":"2017","lastActive":"no","area":52.94171063556428,"changesets":1003,"mappers":100,"roads":121.692857457407,"buildings":6453,"edits":7526,"latest":"2017-04-20T09:57:23.000Z"},"geometry":{"type":"Point","coordinates":[27.4793076354582,-16.5586713314048]}},{"type":"Feature","properties":{"id":2606,"title":"Missing Maps: Zambia Malaria Elimination 37","status":"ARCHIVED","created":"2017","lastUpdated":"2017","lastActive":"no","area":30.975047863285592,"changesets":922,"mappers":62,"roads":102.254978189865,"buildings":7438,"edits":8154,"latest":"2017-04-12T14:36:51.000Z"},"geometry":{"type":"Point","coordinates":[27.0010022975683,-16.5926195924436]}},{"type":"Feature","properties":{"id":2555,"title":"Missing Maps: Zambia Malaria Elimination 10","status":"ARCHIVED","created":"2017","lastUpdated":"2017","lastActive":"no","area":31.10985637117499,"changesets":1022,"mappers":75,"roads":4.69389639139936,"buildings":11460,"edits":11552,"latest":"2017-03-31T12:42:23.000Z"},"geometry":{"type":"Point","coordinates":[28.1305373435524,-15.8314610173578]}},{"type":"Feature","properties":{"id":2591,"title":"Missing Maps: Zambia Malaria Elimination 29","status":"ARCHIVED","created":"2017","lastUpdated":"2017","lastActive":"no","area":53.75292702905735,"changesets":1426,"mappers":63,"roads":86.361484210331,"buildings":7390,"edits":7828,"latest":"2017-03-31T11:18:37.000Z"},"geometry":{"type":"Point","coordinates":[27.3280030364326,-16.131696018737]}},{"type":"Feature","properties":{"id":2593,"title":"Missing Maps: Zambia Malaria Elimination 31","status":"ARCHIVED","created":"2017","lastUpdated":"2017","lastActive":"no","area":50.83118300093933,"changesets":1306,"mappers":55,"roads":19.5905650528771,"buildings":26904,"edits":31435,"latest":"2017-04-03T02:04:07.000Z"},"geometry":{"type":"Point","coordinates":[27.4800186849158,-16.2925738916435]}},{"type":"Feature","properties":{"id":2567,"title":"Missing Maps: Zambia Malaria Elimination 15","status":"ARCHIVED","created":"2017","lastUpdated":"2017","lastActive":"no","area":35.688557069757834,"changesets":1113,"mappers":61,"roads":4.50367607505807,"buildings":8009,"edits":8063,"latest":"2017-03-24T16:48:39.000Z"},"geometry":{"type":"Point","coordinates":[28.0348670421815,-16.2052939633314]}},{"type":"Feature","properties":{"id":2584,"title":"Missing Maps: Zambia Malaria Elimination 23","status":"ARCHIVED","created":"2017","lastUpdated":"2017","lastActive":"no","area":23.463381411934975,"changesets":1223,"mappers":42,"roads":0.0809701518192749,"buildings":8832,"edits":8922,"latest":"2017-04-11T23:16:31.000Z"},"geometry":{"type":"Point","coordinates":[27.6601962414265,-16.3432360476813]}},{"type":"Feature","properties":{"id":2540,"title":"Missing Maps: Zambia Malaria Elimination 4","status":"ARCHIVED","created":"2017","lastUpdated":"2017","lastActive":"no","area":22.907473399342862,"changesets":540,"mappers":48,"roads":18.2163761096354,"buildings":4774,"edits":4996,"latest":"2017-03-17T23:36:14.000Z"},"geometry":{"type":"Point","coordinates":[26.9741712856948,-15.6427599577224]}},{"type":"Feature","properties":{"id":2699,"title":"Missing Maps: Zambia Malaria Elimination 66","status":"ARCHIVED","created":"2017","lastUpdated":"2017","lastActive":"no","area":50.124720955913006,"changesets":468,"mappers":27,"roads":22.076364361358,"buildings":2535,"edits":2638,"latest":"2017-03-29T08:18:05.000Z"},"geometry":{"type":"Point","coordinates":[26.8835639647511,-17.0174401852459]}},{"type":"Feature","properties":{"id":2738,"title":"Mistake Do Not Use","status":"ARCHIVED","created":"2017","lastUpdated":"2017","lastActive":"no","area":41.631798204787955,"changesets":0,"mappers":0,"roads":0,"buildings":0,"edits":0,"latest":null},"geometry":{"type":"Point","coordinates":[26.791156583287,-15.7950682288584]}},{"type":"Feature","properties":{"id":2697,"title":"Missing Maps: Zambia Malaria Elimination 64","status":"ARCHIVED","created":"2017","lastUpdated":"2017","lastActive":"no","area":54.73285642282335,"changesets":1359,"mappers":162,"roads":173.143135524862,"buildings":10487,"edits":12607,"latest":"2017-04-03T18:54:51.000Z"},"geometry":{"type":"Point","coordinates":[26.5192874610287,-17.037699901068]}},{"type":"Feature","properties":{"id":2640,"title":"Missing Maps: Zambia Malaria Elimination 50","status":"ARCHIVED","created":"2017","lastUpdated":"2017","lastActive":"no","area":45.88254213552296,"changesets":1024,"mappers":45,"roads":8.66046196915923,"buildings":2599,"edits":2747,"latest":"2017-03-20T06:37:37.000Z"},"geometry":{"type":"Point","coordinates":[27.3770530470706,-16.6969472336215]}},{"type":"Feature","properties":{"id":2672,"title":"Missing Maps: Zambia Malaria Elimination 60","status":"ARCHIVED","created":"2017","lastUpdated":"2017","lastActive":"no","area":57.4773662312199,"changesets":463,"mappers":31,"roads":22.291356841362,"buildings":2319,"edits":2563,"latest":"2017-03-24T22:32:53.000Z"},"geometry":{"type":"Point","coordinates":[27.0354447769297,-16.9098554673388]}},{"type":"Feature","properties":{"id":2563,"title":"Missing Maps: Zambia Malaria Elimination 12","status":"ARCHIVED","created":"2017","lastUpdated":"2017","lastActive":"no","area":27.331276133688156,"changesets":1358,"mappers":54,"roads":1.32529243975568,"buildings":9472,"edits":9584,"latest":"2017-05-23T04:22:15.000Z"},"geometry":{"type":"Point","coordinates":[27.9848791243,-16.0892558881978]}},{"type":"Feature","properties":{"id":2569,"title":"Missing Maps: Zambia Malaria Elimination 17","status":"ARCHIVED","created":"2017","lastUpdated":"2017","lastActive":"no","area":54.8149033238161,"changesets":1760,"mappers":78,"roads":49.3003192544686,"buildings":13157,"edits":13567,"latest":"2017-03-24T17:08:17.000Z"},"geometry":{"type":"Point","coordinates":[27.9146509689315,-16.2317136626271]}},{"type":"Feature","properties":{"id":2586,"title":"Missing Maps: Zambia Malaria Elimination 25","status":"ARCHIVED","created":"2017","lastUpdated":"2017","lastActive":"no","area":11.867807532613435,"changesets":544,"mappers":33,"roads":6.4267548796816,"buildings":2167,"edits":2195,"latest":"2017-03-27T10:49:22.000Z"},"geometry":{"type":"Point","coordinates":[28.0011485249086,-15.9342298085104]}},{"type":"Feature","properties":{"id":2765,"title":"Mistake Do Not Use","status":"ARCHIVED","created":"2017","lastUpdated":"2017","lastActive":"no","area":27.331276133688156,"changesets":0,"mappers":0,"roads":0,"buildings":0,"edits":0,"latest":null},"geometry":{"type":"Point","coordinates":[27.9848791243,-16.0892558881978]}},{"type":"Feature","properties":{"id":2588,"title":"Missing Maps: Zambia Malaria Elimination 27","status":"ARCHIVED","created":"2017","lastUpdated":"2017","lastActive":"no","area":31.889495041013184,"changesets":1413,"mappers":34,"roads":24.1011558976978,"buildings":7618,"edits":8792,"latest":"2017-04-04T18:16:46.000Z"},"geometry":{"type":"Point","coordinates":[27.5352249359389,-16.1835984997993]}},{"type":"Feature","properties":{"id":5626,"title":"Missing Maps - Zambia - Mongu-Senanga (East bank)","status":"PUBLISHED","created":"2018","lastUpdated":"2019","lastActive":"yes","area":608.1342401312044,"changesets":802,"mappers":44,"roads":699.67346346133,"buildings":17875,"edits":18921,"latest":"2019-01-15T16:30:07.000Z"},"geometry":{"type":"Point","coordinates":[23.2789793304103,-15.7140648588914]}},{"type":"Feature","properties":{"id":2610,"title":"Missing Maps: Zambia Malaria Elimination 39","status":"ARCHIVED","created":"2017","lastUpdated":"2017","lastActive":"no","area":51.10622722327789,"changesets":1447,"mappers":59,"roads":110.565243716719,"buildings":10273,"edits":12222,"latest":"2017-04-06T09:53:30.000Z"},"geometry":{"type":"Point","coordinates":[27.4968094062617,-16.4326310664699]}},{"type":"Feature","properties":{"id":2604,"title":"Missing Maps: Zambia Malaria Elimination 35","status":"ARCHIVED","created":"2017","lastUpdated":"2017","lastActive":"no","area":47.681523032445796,"changesets":747,"mappers":61,"roads":0.646824385341615,"buildings":2683,"edits":2695,"latest":"2017-03-03T10:25:07.000Z"},"geometry":{"type":"Point","coordinates":[27.39946944317,-16.3376490201743]}},{"type":"Feature","properties":{"id":2612,"title":"Missing Maps: Zambia Malaria Elimination 41","status":"ARCHIVED","created":"2017","lastUpdated":"2017","lastActive":"no","area":39.12071193861273,"changesets":1201,"mappers":50,"roads":38.6208702735164,"buildings":8369,"edits":8715,"latest":"2017-08-07T12:21:04.000Z"},"geometry":{"type":"Point","coordinates":[27.6376904065045,-16.4473867460371]}},{"type":"Feature","properties":{"id":5172,"title":"Missing Maps - Zambia - Limulunga","status":"ARCHIVED","created":"2018","lastUpdated":"2018","lastActive":"no","area":12.712710414575804,"changesets":149,"mappers":18,"roads":39.4267387243411,"buildings":2634,"edits":3095,"latest":"2018-09-11T13:11:05.000Z"},"geometry":{"type":"Point","coordinates":[23.1467113223816,-15.1304589194704]}},{"type":"Feature","properties":{"id":2670,"title":"Missing Maps: Zambia Malaria Elimination 58","status":"ARCHIVED","created":"2017","lastUpdated":"2017","lastActive":"no","area":52.22446425255846,"changesets":450,"mappers":42,"roads":12.5052306014992,"buildings":3306,"edits":3498,"latest":"2017-03-23T21:36:31.000Z"},"geometry":{"type":"Point","coordinates":[26.682991358299,-16.7963311571231]}},{"type":"Feature","properties":{"id":2757,"title":"Missing Maps: Zambia Malaria Elimination 72","status":"ARCHIVED","created":"2017","lastUpdated":"2017","lastActive":"no","area":30.78403487211502,"changesets":389,"mappers":28,"roads":0,"buildings":2146,"edits":2146,"latest":"2017-04-04T14:16:36.000Z"},"geometry":{"type":"Point","coordinates":[26.5256121601278,-17.2547069167342]}},{"type":"Feature","properties":{"id":2580,"title":"Missing Maps: Zambia Malaria Elimination 19","status":"ARCHIVED","created":"2017","lastUpdated":"2017","lastActive":"no","area":32.151266169300655,"changesets":2947,"mappers":45,"roads":568.344862594093,"buildings":25957,"edits":26997,"latest":"2017-04-29T20:04:28.000Z"},"geometry":{"type":"Point","coordinates":[27.8510327277559,-16.3723544510643]}},{"type":"Feature","properties":{"id":2779,"title":"Missing Maps: Zambia Malaria Elimination 78","status":"ARCHIVED","created":"2017","lastUpdated":"2017","lastActive":"no","area":44.7317181021396,"changesets":506,"mappers":28,"roads":9.17382543070227,"buildings":3197,"edits":3235,"latest":"2017-04-11T19:49:21.000Z"},"geometry":{"type":"Point","coordinates":[26.2287295157117,-17.3713061163891]}},{"type":"Feature","properties":{"id":2761,"title":"Missing Maps: Zambia Malaria Elimination 74","status":"ARCHIVED","created":"2017","lastUpdated":"2017","lastActive":"no","area":47.19235660906852,"changesets":579,"mappers":40,"roads":20.5626297877843,"buildings":3277,"edits":3389,"latest":"2017-04-12T13:01:45.000Z"},"geometry":{"type":"Point","coordinates":[26.6191107116027,-17.4284490157584]}},{"type":"Feature","properties":{"id":2595,"title":"Missing Maps: Zambia Malaria Elimination 33","status":"ARCHIVED","created":"2017","lastUpdated":"2017","lastActive":"no","area":57.2682467492817,"changesets":1480,"mappers":58,"roads":13.6501543296384,"buildings":6800,"edits":6992,"latest":"2017-04-10T07:00:04.000Z"},"geometry":{"type":"Point","coordinates":[27.1672873119992,-16.3183967538568]}},{"type":"Feature","properties":{"id":2773,"title":"Missing Maps: Zambia Malaria Elimination 76","status":"ARCHIVED","created":"2017","lastUpdated":"2017","lastActive":"no","area":38.49078939239585,"changesets":320,"mappers":24,"roads":0,"buildings":2320,"edits":2320,"latest":"2017-04-07T16:10:34.000Z"},"geometry":{"type":"Point","coordinates":[26.0526745550425,-17.1420374248002]}},{"type":"Feature","properties":{"id":2519,"title":"Missing Maps: Zambia Malaria Elimination 2","status":"ARCHIVED","created":"2017","lastUpdated":"2017","lastActive":"no","area":41.63797409694132,"changesets":2695,"mappers":78,"roads":827.788975646998,"buildings":9568,"edits":22400,"latest":"2017-05-06T14:07:18.000Z"},"geometry":{"type":"Point","coordinates":[26.4141100958582,-15.6153664821107]}},{"type":"Feature","properties":{"id":2594,"title":"Missing Maps: Zambia Malaria Elimination 32","status":"ARCHIVED","created":"2017","lastUpdated":"2017","lastActive":"no","area":43.26936567615261,"changesets":1273,"mappers":70,"roads":18.9927893029869,"buildings":7488,"edits":7992,"latest":"2017-04-08T00:18:09.000Z"},"geometry":{"type":"Point","coordinates":[27.3457489157097,-16.2479875735404]}},{"type":"Feature","properties":{"id":2631,"title":"Missing Maps: Zambia Malaria Elimination 46","status":"ARCHIVED","created":"2017","lastUpdated":"2017","lastActive":"no","area":39.983921412768375,"changesets":491,"mappers":67,"roads":73.66628039145,"buildings":1499,"edits":1809,"latest":"2017-03-17T14:59:40.000Z"},"geometry":{"type":"Point","coordinates":[27.2661845406609,-16.5416785036011]}},{"type":"Feature","properties":{"id":1091,"title":"Peace Corps Zambia - Keemba Catchment Area","status":"PUBLISHED","created":"2015","lastUpdated":"2015","lastActive":"no","area":175.01785803119873,"changesets":527,"mappers":24,"roads":1750.24098059605,"buildings":4095,"edits":20596,"latest":"2018-03-19T08:41:29.000Z"},"geometry":{"type":"Point","coordinates":[27.3726081848145,-16.054879034396]}},{"type":"Feature","properties":{"id":3743,"title":"Mapping Chinsali Council, Muchinga Province, Zambia","status":"PUBLISHED","created":"2017","lastUpdated":"2018","lastActive":"no","area":18.90041308791517,"changesets":185,"mappers":12,"roads":115.037378693772,"buildings":4142,"edits":7226,"latest":"2018-01-11T15:23:55.000Z"},"geometry":{"type":"Point","coordinates":[32.0699920470507,-10.5493463883295]}},{"type":"Feature","properties":{"id":1568,"title":"Peace Corps Zambia - Manyaana","status":"PUBLISHED","created":"2016","lastUpdated":"2017","lastActive":"no","area":667.840179590417,"changesets":594,"mappers":41,"roads":1554.0169888402,"buildings":5723,"edits":15640,"latest":"2018-06-27T19:56:59.000Z"},"geometry":{"type":"Point","coordinates":[27.5452480313737,-16.0255493682969]}},{"type":"Feature","properties":{"id":2630,"title":"Missing Maps: Zambia Malaria Elimination 45","status":"ARCHIVED","created":"2017","lastUpdated":"2017","lastActive":"no","area":55.532451331247486,"changesets":987,"mappers":74,"roads":37.3246916241503,"buildings":6066,"edits":6197,"latest":"2017-03-12T20:21:09.000Z"},"geometry":{"type":"Point","coordinates":[27.5978076767458,-15.8387716061384]}},