{"totalEdits":42075173,"totalBuildings":34804681,"totalRoads":888976.374046226,"mappersOnline":146,"totalTasksMapped":1680456,"totalMappers":142815,"totalProjects":4095,"Indonesia":[{"type":"Feature","properties":{"id":2574,"title":"OpenStreetMap Training for Develop Risk Assessment Document in Jepara","status":"ARCHIVED","created":"2017","lastUpdated":"2017","lastActive":"no","area":1032.1322834117457,"changesets":0,"mappers":0,"roads":0,"buildings":0,"edits":0,"latest":null},"geometry":{"type":"Point","coordinates":[110.767674520483,-6.54866199966636]}},{"type":"Feature","properties":{"id":3035,"title":"Missing Maps: Koja Sub Districs #PDC Jakarta","status":"ARCHIVED","created":"2017","lastUpdated":"2017","lastActive":"no","area":9.89511853564706,"changesets":450,"mappers":10,"roads":18.8340571467575,"buildings":50848,"edits":53904,"latest":"2017-10-06T01:23:57.000Z"},"geometry":{"type":"Point","coordinates":[106.905929549656,-6.12538848485847]}},{"type":"Feature","properties":{"id":3027,"title":"Missing Maps: Kebayoran Baru Sub Districs #PDC Jakarta","status":"ARCHIVED","created":"2017","lastUpdated":"2017","lastActive":"no","area":12.766082803531393,"changesets":306,"mappers":16,"roads":4.65841257609875,"buildings":25429,"edits":27872,"latest":"2017-11-08T08:22:59.000Z"},"geometry":{"type":"Point","coordinates":[106.801459859383,-6.2447259415702]}},{"type":"Feature","properties":{"id":3023,"title":"Missing Maps: Jagakarsa Sub Districs #PDC Jakarta","status":"ARCHIVED","created":"2017","lastUpdated":"2018","lastActive":"no","area":25.42210309140762,"changesets":402,"mappers":4,"roads":291.254137097454,"buildings":60355,"edits":74341,"latest":"2017-09-27T08:09:19.000Z"},"geometry":{"type":"Point","coordinates":[106.822686971367,-6.33345822843127]}},{"type":"Feature","properties":{"id":238,"title":"Guntur_Garut","status":"ARCHIVED","created":"2013","lastUpdated":"2014","lastActive":"no","area":1033.3340642967473,"changesets":3,"mappers":1,"roads":0,"buildings":14,"edits":14,"latest":"2016-01-21T11:25:00.000Z"},"geometry":{"type":"Point","coordinates":[107.869024835263,-7.21340771141719]}},{"type":"Feature","properties":{"id":1150,"title":"Exposure Mapping Raung Volcano, East Java","status":"PUBLISHED","created":"2015","lastUpdated":"2018","lastActive":"no","area":2699.759445094531,"changesets":1898,"mappers":203,"roads":584.272666864601,"buildings":36866,"edits":42038,"latest":"2018-08-15T06:47:19.000Z"},"geometry":{"type":"Point","coordinates":[113.99786323889,-8.12593667906343]}},{"type":"Feature","properties":{"id":646,"title":"SA Mini-Project","status":"PUBLISHED","created":"2014","lastUpdated":"2018","lastActive":"no","area":7.43912469192682,"changesets":0,"mappers":0,"roads":0,"buildings":0,"edits":0,"latest":null},"geometry":{"type":"Point","coordinates":[124.853497574604,1.48725962062865]}},{"type":"Feature","properties":{"id":2810,"title":"Missing Maps: Cakung Sub Districs #PDC Jakarta","status":"ARCHIVED","created":"2017","lastUpdated":"2017","lastActive":"no","area":40.6731416648683,"changesets":928,"mappers":4,"roads":41.6128199606069,"buildings":102543,"edits":108164,"latest":"2017-09-12T04:31:11.000Z"},"geometry":{"type":"Point","coordinates":[106.940749285978,-6.18934724786333]}},{"type":"Feature","properties":{"id":555,"title":"Training UNHAS Makassar","status":"PUBLISHED","created":"2014","lastUpdated":"2018","lastActive":"no","area":18.272629889754338,"changesets":0,"mappers":0,"roads":0,"buildings":0,"edits":0,"latest":null},"geometry":{"type":"Point","coordinates":[119.498923122722,-5.13248292682091]}},{"type":"Feature","properties":{"id":4046,"title":"Missing Maps: Gajah Mungkur Sub Districts #PDC Semarang","status":"ARCHIVED","created":"2018","lastUpdated":"2018","lastActive":"no","area":9.7825467368316,"changesets":119,"mappers":3,"roads":24.9969487164691,"buildings":6160,"edits":7312,"latest":"2018-06-26T09:46:00.000Z"},"geometry":{"type":"Point","coordinates":[110.405596342639,-7.01275552509079]}},{"type":"Feature","properties":{"id":4058,"title":"Missing Maps: Tembalang Sub Districts #PDC Semarang","status":"PUBLISHED","created":"2018","lastUpdated":"2018","lastActive":"no","area":40.54145098859969,"changesets":665,"mappers":56,"roads":264.065386297172,"buildings":45216,"edits":48320,"latest":"2018-07-23T04:57:28.000Z"},"geometry":{"type":"Point","coordinates":[110.460995575373,-7.04854201123433]}},{"type":"Feature","properties":{"id":4054,"title":"Missing Maps: Semarang Selatan Sub Districts #PDC Semarang","status":"ARCHIVED","created":"2018","lastUpdated":"2018","lastActive":"no","area":6.216206220761751,"changesets":317,"mappers":4,"roads":104.549294432283,"buildings":7273,"edits":9672,"latest":"2018-06-28T09:25:52.000Z"},"geometry":{"type":"Point","coordinates":[110.424620763431,-6.99694059104644]}},{"type":"Feature","properties":{"id":269,"title":"Latihan Digitasi Kepulauan Selayar","status":"PUBLISHED","created":"2013","lastUpdated":"2017","lastActive":"no","area":804.146953222781,"changesets":558,"mappers":22,"roads":701.420344598692,"buildings":2627,"edits":23639,"latest":"2018-01-04T08:23:44.000Z"},"geometry":{"type":"Point","coordinates":[120.490925789563,-6.10121746204323]}},{"type":"Feature","properties":{"id":271,"title":"Latihan Digitasi Gowa","status":"PUBLISHED","created":"2013","lastUpdated":"2014","lastActive":"no","area":281.11005048623855,"changesets":620,"mappers":22,"roads":671.739072762564,"buildings":7422,"edits":23411,"latest":"2018-01-04T09:08:25.000Z"},"geometry":{"type":"Point","coordinates":[119.4190063546,-5.30347272684608]}},{"type":"Feature","properties":{"id":257,"title":"Latihan Digitasi Kabupaten Bantaeng","status":"PUBLISHED","created":"2013","lastUpdated":"2017","lastActive":"no","area":344.63955532746286,"changesets":154,"mappers":3,"roads":4.3118408176977,"buildings":238,"edits":326,"latest":"2018-04-12T07:17:37.000Z"},"geometry":{"type":"Point","coordinates":[119.870101937629,-5.53434628011739]}},{"type":"Feature","properties":{"id":412,"title":"Mount Sinabung #MissingMaps (OLD)","status":"ARCHIVED","created":"2014","lastUpdated":"2015","lastActive":"no","area":331.36753836001753,"changesets":5,"mappers":1,"roads":0.863819923847827,"buildings":79,"edits":85,"latest":"2018-02-02T00:32:09.000Z"},"geometry":{"type":"Point","coordinates":[98.386752025584,3.148426374796]}},{"type":"Feature","properties":{"id":4048,"title":"Missing Maps: Genuk Sub Districts #PDC Semarang","status":"PUBLISHED","created":"2018","lastUpdated":"2018","lastActive":"no","area":26.89138122809543,"changesets":337,"mappers":17,"roads":211.651213602355,"buildings":30048,"edits":32607,"latest":"2018-07-23T04:32:20.000Z"},"geometry":{"type":"Point","coordinates":[110.476936026215,-6.96338054019794]}},{"type":"Feature","properties":{"id":4052,"title":"Missing Maps: Pedurungan Sub Districts #PDC Semarang","status":"PUBLISHED","created":"2018","lastUpdated":"2018","lastActive":"no","area":22.337854701407565,"changesets":481,"mappers":31,"roads":46.6776194885713,"buildings":47970,"edits":49143,"latest":"2018-07-23T03:01:55.000Z"},"geometry":{"type":"Point","coordinates":[110.473977056036,-7.00223449583275]}},{"type":"Feature","properties":{"id":4050,"title":"Missing Maps: Mijen Sub Districts #PDC Semarang","status":"ARCHIVED","created":"2018","lastUpdated":"2018","lastActive":"no","area":58.38424258359907,"changesets":641,"mappers":16,"roads":248.15917317191,"buildings":44462,"edits":48895,"latest":"2018-07-17T03:41:21.000Z"},"geometry":{"type":"Point","coordinates":[110.316039793238,-7.05292695812427]}},{"type":"Feature","properties":{"id":454,"title":"Help digitize buildings & roads for better emergency response in Mt. Slamet ","status":"PUBLISHED","created":"2014","lastUpdated":"2018","lastActive":"no","area":6.940715703178464,"changesets":0,"mappers":0,"roads":0,"buildings":0,"edits":0,"latest":null},"geometry":{"type":"Point","coordinates":[109.216043387363,-7.24129473882666]}},{"type":"Feature","properties":{"id":2754,"title":"Missing Maps: Tambora Sub Districs #PDC Jakarta","status":"ARCHIVED","created":"2017","lastUpdated":"2017","lastActive":"no","area":5.505383816688497,"changesets":880,"mappers":38,"roads":182.465308905547,"buildings":47577,"edits":56756,"latest":"2017-10-04T05:20:50.000Z"},"geometry":{"type":"Point","coordinates":[106.803435638742,-6.14738508282838]}},{"type":"Feature","properties":{"id":204,"title":"Depok Red Cross / Tulane Mapping","status":"ARCHIVED","created":"2013","lastUpdated":"2014","lastActive":"no","area":2.628292622844075,"changesets":54,"mappers":7,"roads":24.1871934531348,"buildings":2268,"edits":2460,"latest":"2018-10-08T02:16:46.000Z"},"geometry":{"type":"Point","coordinates":[106.81139405098,-6.38662921176067]}},{"type":"Feature","properties":{"id":3030,"title":"Missing Maps: Sawah Besar Sub Districs #PDC Jakarta","status":"ARCHIVED","created":"2017","lastUpdated":"2017","lastActive":"no","area":5.440310267845165,"changesets":133,"mappers":3,"roads":15.8262917961787,"buildings":12940,"edits":13867,"latest":"2017-08-04T04:30:15.000Z"},"geometry":{"type":"Point","coordinates":[106.83314677533,-6.15413667191174]}},{"type":"Feature","properties":{"id":3028,"title":"Missing Maps: Kebayoran Lama Sub Districs #PDC Jakarta","status":"ARCHIVED","created":"2017","lastUpdated":"2017","lastActive":"no","area":19.26976843037759,"changesets":335,"mappers":8,"roads":62.00245880754,"buildings":47777,"edits":51474,"latest":"2017-09-27T03:17:09.000Z"},"geometry":{"type":"Point","coordinates":[106.780207081608,-6.25004536188288]}},{"type":"Feature","properties":{"id":298,"title":"Aceh Project Area 3","status":"PUBLISHED","created":"2013","lastUpdated":"2014","lastActive":"no","area":6.038222593149481,"changesets":977,"mappers":25,"roads":181.102296015243,"buildings":129594,"edits":132711,"latest":"2018-06-17T05:12:39.000Z"},"geometry":{"type":"Point","coordinates":[96.7384395707381,4.68012683576516]}},{"type":"Feature","properties":{"id":300,"title":"The entire extent of July 2 earthquake zone (Above MMI5)","status":"PUBLISHED","created":"2013","lastUpdated":"2017","lastActive":"no","area":2961.7402540220824,"changesets":671,"mappers":25,"roads":731.527821867883,"buildings":346,"edits":4681,"latest":"2018-02-19T03:30:22.000Z"},"geometry":{"type":"Point","coordinates":[96.6923185835241,4.69253019250577]}},{"type":"Feature","properties":{"id":3037,"title":"Missing Maps: Cilincing Sub Districs #PDC Jakarta","status":"ARCHIVED","created":"2017","lastUpdated":"2017","lastActive":"no","area":41.17584204145506,"changesets":370,"mappers":7,"roads":44.6930557805136,"buildings":61048,"edits":65886,"latest":"2017-10-05T06:00:38.000Z"},"geometry":{"type":"Point","coordinates":[106.943262692355,-6.12798931279952]}},{"type":"Feature","properties":{"id":2752,"title":"Missing Maps: Kembangan Sub Districs #PDC Jakarta","status":"ARCHIVED","created":"2017","lastUpdated":"2017","lastActive":"no","area":25.229228382556542,"changesets":1726,"mappers":6,"roads":261.075363905223,"buildings":77494,"edits":96219,"latest":"2017-10-06T07:17:24.000Z"},"geometry":{"type":"Point","coordinates":[106.741932072569,-6.1983588926559]}},{"type":"Feature","properties":{"id":301,"title":"Scan for buildings not digitized - Aceh","status":"PUBLISHED","created":"2013","lastUpdated":"2016","lastActive":"no","area":3375.758806919696,"changesets":616,"mappers":24,"roads":734.733287406145,"buildings":185,"edits":2754,"latest":"2018-02-19T07:39:11.000Z"},"geometry":{"type":"Point","coordinates":[96.691855341424,4.70898412406649]}},{"type":"Feature","properties":{"id":3019,"title":"Missing Maps: Kebon Jeruk Sub Districs #PDC Jakarta","status":"ARCHIVED","created":"2017","lastUpdated":"2017","lastActive":"no","area":17.71909348698738,"changesets":224,"mappers":4,"roads":9.78093330678165,"buildings":101072,"edits":104973,"latest":"2017-09-18T03:31:36.000Z"},"geometry":{"type":"Point","coordinates":[106.769120917933,-6.18966735903269]}},{"type":"Feature","properties":{"id":2750,"title":"Missing Maps: Pulo Gadung Sub Districs #PDC Jakarta","status":"ARCHIVED","created":"2017","lastUpdated":"2017","lastActive":"no","area":15.017768102585904,"changesets":314,"mappers":4,"roads":6.68953063373833,"buildings":40209,"edits":41840,"latest":"2017-08-03T08:07:09.000Z"},"geometry":{"type":"Point","coordinates":[106.888970840117,-6.19320943394448]}},{"type":"Feature","properties":{"id":3021,"title":"Missing Maps: Kali Deres Sub Districs #PDC Jakarta","status":"ARCHIVED","created":"2017","lastUpdated":"2017","lastActive":"no","area":29.932357603667022,"changesets":1472,"mappers":7,"roads":51.32161785343,"buildings":63634,"edits":68367,"latest":"2017-11-09T10:14:00.000Z"},"geometry":{"type":"Point","coordinates":[106.703602395224,-6.13440116229757]}},{"type":"Feature","properties":{"id":3017,"title":"Missing Maps: Pasar Rebo Sub Districs #PDC Jakarta","status":"ARCHIVED","created":"2017","lastUpdated":"2017","lastActive":"no","area":12.342260215364801,"changesets":351,"mappers":5,"roads":10.8466904443053,"buildings":37866,"edits":39283,"latest":"2017-10-06T07:49:46.000Z"},"geometry":{"type":"Point","coordinates":[106.857470769184,-6.3271561630854]}},{"type":"Feature","properties":{"id":902,"title":"Samarinda City Tasking -  OSM Training Samarinda","status":"ARCHIVED","created":"2015","lastUpdated":"2016","lastActive":"no","area":265.6469267745536,"changesets":10,"mappers":3,"roads":3.36536555083597,"buildings":358,"edits":428,"latest":"2016-01-27T10:36:16.000Z"},"geometry":{"type":"Point","coordinates":[117.14740909284,-0.521272744644264]}},{"type":"Feature","properties":{"id":628,"title":"Kota Depok","status":"PUBLISHED","created":"2014","lastUpdated":"2018","lastActive":"no","area":233.66077112635446,"changesets":0,"mappers":0,"roads":0,"buildings":0,"edits":0,"latest":null},"geometry":{"type":"Point","coordinates":[106.812509143884,-6.39377360238691]}},{"type":"Feature","properties":{"id":4047,"title":"Missing Maps: Gayamsari Sub Districts #PDC Semarang","status":"ARCHIVED","created":"2018","lastUpdated":"2018","lastActive":"no","area":6.330304124274967,"changesets":235,"mappers":4,"roads":19.1323572715271,"buildings":6573,"edits":7030,"latest":"2018-06-14T09:04:51.000Z"},"geometry":{"type":"Point","coordinates":[110.446748476254,-6.97970291344408]}},{"type":"Feature","properties":{"id":4049,"title":"Missing Maps: Gunung Pati Sub Districts #PDC Semarang","status":"ARCHIVED","created":"2018","lastUpdated":"2018","lastActive":"no","area":60.18197606655719,"changesets":327,"mappers":18,"roads":173.74975489,"buildings":28455,"edits":29910,"latest":"2018-07-05T08:44:40.000Z"},"geometry":{"type":"Point","coordinates":[110.375307098226,-7.06488899513931]}},{"type":"Feature","properties":{"id":908,"title":"Karangetang Volcano Mitigation and Preparedness","status":"PUBLISHED","created":"2015","lastUpdated":"2017","lastActive":"no","area":126.20571151989787,"changesets":451,"mappers":33,"roads":27.2139922947724,"buildings":1850,"edits":2105,"latest":"2017-09-07T16:46:00.000Z"},"geometry":{"type":"Point","coordinates":[125.401234797259,2.73690010041481]}},{"type":"Feature","properties":{"id":203,"title":"North Jakarta Red Cross / Tulane Mapping","status":"ARCHIVED","created":"2013","lastUpdated":"2014","lastActive":"no","area":14.38620966520452,"changesets":63,"mappers":17,"roads":12.7283050193669,"buildings":441,"edits":723,"latest":"2018-07-24T03:54:44.000Z"},"geometry":{"type":"Point","coordinates":[106.822365678629,-6.12330978046749]}},{"type":"Feature","properties":{"id":3018,"title":"Missing Maps: Cipayung Sub Districs #PDC Jakarta","status":"ARCHIVED","created":"2017","lastUpdated":"2017","lastActive":"no","area":28.30154903074125,"changesets":275,"mappers":8,"roads":83.3339668041295,"buildings":74181,"edits":77136,"latest":"2017-08-30T03:44:15.000Z"},"geometry":{"type":"Point","coordinates":[106.903499743806,-6.32573709887508]}},{"type":"Feature","properties":{"id":160,"title":"Let's fix Makassar!","status":"PUBLISHED","created":"2013","lastUpdated":"2014","lastActive":"no","area":78.44017500255143,"changesets":377,"mappers":16,"roads":38.9660989391555,"buildings":117818,"edits":118922,"latest":"2018-08-30T03:16:45.000Z"},"geometry":{"type":"Point","coordinates":[119.430569416447,-5.15122741125968]}},{"type":"Feature","properties":{"id":425,"title":"Help map Mount Kelud area for better preparedness and response #MissingMaps","status":"ARCHIVED","created":"2014","lastUpdated":"2015","lastActive":"no","area":1607.2251657949053,"changesets":0,"mappers":0,"roads":0,"buildings":0,"edits":0,"latest":null},"geometry":{"type":"Point","coordinates":[112.299050602658,-7.91922822523192]}},{"type":"Feature","properties":{"id":2278,"title":"Missing Maps: Bogor","status":"ARCHIVED","created":"2016","lastUpdated":"2017","lastActive":"no","area":105.95848593815685,"changesets":1920,"mappers":154,"roads":20.9793348838668,"buildings":13870,"edits":14971,"latest":"2017-03-09T16:57:18.000Z"},"geometry":{"type":"Point","coordinates":[106.796593334081,-6.58050416012029]}},{"type":"Feature","properties":{"id":4057,"title":"Missing Maps: Semarang Utara Sub Districts #PDC Semarang","status":"PUBLISHED","created":"2018","lastUpdated":"2018","lastActive":"no","area":11.395719492311404,"changesets":219,"mappers":6,"roads":50.7096016227286,"buildings":3929,"edits":4597,"latest":"2018-06-25T10:56:51.000Z"},"geometry":{"type":"Point","coordinates":[110.417310280136,-6.95817966495625]}},{"type":"Feature","properties":{"id":3020,"title":"Missing Maps: Taman Sari Sub Districs #PDC Jakarta","status":"ARCHIVED","created":"2017","lastUpdated":"2017","lastActive":"no","area":4.54761799681661,"changesets":109,"mappers":3,"roads":19.8164513461639,"buildings":12721,"edits":14125,"latest":"2017-08-28T03:47:21.000Z"},"geometry":{"type":"Point","coordinates":[106.818291468151,-6.1480152119583]}},{"type":"Feature","properties":{"id":4055,"title":"Missing Maps: Semarang Timur Sub Districts #PDC Semarang","status":"ARCHIVED","created":"2018","lastUpdated":"2018","lastActive":"no","area":5.66841480349367,"changesets":216,"mappers":3,"roads":35.0623491422408,"buildings":6138,"edits":6856,"latest":"2018-06-25T06:09:27.000Z"},"geometry":{"type":"Point","coordinates":[110.437082643682,-6.97269696341064]}},{"type":"Feature","properties":{"id":3026,"title":"Missing Maps: Pesanggrahan Sub Districs #PDC Jakarta","status":"ARCHIVED","created":"2017","lastUpdated":"2017","lastActive":"no","area":13.487998414241458,"changesets":251,"mappers":7,"roads":56.5381680229144,"buildings":41668,"edits":48093,"latest":"2017-10-02T08:03:28.000Z"},"geometry":{"type":"Point","coordinates":[106.758795953061,-6.25061223746763]}},{"type":"Feature","properties":{"id":849,"title":"Indonesia OSM Community Mapathon - Pontianak, West Kalimantan","status":"PUBLISHED","created":"2015","lastUpdated":"2018","lastActive":"no","area":299.0802254542062,"changesets":12,"mappers":5,"roads":6.24263749586952,"buildings":35,"edits":45,"latest":"2016-04-06T11:41:08.000Z"},"geometry":{"type":"Point","coordinates":[109.338359354216,-0.060337807147577]}},{"type":"Feature","properties":{"id":3022,"title":"Missing Maps: Pademangan Sub Districs #PDC Jakarta","status":"ARCHIVED","created":"2017","lastUpdated":"2017","lastActive":"no","area":17.827098830040605,"changesets":346,"mappers":8,"roads":153.407026575275,"buildings":30590,"edits":39877,"latest":"2017-10-26T09:33:55.000Z"},"geometry":{"type":"Point","coordinates":[106.852281816423,-6.12226440717232]}},{"type":"Feature","properties":{"id":3024,"title":"Missing Maps: Pasar Minggu Sub Districs #PDC Jakarta","status":"ARCHIVED","created":"2017","lastUpdated":"2017","lastActive":"no","area":21.761532552185738,"changesets":1083,"mappers":5,"roads":165.606518286917,"buildings":59648,"edits":71407,"latest":"2017-11-06T03:43:48.000Z"},"geometry":{"type":"Point","coordinates":[106.829340706002,-6.29072437783467]}},{"type":"Feature","properties":{"id":2064,"title":"Missing Maps: Dukuh Pakis Sub Districts #PDC Surabaya","status":"ARCHIVED","created":"2016","lastUpdated":"2017","lastActive":"no","area":10.670068972482527,"changesets":330,"mappers":6,"roads":11.5774127841071,"buildings":16983,"edits":18105,"latest":"2017-03-13T02:51:56.000Z"},"geometry":{"type":"Point","coordinates":[112.699915104771,-7.29191298711053]}},{"type":"Feature","properties":{"id":750,"title":"Mount Sinabung USAID/OFDA & VDAP (New 2016 Imagery)","status":"PUBLISHED","created":"2014","lastUpdated":"2018","lastActive":"no","area":170.26266065591648,"changesets":0,"mappers":0,"roads":0,"buildings":0,"edits":0,"latest":null},"geometry":{"type":"Point","coordinates":[98.5020310030641,3.13610999922194]}},{"type":"Feature","properties":{"id":2068,"title":"Missing Maps: Tegalsari Sub Districts #PDC Surabaya","status":"ARCHIVED","created":"2016","lastUpdated":"2017","lastActive":"no","area":4.352705367877991,"changesets":811,"mappers":19,"roads":14.4948079330338,"buildings":19707,"edits":21119,"latest":"2017-02-23T06:43:22.000Z"},"geometry":{"type":"Point","coordinates":[112.736792302739,-7.27550770658726]}},{"type":"Feature","properties":{"id":2084,"title":"Missing Maps: Wonocolo Sub Districs #PDC Surabaya","status":"ARCHIVED","created":"2016","lastUpdated":"2017","lastActive":"no","area":6.440117053980919,"changesets":272,"mappers":4,"roads":0.830678729600805,"buildings":19566,"edits":19821,"latest":"2017-03-13T07:14:37.000Z"},"geometry":{"type":"Point","coordinates":[112.741662990172,-7.32231779624896]}},{"type":"Feature","properties":{"id":2076,"title":"Missing Maps: Tenggilis Mejoyo Sub Districts #PDC Surabaya","status":"ARCHIVED","created":"2016","lastUpdated":"2017","lastActive":"no","area":5.81606387737379,"changesets":231,"mappers":7,"roads":20.1319289322623,"buildings":17498,"edits":19337,"latest":"2017-02-24T07:01:54.000Z"},"geometry":{"type":"Point","coordinates":[112.754039565117,-7.32446207213862]}},{"type":"Feature","properties":{"id":2649,"title":"Missing Maps: Bogor, Indonesia #1","status":"PUBLISHED","created":"2017","lastUpdated":"2017","lastActive":"no","area":10.061609702608509,"changesets":2346,"mappers":184,"roads":18.0713252341816,"buildings":12765,"edits":14933,"latest":"2017-06-14T08:21:14.000Z"},"geometry":{"type":"Point","coordinates":[106.780059310318,-6.5726612113942]}},{"type":"Feature","properties":{"id":2082,"title":"Missing Maps: Karang Pilang Sub Districts #PDC Surabaya","status":"ARCHIVED","created":"2016","lastUpdated":"2017","lastActive":"no","area":9.73798164199747,"changesets":679,"mappers":8,"roads":25.8296648923577,"buildings":21870,"edits":24773,"latest":"2017-02-06T09:38:03.000Z"},"geometry":{"type":"Point","coordinates":[112.688446945796,-7.33517055124967]}},{"type":"Feature","properties":{"id":2086,"title":"Missing Maps: Tandes Sub Districs #PDC Surabaya","status":"ARCHIVED","created":"2016","lastUpdated":"2017","lastActive":"no","area":9.59192105411639,"changesets":282,"mappers":6,"roads":19.6289853943348,"buildings":19034,"edits":20892,"latest":"2017-03-13T03:23:29.000Z"},"geometry":{"type":"Point","coordinates":[112.671503697337,-7.25568243266654]}},{"type":"Feature","properties":{"id":2088,"title":"Missing Maps: Lakarsantri Sub Districs #PDC Surabaya","status":"ARCHIVED","created":"2016","lastUpdated":"2017","lastActive":"no","area":22.43183782528366,"changesets":160,"mappers":6,"roads":37.0228489101557,"buildings":21307,"edits":23405,"latest":"2017-03-14T05:40:53.000Z"},"geometry":{"type":"Point","coordinates":[112.655730102499,-7.31312967131522]}},{"type":"Feature","properties":{"id":1149,"title":"Exposure Mapping in Lembata District, NTT","status":"PUBLISHED","created":"2015","lastUpdated":"2017","lastActive":"no","area":1267.3428895525565,"changesets":560,"mappers":14,"roads":478.898477952848,"buildings":35341,"edits":38868,"latest":"2018-03-03T19:23:11.000Z"},"geometry":{"type":"Point","coordinates":[123.54234419197,-8.38028074282829]}},{"type":"Feature","properties":{"id":2080,"title":"Missing Maps: Sawahan Sub Districs #PDC Surabaya","status":"ARCHIVED","created":"2016","lastUpdated":"2017","lastActive":"no","area":7.263045329272611,"changesets":429,"mappers":10,"roads":77.4732011526463,"buildings":43367,"edits":46164,"latest":"2017-02-24T08:52:56.000Z"},"geometry":{"type":"Point","coordinates":[112.721454106416,-7.27305731862904]}},{"type":"Feature","properties":{"id":2575,"title":"OpenStreetMap Training for Develop Risk Assessment Document in Kudus","status":"ARCHIVED","created":"2017","lastUpdated":"2017","lastActive":"no","area":438.38116802269076,"changesets":0,"mappers":0,"roads":0,"buildings":0,"edits":0,"latest":null},"geometry":{"type":"Point","coordinates":[110.869721839865,-6.78906806522312]}},{"type":"Feature","properties":{"id":876,"title":"Data Preparedness Activity in Kabupaten Trenggalek, East Java, Indonesia","status":"PUBLISHED","created":"2015","lastUpdated":"2015","lastActive":"no","area":1255.0878808500752,"changesets":7,"mappers":2,"roads":2.21069754399156,"buildings":33,"edits":43,"latest":"2017-10-19T08:57:19.000Z"},"geometry":{"type":"Point","coordinates":[111.626325207439,-8.1619464284179]}},{"type":"Feature","properties":{"id":563,"title":"Training Institut Teknologi Medan","status":"PUBLISHED","created":"2014","lastUpdated":"2017","lastActive":"no","area":112.12145232801778,"changesets":0,"mappers":0,"roads":0,"buildings":0,"edits":0,"latest":null},"geometry":{"type":"Point","coordinates":[98.6762461832554,3.57004939198182]}},{"type":"Feature","properties":{"id":577,"title":"Indonesian Red Cross Flood Risk Mapping (Bidara Cina)","status":"PUBLISHED","created":"2014","lastUpdated":"2014","lastActive":"no","area":3.31536323642304,"changesets":0,"mappers":0,"roads":0,"buildings":0,"edits":0,"latest":null},"geometry":{"type":"Point","coordinates":[106.870534807231,-6.23547240761778]}},{"type":"Feature","properties":{"id":875,"title":"---","status":"ARCHIVED","created":"2015","lastUpdated":"2015","lastActive":"no","area":1673.155615732146,"changesets":0,"mappers":0,"roads":0,"buildings":0,"edits":0,"latest":null},"geometry":{"type":"Point","coordinates":[114.052436529188,-7.80132615385991]}},{"type":"Feature","properties":{"id":95,"title":"Help Digitize Tasikmalaya District for Landslide Assessment ","status":"PUBLISHED","created":"2012","lastUpdated":"2017","lastActive":"no","area":685.6501175075578,"changesets":46,"mappers":1,"roads":436.767067173753,"buildings":6912,"edits":7609,"latest":"2018-01-16T05:09:12.000Z"},"geometry":{"type":"Point","coordinates":[108.024904083238,-7.45993579925139]}},{"type":"Feature","properties":{"id":1011,"title":"Aktivitas Pengumpulan Data di DAS Jeneberang","status":"PUBLISHED","created":"2015","lastUpdated":"2015","lastActive":"no","area":2353.106322075065,"changesets":83,"mappers":3,"roads":18.9318585168149,"buildings":1318,"edits":2128,"latest":"2015-08-12T05:02:39.000Z"},"geometry":{"type":"Point","coordinates":[119.730948333476,-5.2697108809525]}},{"type":"Feature","properties":{"id":3638,"title":"Mont Agung (Bali, Indonesia)","status":"ARCHIVED","created":"2017","lastUpdated":"2017","lastActive":"no","area":1441.56284076509,"changesets":0,"mappers":0,"roads":0,"buildings":0,"edits":0,"latest":null},"geometry":{"type":"Point","coordinates":[115.468245563688,-8.41743231363821]}},{"type":"Feature","properties":{"id":1013,"title":"Aktivitas Pengumpulan Data di Ancaman Gempa Bumi","status":"PUBLISHED","created":"2015","lastUpdated":"2018","lastActive":"no","area":12064.797843912818,"changesets":32,"mappers":3,"roads":44.8710683798205,"buildings":826,"edits":1174,"latest":"2018-10-01T16:08:41.000Z"},"geometry":{"type":"Point","coordinates":[120.769267743527,-2.5142859621583]}},{"type":"Feature","properties":{"id":295,"title":"Aceh Project Area 1","status":"PUBLISHED","created":"2013","lastUpdated":"2014","lastActive":"no","area":9.138886115765386,"changesets":762,"mappers":23,"roads":871.082861117098,"buildings":451,"edits":9857,"latest":"2018-02-14T03:27:17.000Z"},"geometry":{"type":"Point","coordinates":[96.7522140579729,4.72098543699988]}},{"type":"Feature","properties":{"id":561,"title":"Bukittinggi","status":"PUBLISHED","created":"2014","lastUpdated":"2018","lastActive":"no","area":22.79253327213511,"changesets":0,"mappers":0,"roads":0,"buildings":0,"edits":0,"latest":null},"geometry":{"type":"Point","coordinates":[100.372733667836,-0.298313971675028]}},{"type":"Feature","properties":{"id":576,"title":"Indonesian Red Cross Flood Risk Mapping (Kedoya Utara & Kedoya Selatan)","status":"PUBLISHED","created":"2014","lastUpdated":"2017","lastActive":"no","area":9.572161893358784,"changesets":0,"mappers":0,"roads":0,"buildings":0,"edits":0,"latest":null},"geometry":{"type":"Point","coordinates":[106.760472991246,-6.17296332769724]}},{"type":"Feature","properties":{"id":1032,"title":"Mapping Activity in Nagekeo District, NTT","status":"PUBLISHED","created":"2015","lastUpdated":"2015","lastActive":"no","area":1450.2407534924623,"changesets":0,"mappers":0,"roads":0,"buildings":0,"edits":0,"latest":null},"geometry":{"type":"Point","coordinates":[121.269705764205,-8.68766778892447]}},{"type":"Feature","properties":{"id":3031,"title":"Missing Maps: Grogol Petamburan Sub Districs #PDC Jakarta","status":"ARCHIVED","created":"2017","lastUpdated":"2017","lastActive":"no","area":10.805656337791167,"changesets":218,"mappers":5,"roads":3.98900637661907,"buildings":47671,"edits":49629,"latest":"2017-10-03T12:21:38.000Z"},"geometry":{"type":"Point","coordinates":[106.786483931117,-6.16359030555416]}},{"type":"Feature","properties":{"id":3025,"title":"Missing Maps: Cilandak Sub Districs #PDC Jakarta","status":"ARCHIVED","created":"2017","lastUpdated":"2017","lastActive":"no","area":17.826440731180615,"changesets":183,"mappers":4,"roads":28.6590632722901,"buildings":26772,"edits":28477,"latest":"2017-09-18T02:21:25.000Z"},"geometry":{"type":"Point","coordinates":[106.793307284061,-6.29318797958196]}},{"type":"Feature","properties":{"id":1378,"title":"Sentinel Asia Mini-Project: Tarogong, Garut, Indonesia","status":"PUBLISHED","created":"2015","lastUpdated":"2018","lastActive":"no","area":0.6008014497431968,"changesets":43,"mappers":11,"roads":26.8721401721233,"buildings":617,"edits":814,"latest":"2018-10-03T17:05:19.000Z"},"geometry":{"type":"Point","coordinates":[107.877149647755,-7.19397702510357]}}],"totalArea":9241902.80276979,"Democratic Republic of the Congo":[{"type":"Feature","properties":{"id":4839,"title":"Missing Maps: Sleeping Sickness in Maniema DR Congo - Lusangi","status":"PUBLISHED","created":"2018","lastUpdated":"2018","lastActive":"no","area":4259.872230869905,"changesets":250,"mappers":47,"roads":201.985015827129,"buildings":2409,"edits":2657,"latest":"2018-10-18T14:28:23.000Z"},"geometry":{"type":"Point","coordinates":[27.2319896032437,-4.67542450570248]}},{"type":"Feature","properties":{"id":3242,"title":"Missing Maps: Map South Kivu, Democratic Republic of Congo (Project 20: Roads and residential areas)","status":"ARCHIVED","created":"2017","lastUpdated":"2018","lastActive":"no","area":625.3767776416804,"changesets":390,"mappers":36,"roads":492.579665245401,"buildings":186,"edits":3686,"latest":"2017-07-03T20:44:31.000Z"},"geometry":{"type":"Point","coordinates":[29.1536400115305,-4.34563892858167]}},{"type":"Feature","properties":{"id":2992,"title":"2017 Ebola outbreak in Bas-Uele, DRC (Proj. 4)","status":"ARCHIVED","created":"2017","lastUpdated":"2017","lastActive":"no","area":17402.149339450465,"changesets":744,"mappers":92,"roads":916.712050249421,"buildings":5058,"edits":8242,"latest":"2017-08-15T18:25:32.000Z"},"geometry":{"type":"Point","coordinates":[24.0827373121433,4.12801935693391]}},{"type":"Feature","properties":{"id":457,"title":"RDC Lubumbashi / Kamalondo    HOT - MSF UK","status":"ARCHIVED","created":"2014","lastUpdated":"2014","lastActive":"no","area":5.2378437884344216,"changesets":0,"mappers":0,"roads":0,"buildings":0,"edits":0,"latest":null},"geometry":{"type":"Point","coordinates":[27.48186925895,-11.6793378739925]}},{"type":"Feature","properties":{"id":727,"title":"Missing Maps: Baraka, Democratic Republic of Congo","status":"ARCHIVED","created":"2014","lastUpdated":"2016","lastActive":"no","area":41.07593877885463,"changesets":0,"mappers":0,"roads":0,"buildings":0,"edits":0,"latest":null},"geometry":{"type":"Point","coordinates":[29.082192119931,-4.10920779596536]}},{"type":"Feature","properties":{"id":3048,"title":"2017 Ebola outbreak in Bas-Uele, Likati, DRC (Proj. 9)","status":"ARCHIVED","created":"2017","lastUpdated":"2017","lastActive":"no","area":8.007459804019673,"changesets":521,"mappers":50,"roads":17.1849690287323,"buildings":15024,"edits":16818,"latest":"2017-06-04T11:23:36.000Z"},"geometry":{"type":"Point","coordinates":[23.8996098766323,3.36760178044684]}},{"type":"Feature","properties":{"id":3288,"title":"Missing Maps: Sleeping Sickness in Maniema DR Congo - Kibombo","status":"PUBLISHED","created":"2017","lastUpdated":"2018","lastActive":"no","area":12606.952295364996,"changesets":524,"mappers":96,"roads":1390.07622955357,"buildings":1883,"edits":5082,"latest":"2018-06-10T07:15:38.000Z"},"geometry":{"type":"Point","coordinates":[25.6596374729067,-4.0738147073684]}},{"type":"Feature","properties":{"id":640,"title":"DRC Ebola 2014, Bokote-Waka, quarantine area","status":"ARCHIVED","created":"2014","lastUpdated":"2014","lastActive":"no","area":7149.895515909358,"changesets":0,"mappers":0,"roads":0,"buildings":0,"edits":0,"latest":null},"geometry":{"type":"Point","coordinates":[20.0812472751974,-0.649269946818611]}},{"type":"Feature","properties":{"id":1192,"title":"Missing Maps: Map South Kivu, Democratic Republic of Congo  (Task 8: Roads and residential areas )","status":"ARCHIVED","created":"2015","lastUpdated":"2018","lastActive":"no","area":2775.205015485574,"changesets":2030,"mappers":165,"roads":3877.27800231517,"buildings":6336,"edits":24302,"latest":"2016-06-08T17:55:11.000Z"},"geometry":{"type":"Point","coordinates":[28.9181263499966,-3.84297246711902]}},{"type":"Feature","properties":{"id":468,"title":"Kalima, DRC -- Updated Imagery, 07 September 2013","status":"PUBLISHED","created":"2014","lastUpdated":"2015","lastActive":"no","area":331.2871082022658,"changesets":0,"mappers":0,"roads":0,"buildings":0,"edits":0,"latest":null},"geometry":{"type":"Point","coordinates":[26.5971146171187,-2.55719376204306]}},{"type":"Feature","properties":{"id":3420,"title":"Missing Maps: South Kivu, Democratic Republic of Congo (Project 26: points of interest)","status":"ARCHIVED","created":"2017","lastUpdated":"2018","lastActive":"no","area":23.957300445645476,"changesets":312,"mappers":19,"roads":100.972522896295,"buildings":239,"edits":1438,"latest":"2018-06-10T20:04:58.000Z"},"geometry":{"type":"Point","coordinates":[29.0542246290044,-4.29611076489607]}},{"type":"Feature","properties":{"id":438,"title":"#mapcongo Likasi","status":"ARCHIVED","created":"2014","lastUpdated":"2015","lastActive":"no","area":47.262280605579654,"changesets":0,"mappers":0,"roads":0,"buildings":0,"edits":0,"latest":null},"geometry":{"type":"Point","coordinates":[26.7419924120214,-10.9844561198656]}},{"type":"Feature","properties":{"id":427,"title":"#mapcongo Dubie","status":"ARCHIVED","created":"2014","lastUpdated":"2016","lastActive":"no","area":194.44330860236522,"changesets":0,"mappers":0,"roads":0,"buildings":0,"edits":0,"latest":null},"geometry":{"type":"Point","coordinates":[28.5357316319378,-8.58363427722878]}},{"type":"Feature","properties":{"id":430,"title":"#mapcongo Mitwaba","status":"ARCHIVED","created":"2014","lastUpdated":"2014","lastActive":"no","area":28.663114545467376,"changesets":93,"mappers":1,"roads":69.7188449758729,"buildings":8131,"edits":9219,"latest":"2017-08-27T10:50:08.000Z"},"geometry":{"type":"Point","coordinates":[27.3460066513353,-8.63349514045926]}},{"type":"Feature","properties":{"id":4781,"title":"2018 Ebola #55, North west of Ingende, DRC","status":"ARCHIVED","created":"2018","lastUpdated":"2018","lastActive":"no","area":5.915679316840861,"changesets":253,"mappers":26,"roads":22.3276340907312,"buildings":1443,"edits":1576,"latest":"2018-06-23T22:43:24.000Z"},"geometry":{"type":"Point","coordinates":[18.7354590421039,-0.175000564190966]}},{"type":"Feature","properties":{"id":4947,"title":"2018 Ebola, Mangina, Nord-Kivu, DRC","status":"ARCHIVED","created":"2018","lastUpdated":"2018","lastActive":"no","area":177.96556480899602,"changesets":1199,"mappers":99,"roads":292.212861506913,"buildings":20046,"edits":21041,"latest":"2018-08-10T13:45:32.000Z"},"geometry":{"type":"Point","coordinates":[29.3091212818356,0.633273460405425]}},{"type":"Feature","properties":{"id":116,"title":"RD-Congo,  Nord-Kivu, Nyiragongo Volcano","status":"ARCHIVED","created":"2012","lastUpdated":"2014","lastActive":"no","area":110.30082408143865,"changesets":720,"mappers":23,"roads":1238.86580368434,"buildings":29900,"edits":33335,"latest":"2018-07-25T10:08:04.000Z"},"geometry":{"type":"Point","coordinates":[29.2279719455196,-1.53860040943148]}},{"type":"Feature","properties":{"id":4031,"title":"Missing Maps: South Kivu, Democratic Republic of Congo (Project 28: health infrastructure)","status":"ARCHIVED","created":"2018","lastUpdated":"2018","lastActive":"no","area":1076.2855731489042,"changesets":0,"mappers":0,"roads":0,"buildings":0,"edits":0,"latest":null},"geometry":{"type":"Point","coordinates":[29.0239485884282,-4.30420426948689]}},{"type":"Feature","properties":{"id":4628,"title":"2018 Ebola #45, Kiri and surroundings, DRC","status":"ARCHIVED","created":"2018","lastUpdated":"2018","lastActive":"no","area":7.1773431805053765,"changesets":576,"mappers":58,"roads":20.5766456800745,"buildings":10754,"edits":10962,"latest":"2018-06-03T17:45:50.000Z"},"geometry":{"type":"Point","coordinates":[19.0334045619371,-1.41162867776431]}},{"type":"Feature","properties":{"id":1932,"title":"Missing Maps: Masisi territory, North Kivu, DRC (settlements part 2)","status":"PUBLISHED","created":"2016","lastUpdated":"2018","lastActive":"no","area":491.5669900487968,"changesets":339,"mappers":42,"roads":56.5520780344102,"buildings":136,"edits":328,"latest":"2017-05-04T23:38:07.000Z"},"geometry":{"type":"Point","coordinates":[28.9415041201027,-1.3943594124387]}},{"type":"Feature","properties":{"id":4691,"title":"2018 Ebola #51, road Mbandaka - Bikoro 2, DRC","status":"ARCHIVED","created":"2018","lastUpdated":"2018","lastActive":"no","area":7.5336171120091615,"changesets":472,"mappers":55,"roads":2.92483255679265,"buildings":7034,"edits":7130,"latest":"2018-10-17T13:58:38.000Z"},"geometry":{"type":"Point","coordinates":[18.2136720117279,-0.108981204760534]}},{"type":"Feature","properties":{"id":102,"title":"Goma, Nord Kivu, RD-Congo ","status":"ARCHIVED","created":"2012","lastUpdated":"2018","lastActive":"no","area":48.1063662166364,"changesets":588,"mappers":46,"roads":818.544246194176,"buildings":135740,"edits":142030,"latest":"2018-05-12T11:12:56.000Z"},"geometry":{"type":"Point","coordinates":[29.1699425723971,-1.61210170103048]}},{"type":"Feature","properties":{"id":4630,"title":"2018 Ebola #47, Lac Tumba north, DRC","status":"ARCHIVED","created":"2018","lastUpdated":"2018","lastActive":"no","area":4.014659879890691,"changesets":185,"mappers":34,"roads":0.490332572452915,"buildings":2795,"edits":2833,"latest":"2018-05-31T19:00:54.000Z"},"geometry":{"type":"Point","coordinates":[18.1551071622072,-0.586621599372581]}},{"type":"Feature","properties":{"id":2666,"title":"Violences in Kasai: Kananga - Tshimbulu, Dibaya, Kasai, DRC","status":"ARCHIVED","created":"2017","lastUpdated":"2017","lastActive":"no","area":10869.84671501634,"changesets":886,"mappers":77,"roads":1769.00961638452,"buildings":1495,"edits":5377,"latest":"2017-05-02T08:09:22.000Z"},"geometry":{"type":"Point","coordinates":[22.6708583987284,-6.37771129972566]}},{"type":"Feature","properties":{"id":3076,"title":"2017 Ebola outbreak in Bas-Uele, DRC (Proj. 13)","status":"ARCHIVED","created":"2017","lastUpdated":"2017","lastActive":"no","area":433.67500206955316,"changesets":29,"mappers":11,"roads":15.8412643791145,"buildings":533,"edits":657,"latest":"2017-05-25T16:23:07.000Z"},"geometry":{"type":"Point","coordinates":[23.1433849628978,3.82302171068539]}},{"type":"Feature","properties":{"id":3417,"title":"Missing Maps: South Kivu, Democratic Republic of Congo (Project 25: villages)","status":"ARCHIVED","created":"2017","lastUpdated":"2018","lastActive":"no","area":1558.964293104109,"changesets":140,"mappers":11,"roads":14.5120438174085,"buildings":850,"edits":1173,"latest":"2018-01-09T14:33:30.000Z"},"geometry":{"type":"Point","coordinates":[28.9940055821318,-4.27463922772565]}},{"type":"Feature","properties":{"id":636,"title":"","status":"ARCHIVED","created":"2014","lastUpdated":"2014","lastActive":"no","area":4.058204381237573,"changesets":0,"mappers":0,"roads":0,"buildings":0,"edits":0,"latest":null},"geometry":{"type":"Point","coordinates":[15.278901733535,-4.30981536370047]}},{"type":"Feature","properties":{"id":126,"title":"RD Congo, Sud-Kivu, RN5 Bukavu - Katagota","status":"ARCHIVED","created":"2012","lastUpdated":"2018","lastActive":"no","area":160.4123067941322,"changesets":398,"mappers":23,"roads":135.415628181299,"buildings":15765,"edits":18459,"latest":"2017-10-03T04:27:34.000Z"},"geometry":{"type":"Point","coordinates":[28.9082335348516,-2.66959011486519]}},{"type":"Feature","properties":{"id":456,"title":"RDC Lubumbashi / Kasumgami    HOT - MSF UK","status":"ARCHIVED","created":"2014","lastUpdated":"2014","lastActive":"no","area":22.623116432361687,"changesets":0,"mappers":0,"roads":0,"buildings":0,"edits":0,"latest":null},"geometry":{"type":"Point","coordinates":[27.4913852189659,-11.739580635984]}},{"type":"Feature","properties":{"id":458,"title":"DRC, Punia -- Updated Imagery, 26 September 2013","status":"PUBLISHED","created":"2014","lastUpdated":"2017","lastActive":"no","area":122.47309125521444,"changesets":0,"mappers":0,"roads":0,"buildings":0,"edits":0,"latest":null},"geometry":{"type":"Point","coordinates":[26.4240362216404,-1.48026989159153]}},{"type":"Feature","properties":{"id":3079,"title":"2017 Ebola outbreak in Bas-Uele, DRC (Proj. 14)","status":"ARCHIVED","created":"2017","lastUpdated":"2017","lastActive":"no","area":532.2677220672618,"changesets":568,"mappers":55,"roads":25.1166405589723,"buildings":4739,"edits":5149,"latest":"2017-06-07T00:59:36.000Z"},"geometry":{"type":"Point","coordinates":[23.9294049740669,3.35447265051344]}},{"type":"Feature","properties":{"id":312,"title":"Detailed mapping of Kalemie/DRC ","status":"ARCHIVED","created":"2013","lastUpdated":"2014","lastActive":"no","area":24.77981270236113,"changesets":594,"mappers":23,"roads":1208.62446233935,"buildings":188,"edits":3419,"latest":"2018-04-03T06:50:28.000Z"},"geometry":{"type":"Point","coordinates":[29.1967989036532,-5.90641097177879]}},{"type":"Feature","properties":{"id":4588,"title":"2018 Ebola #31, East of Tumba-Ledima, DRC","status":"ARCHIVED","created":"2018","lastUpdated":"2018","lastActive":"no","area":1790.1507737559753,"changesets":177,"mappers":26,"roads":189.47609214711,"buildings":1302,"edits":1771,"latest":"2018-05-25T19:26:24.000Z"},"geometry":{"type":"Point","coordinates":[17.7012075612875,-1.42592133564583]}},{"type":"Feature","properties":{"id":4606,"title":"2018 Ebola #41, South of Bikoro, DRC","status":"ARCHIVED","created":"2018","lastUpdated":"2018","lastActive":"no","area":4.6153643747142725,"changesets":267,"mappers":27,"roads":11.423787109213,"buildings":3630,"edits":3663,"latest":"2018-05-28T17:01:32.000Z"},"geometry":{"type":"Point","coordinates":[18.2040257749543,-0.962228937091529]}},{"type":"Feature","properties":{"id":3016,"title":"2017 Ebola outbreak in Bas-Uele, DRC (Proj. 6)","status":"ARCHIVED","created":"2017","lastUpdated":"2017","lastActive":"no","area":788.576120297372,"changesets":123,"mappers":31,"roads":7.61377784308942,"buildings":1002,"edits":1206,"latest":"2017-05-22T16:28:23.000Z"},"geometry":{"type":"Point","coordinates":[23.6268034225243,3.33827879029528]}},{"type":"Feature","properties":{"id":4632,"title":"2018 Ebola #49, Lac Tumba south 2, DRC","status":"ARCHIVED","created":"2018","lastUpdated":"2018","lastActive":"no","area":6.274393497101724,"changesets":207,"mappers":26,"roads":33.1151708682297,"buildings":3016,"edits":3107,"latest":"2018-06-01T19:45:31.000Z"},"geometry":{"type":"Point","coordinates":[18.1316855227947,-1.26628631083629]}},{"type":"Feature","properties":{"id":2843,"title":"Okapi Wildlife Reserve, DRC","status":"PUBLISHED","created":"2017","lastUpdated":"2017","lastActive":"no","area":14067.242482693433,"changesets":509,"mappers":42,"roads":8.77740062849276,"buildings":7950,"edits":8159,"latest":"2017-12-24T07:02:41.000Z"},"geometry":{"type":"Point","coordinates":[28.4903431078823,1.67662691518609]}},{"type":"Feature","properties":{"id":4625,"title":"2018 Ebola #43, further East of Ingende, DRC","status":"ARCHIVED","created":"2018","lastUpdated":"2018","lastActive":"no","area":1418.4591577101548,"changesets":75,"mappers":12,"roads":92.0109647507261,"buildings":60,"edits":194,"latest":"2018-05-30T18:54:47.000Z"},"geometry":{"type":"Point","coordinates":[19.2487016260006,-0.58708638924466]}},{"type":"Feature","properties":{"id":629,"title":"Ebola Outbreak, Boende area, Democratic Republic of Congo","status":"ARCHIVED","created":"2014","lastUpdated":"2016","lastActive":"no","area":1036.60075271983,"changesets":0,"mappers":0,"roads":0,"buildings":0,"edits":0,"latest":null},"geometry":{"type":"Point","coordinates":[20.700628379291,-0.565184903410807]}},{"type":"Feature","properties":{"id":1365,"title":"Missing Maps: Lubumbashi (north-west), Democratic Republic of Congo (DRC)","status":"ARCHIVED","created":"2015","lastUpdated":"2016","lastActive":"no","area":78.86836045593579,"changesets":1347,"mappers":67,"roads":128.247169291276,"buildings":18428,"edits":20979,"latest":"2016-01-03T01:49:31.000Z"},"geometry":{"type":"Point","coordinates":[27.4138096602512,-11.6173389134413]}},{"type":"Feature","properties":{"id":5180,"title":"2018 Ebola, South of Beni, Nord-Kivu, DRC","status":"ARCHIVED","created":"2018","lastUpdated":"2018","lastActive":"no","area":192.118936407539,"changesets":702,"mappers":81,"roads":307.095321516918,"buildings":15876,"edits":17384,"latest":"2018-09-15T12:38:09.000Z"},"geometry":{"type":"Point","coordinates":[29.4194734211863,0.409250170256753]}},{"type":"Feature","properties":{"id":5307,"title":"DRC/Bundibugyo District Border Mapping","status":"PUBLISHED","created":"2018","lastUpdated":"2018","lastActive":"no","area":334.59591531698646,"changesets":440,"mappers":61,"roads":643.976158851988,"buildings":2951,"edits":5293,"latest":"2018-10-22T22:30:49.000Z"},"geometry":{"type":"Point","coordinates":[29.9023571310443,0.650051053822993]}},{"type":"Feature","properties":{"id":3060,"title":"2017 Ebola outbreak in Bas-Uele, DRC (Proj. 10)","status":"ARCHIVED","created":"2017","lastUpdated":"2017","lastActive":"no","area":207.98118312808722,"changesets":167,"mappers":26,"roads":4.11887356188306,"buildings":2291,"edits":2390,"latest":"2017-05-23T22:50:17.000Z"},"geometry":{"type":"Point","coordinates":[23.621929070742,3.33356556034157]}},{"type":"Feature","properties":{"id":436,"title":"#mapcongo Moba","status":"ARCHIVED","created":"2014","lastUpdated":"2014","lastActive":"no","area":10.314058587732339,"changesets":0,"mappers":0,"roads":0,"buildings":0,"edits":0,"latest":null},"geometry":{"type":"Point","coordinates":[29.7721267057914,-7.03753996868889]}},{"type":"Feature","properties":{"id":4582,"title":"2018 Ebola #29, South of Ingende, DRC","status":"ARCHIVED","created":"2018","lastUpdated":"2018","lastActive":"no","area":1357.9376598516872,"changesets":91,"mappers":16,"roads":34.3853647285076,"buildings":61,"edits":156,"latest":"2018-05-24T23:43:47.000Z"},"geometry":{"type":"Point","coordinates":[19.0027023819558,-0.818823338486154]}},{"type":"Feature","properties":{"id":4599,"title":"2018 Ebola #39, East of Lake Mai-Ndombe, DRC","status":"ARCHIVED","created":"2018","lastUpdated":"2018","lastActive":"no","area":1888.86529871666,"changesets":87,"mappers":27,"roads":43.602716522404,"buildings":222,"edits":332,"latest":"2018-05-30T00:08:37.000Z"},"geometry":{"type":"Point","coordinates":[18.7762399811196,-2.02677861446578]}},{"type":"Feature","properties":{"id":4553,"title":"2018 Ebola #15, Irebu surroundings, DRC","status":"ARCHIVED","created":"2018","lastUpdated":"2018","lastActive":"no","area":1508.2097761068894,"changesets":243,"mappers":28,"roads":47.982132021961,"buildings":3623,"edits":3936,"latest":"2018-05-21T07:51:29.000Z"},"geometry":{"type":"Point","coordinates":[17.9470490447885,-0.49688022790963]}},{"type":"Feature","properties":{"id":4592,"title":"2018 Ebola #35, West of Inongo, DRC","status":"ARCHIVED","created":"2018","lastUpdated":"2018","lastActive":"no","area":2019.854371211346,"changesets":277,"mappers":40,"roads":416.12945113831,"buildings":1231,"edits":2058,"latest":"2018-05-29T15:41:30.000Z"},"geometry":{"type":"Point","coordinates":[18.0737045052463,-1.96909439712331]}},{"type":"Feature","properties":{"id":2986,"title":"ARCHIVED! Missing Maps: Haut Uele, Democratic Republic of Congo - ebola preparedness","status":"ARCHIVED","created":"2017","lastUpdated":"2017","lastActive":"no","area":543.4193033460192,"changesets":2,"mappers":1,"roads":1.27742131541554,"buildings":0,"edits":6,"latest":"2017-05-12T16:58:00.000Z"},"geometry":{"type":"Point","coordinates":[23.440805246401,3.31090313639017]}},{"type":"Feature","properties":{"id":1254,"title":"Missing Maps: Lubumbashi (south), Democratic Republic of Congo (DRC)","status":"ARCHIVED","created":"2015","lastUpdated":"2016","lastActive":"no","area":26.977163396060966,"changesets":4547,"mappers":357,"roads":23.3904344576414,"buildings":48304,"edits":49761,"latest":"2016-04-02T18:34:13.000Z"},"geometry":{"type":"Point","coordinates":[27.4812473472868,-11.7052159583224]}},{"type":"Feature","properties":{"id":1900,"title":"Missing Maps: Map South Kivu, Democratic Republic of Congo (Project 19: Roads and residential areas)","status":"PUBLISHED","created":"2016","lastUpdated":"2018","lastActive":"no","area":818.0040497957068,"changesets":1345,"mappers":87,"roads":1533.52674509692,"buildings":3158,"edits":11151,"latest":"2018-10-10T16:39:27.000Z"},"geometry":{"type":"Point","coordinates":[28.9620428096793,-2.88909554209645]}},{"type":"Feature","properties":{"id":649,"title":"DRC Ebola 2014, Boende Moke and surroundings, mapping with WorldView-1 imagery","status":"ARCHIVED","created":"2014","lastUpdated":"2014","lastActive":"no","area":2847.889893071291,"changesets":0,"mappers":0,"roads":0,"buildings":0,"edits":0,"latest":null},"geometry":{"type":"Point","coordinates":[20.682855042536,-0.506325382689623]}},{"type":"Feature","properties":{"id":3009,"title":"2017 Ebola outbreak in Bas-Uele, DRC - Likati town (proj. 5)","status":"ARCHIVED","created":"2017","lastUpdated":"2017","lastActive":"no","area":7.874478535442227,"changesets":462,"mappers":93,"roads":35.9356756736877,"buildings":8097,"edits":9021,"latest":"2017-06-05T12:09:09.000Z"},"geometry":{"type":"Point","coordinates":[23.8987274399544,3.36735424381593]}},{"type":"Feature","properties":{"id":3057,"title":"2017 Ebola outbreak in Bas-Uele, DRC (Proj. 11)","status":"ARCHIVED","created":"2017","lastUpdated":"2017","lastActive":"no","area":334.19917732247563,"changesets":0,"mappers":0,"roads":0,"buildings":0,"edits":0,"latest":null},"geometry":{"type":"Point","coordinates":[23.7870449758018,3.4046765175966]}},{"type":"Feature","properties":{"id":4434,"title":"Missing Maps: Sleeping Sickness in Maniema DR Congo - Tunda","status":"PUBLISHED","created":"2018","lastUpdated":"2018","lastActive":"no","area":9995.56095616409,"changesets":266,"mappers":77,"roads":664.849059721887,"buildings":860,"edits":1639,"latest":"2018-06-17T05:24:01.000Z"},"geometry":{"type":"Point","coordinates":[25.1359241582198,-4.06649327064681]}},{"type":"Feature","properties":{"id":4790,"title":"Missing Maps: Ngalula & Makungu in South Kivu, Democratic Republic of Congo (Project 34)","status":"ARCHIVED","created":"2018","lastUpdated":"2018","lastActive":"no","area":2.065613747670676,"changesets":98,"mappers":8,"roads":50.0181359850683,"buildings":2069,"edits":2205,"latest":"2018-07-15T22:04:40.000Z"},"geometry":{"type":"Point","coordinates":[28.8201592038596,-4.9696115189931]}},{"type":"Feature","properties":{"id":2990,"title":"2017 Ebola outbreak in Bas-Uele, DRC (Proj. 2)","status":"ARCHIVED","created":"2017","lastUpdated":"2017","lastActive":"no","area":23639.833323390416,"changesets":1220,"mappers":112,"roads":640.616571053348,"buildings":28874,"edits":33014,"latest":"2017-10-25T19:29:20.000Z"},"geometry":{"type":"Point","coordinates":[24.6520248253902,3.0128197253525]}},{"type":"Feature","properties":{"id":4562,"title":"2018 Ebola #21, Lukolela surroundings, DRC","status":"ARCHIVED","created":"2018","lastUpdated":"2018","lastActive":"no","area":1774.3359590162975,"changesets":352,"mappers":40,"roads":284.252194018464,"buildings":3924,"edits":4670,"latest":"2018-09-02T19:20:09.000Z"},"geometry":{"type":"Point","coordinates":[17.4495001896384,-1.07426596043063]}},{"type":"Feature","properties":{"id":4590,"title":"2018 Ebola #33, South West of Lukolela, DRC","status":"ARCHIVED","created":"2018","lastUpdated":"2018","lastActive":"no","area":1887.2374631251794,"changesets":315,"mappers":47,"roads":137.052429695369,"buildings":793,"edits":1282,"latest":"2018-05-28T13:04:03.000Z"},"geometry":{"type":"Point","coordinates":[16.9345736390793,-1.45562416591498]}},{"type":"Feature","properties":{"id":4566,"title":"2018 Ebola #23, South of Makanza, DRC","status":"ARCHIVED","created":"2018","lastUpdated":"2018","lastActive":"no","area":1973.366698202735,"changesets":227,"mappers":37,"roads":20.9704264589709,"buildings":1218,"edits":1328,"latest":"2018-05-27T13:20:22.000Z"},"geometry":{"type":"Point","coordinates":[18.8819232020023,1.31528014817499]}},{"type":"Feature","properties":{"id":435,"title":"#mapcongo Pweto","status":"ARCHIVED","created":"2014","lastUpdated":"2014","lastActive":"no","area":19.947965019677746,"changesets":0,"mappers":0,"roads":0,"buildings":0,"edits":0,"latest":null},"geometry":{"type":"Point","coordinates":[28.9090807595512,-8.4545103664185]}},{"type":"Feature","properties":{"id":3046,"title":"2017 Ebola outbreak in Bas-Uele, DRC (Proj. 8)","status":"ARCHIVED","created":"2017","lastUpdated":"2017","lastActive":"no","area":1299.7464417311576,"changesets":209,"mappers":48,"roads":85.8290628053734,"buildings":2019,"edits":2772,"latest":"2017-06-07T15:13:42.000Z"},"geometry":{"type":"Point","coordinates":[23.9204543192996,3.30538360464232]}},{"type":"Feature","properties":{"id":1926,"title":"Missing Maps: Masisi territory, North Kivu, DRC (settlements part 1)","status":"ARCHIVED","created":"2016","lastUpdated":"2016","lastActive":"no","area":578.7150994317658,"changesets":980,"mappers":59,"roads":296.193723005036,"buildings":426,"edits":1469,"latest":"2016-06-08T08:24:18.000Z"},"geometry":{"type":"Point","coordinates":[28.8196874904399,-1.40752476578654]}},{"type":"Feature","properties":{"id":4597,"title":"2018 Ebola #37, East Kiri, DRC","status":"ARCHIVED","created":"2018","lastUpdated":"2018","lastActive":"no","area":1550.3223576345101,"changesets":130,"mappers":15,"roads":51.1173992027027,"buildings":725,"edits":916,"latest":"2018-05-28T15:09:52.000Z"},"geometry":{"type":"Point","coordinates":[19.2513846681451,-1.59114234491489]}},{"type":"Feature","properties":{"id":4524,"title":"2018 Ebola #7, Mbandaka (S Av. Revolution), DRC","status":"ARCHIVED","created":"2018","lastUpdated":"2018","lastActive":"no","area":10.022745203141463,"changesets":627,"mappers":60,"roads":7.53073431978062,"buildings":9019,"edits":9135,"latest":"2018-05-14T18:09:47.000Z"},"geometry":{"type":"Point","coordinates":[18.2425099229452,0.0202054774011]}},{"type":"Feature","properties":{"id":4541,"title":"2018 Ebola #9, Ingende, DRC","status":"ARCHIVED","created":"2018","lastUpdated":"2018","lastActive":"no","area":1.941343621849719,"changesets":139,"mappers":19,"roads":11.4363108989322,"buildings":1598,"edits":1722,"latest":"2018-05-17T21:03:56.000Z"},"geometry":{"type":"Point","coordinates":[18.9601701901266,-0.316819168607092]}},{"type":"Feature","properties":{"id":5160,"title":"2018 Ebola, North-West of Beni, Nord-Kivu, DRC","status":"ARCHIVED","created":"2018","lastUpdated":"2018","lastActive":"no","area":211.1809692726596,"changesets":178,"mappers":35,"roads":57.1272132871228,"buildings":879,"edits":1222,"latest":"2018-09-06T14:56:26.000Z"},"geometry":{"type":"Point","coordinates":[29.3062631770409,0.631593962576439]}},{"type":"Feature","properties":{"id":3477,"title":"Coastal Jiba HZ, Ituri, DRC","status":"PUBLISHED","created":"2017","lastUpdated":"2017","lastActive":"no","area":100.88965683887055,"changesets":107,"mappers":13,"roads":1.46307617982564,"buildings":197,"edits":277,"latest":"2017-11-07T19:11:08.000Z"},"geometry":{"type":"Point","coordinates":[30.7650057492941,1.78171266058815]}},{"type":"Feature","properties":{"id":4522,"title":"2018 Ebola #5, RP301, DRC","status":"ARCHIVED","created":"2018","lastUpdated":"2018","lastActive":"no","area":6.059402859511827,"changesets":271,"mappers":38,"roads":9.98943979492549,"buildings":4858,"edits":4943,"latest":"2018-05-12T13:28:34.000Z"},"geometry":{"type":"Point","coordinates":[18.4646418806696,-0.776097084665321]}},{"type":"Feature","properties":{"id":431,"title":"#mapcongo Tenke","status":"ARCHIVED","created":"2014","lastUpdated":"2014","lastActive":"no","area":12.556441866107196,"changesets":0,"mappers":0,"roads":0,"buildings":0,"edits":0,"latest":null},"geometry":{"type":"Point","coordinates":[26.1178610485082,-10.6040015017139]}},{"type":"Feature","properties":{"id":433,"title":"#mapcongo Fungurume","status":"ARCHIVED","created":"2014","lastUpdated":"2014","lastActive":"no","area":50.08769664293946,"changesets":0,"mappers":0,"roads":0,"buildings":0,"edits":0,"latest":null},"geometry":{"type":"Point","coordinates":[26.3303773755275,-10.6177867029908]}},{"type":"Feature","properties":{"id":812,"title":"Central African Republic. Refugees in DRC, Libenge","status":"ARCHIVED","created":"2014","lastUpdated":"2014","lastActive":"no","area":4.422962056356038,"changesets":0,"mappers":0,"roads":0,"buildings":0,"edits":0,"latest":null},"geometry":{"type":"Point","coordinates":[18.6273880860348,3.65090685557201]}},{"type":"Feature","properties":{"id":2329,"title":"Missing Maps: Masisi territory, North Kivu, DRC (roads part 8)","status":"PUBLISHED","created":"2016","lastUpdated":"2018","lastActive":"no","area":391.02214329924004,"changesets":1272,"mappers":174,"roads":662.6281124009,"buildings":14696,"edits":22007,"latest":"2017-10-24T12:01:55.000Z"},"geometry":{"type":"Point","coordinates":[29.0508672565158,-1.42813653558314]}},{"type":"Feature","properties":{"id":978,"title":"DRC, refugees from CAR - Inke camp","status":"ARCHIVED","created":"2015","lastUpdated":"2015","lastActive":"no","area":6.360773720279442,"changesets":52,"mappers":10,"roads":18.751625883226,"buildings":827,"edits":1596,"latest":"2015-04-25T08:45:33.000Z"},"geometry":{"type":"Point","coordinates":[20.7689606314661,4.10312348627494]}},{"type":"Feature","properties":{"id":3008,"title":"2017 Ebola outbreak in Bas-Uele, DRC - Likati town","status":"ARCHIVED","created":"2017","lastUpdated":"2017","lastActive":"no","area":15.74895707088454,"changesets":0,"mappers":0,"roads":0,"buildings":0,"edits":0,"latest":null},"geometry":{"type":"Point","coordinates":[23.8987274399545,3.36735424381593]}},{"type":"Feature","properties":{"id":406,"title":"DRC/RDC - Goma","status":"ARCHIVED","created":"2014","lastUpdated":"2017","lastActive":"no","area":105.47318769676205,"changesets":0,"mappers":0,"roads":0,"buildings":0,"edits":0,"latest":null},"geometry":{"type":"Point","coordinates":[29.2102801568284,-1.6567857489132]}},{"type":"Feature","properties":{"id":432,"title":"#mapcongo Malemba Nkulu ","status":"ARCHIVED","created":"2014","lastUpdated":"2014","lastActive":"no","area":43.16432683430611,"changesets":0,"mappers":0,"roads":0,"buildings":0,"edits":0,"latest":null},"geometry":{"type":"Point","coordinates":[26.7913511005655,-8.02975898681083]}},{"type":"Feature","properties":{"id":4549,"title":"2018 Ebola #11, North of Bikoro, DRC","status":"ARCHIVED","created":"2018","lastUpdated":"2018","lastActive":"no","area":1427.7931311307461,"changesets":104,"mappers":19,"roads":74.5189644807923,"buildings":1062,"edits":1274,"latest":"2018-05-18T15:54:25.000Z"},"geometry":{"type":"Point","coordinates":[18.3299779789334,-0.463559290123896]}},{"type":"Feature","properties":{"id":434,"title":"#mapcongo Mitwaba ","status":"ARCHIVED","created":"2014","lastUpdated":"2014","lastActive":"no","area":8.508442822017914,"changesets":45,"mappers":1,"roads":29.1924017622144,"buildings":3764,"edits":4016,"latest":"2017-09-18T11:59:33.000Z"},"geometry":{"type":"Point","coordinates":[27.3390094117221,-8.62142455090012]}},{"type":"Feature","properties":{"id":2054,"title":"Missing Maps: Kikimi, Kinshasa, Democratic Republic of Congo (Buildings only) part 1","status":"ARCHIVED","created":"2016","lastUpdated":"2016","lastActive":"no","area":11.279578336898796,"changesets":1229,"mappers":89,"roads":133.419246523314,"buildings":21879,"edits":23934,"latest":"2016-08-28T13:54:30.000Z"},"geometry":{"type":"Point","coordinates":[15.4343275360301,-4.43006341162115]}},{"type":"Feature","properties":{"id":4782,"title":"2018 Ebola #56, South east of Mbandaka, DRC","status":"ARCHIVED","created":"2018","lastUpdated":"2018","lastActive":"no","area":6.283821755800421,"changesets":332,"mappers":24,"roads":7.10407595421281,"buildings":2908,"edits":2949,"latest":"2018-07-01T15:49:01.000Z"},"geometry":{"type":"Point","coordinates":[18.3784524045596,-0.085669870987342]}},{"type":"Feature","properties":{"id":4503,"title":"2018 Ebola, Bikoro - Ikoko Impenge surroundings, DRC","status":"ARCHIVED","created":"2018","lastUpdated":"2018","lastActive":"no","area":744.2927372738434,"changesets":142,"mappers":25,"roads":52.1742417578067,"buildings":679,"edits":836,"latest":"2018-05-11T19:06:37.000Z"},"geometry":{"type":"Point","coordinates":[18.3415273401671,-0.709335073853154]}},{"type":"Feature","properties":{"id":4506,"title":"2018 Ebola, Itipo surroundings, DRC","status":"ARCHIVED","created":"2018","lastUpdated":"2018","lastActive":"no","area":1407.0216203176126,"changesets":143,"mappers":22,"roads":114.79647306197,"buildings":506,"edits":650,"latest":"2018-05-10T17:56:17.000Z"},"geometry":{"type":"Point","coordinates":[18.6701159438654,-0.836325942226073]}},{"type":"Feature","properties":{"id":1472,"title":"Missing Maps: Pweto, Katanga Province, Democratic Republic of Congo (DRC)","status":"ARCHIVED","created":"2016","lastUpdated":"2016","lastActive":"no","area":42.272187503530986,"changesets":1260,"mappers":50,"roads":503.360052042313,"buildings":14644,"edits":31647,"latest":"2016-03-19T12:16:13.000Z"},"geometry":{"type":"Point","coordinates":[28.9253574836638,-8.45973424601834]}},{"type":"Feature","properties":{"id":4560,"title":"2018 Ebola #19, Lolanga - Mampoko, DRC","status":"ARCHIVED","created":"2018","lastUpdated":"2018","lastActive":"no","area":1619.6229763910558,"changesets":260,"mappers":47,"roads":95.059394080798,"buildings":937,"edits":1270,"latest":"2018-05-22T11:05:38.000Z"},"geometry":{"type":"Point","coordinates":[18.6066842078246,0.743852155236109]}},{"type":"Feature","properties":{"id":4551,"title":"2018 Ebola #13, South of Mbandaka, DRC","status":"ARCHIVED","created":"2018","lastUpdated":"2018","lastActive":"no","area":1322.6089489366939,"changesets":367,"mappers":48,"roads":165.474532250553,"buildings":7979,"edits":8612,"latest":"2018-06-09T05:25:11.000Z"},"geometry":{"type":"Point","coordinates":[18.2648235044152,-0.105632550202885]}},{"type":"Feature","properties":{"id":520,"title":"EcoHack --- DRC quateur Provence --- Logging Roads","status":"ARCHIVED","created":"2014","lastUpdated":"2015","lastActive":"no","area":433787.02110860514,"changesets":0,"mappers":0,"roads":0,"buildings":0,"edits":0,"latest":null},"geometry":{"type":"Point","coordinates":[20.645113810265,1.06498205903747]}},{"type":"Feature","properties":{"id":749,"title":"Missing Maps: Bangassou, Central African Republic (CAR) ROAD NETWORKS ONLY","status":"ARCHIVED","created":"2014","lastUpdated":"2015","lastActive":"no","area":9795.36833959073,"changesets":0,"mappers":0,"roads":0,"buildings":0,"edits":0,"latest":null},"geometry":{"type":"Point","coordinates":[22.8120509468841,4.63734997950011]}},{"type":"Feature","properties":{"id":2624,"title":"Missing Maps - Goma, RDC - Water and Sanitation - For beginners","status":"ARCHIVED","created":"2017","lastUpdated":"2017","lastActive":"no","area":141.52604103789002,"changesets":147,"mappers":20,"roads":81.7403460777808,"buildings":2292,"edits":4220,"latest":"2017-04-11T07:04:35.000Z"},"geometry":{"type":"Point","coordinates":[29.1837380312445,-1.62876007604997]}},{"type":"Feature","properties":{"id":2579,"title":"Avenue des Huileries, Kinshasa","status":"PUBLISHED","created":"2017","lastUpdated":"2018","lastActive":"no","area":0.5019960845712318,"changesets":132,"mappers":17,"roads":3.43472127294297,"buildings":1390,"edits":1693,"latest":"2018-06-23T08:32:38.000Z"},"geometry":{"type":"Point","coordinates":[15.3041417827042,-4.31232239069128]}},{"type":"Feature","properties":{"id":4791,"title":"Missing Maps: Bachanga in South Kivu, Democratic Republic of Congo (Project 35)","status":"PUBLISHED","created":"2018","lastUpdated":"2018","lastActive":"no","area":0.5947063182625596,"changesets":139,"mappers":28,"roads":31.6735218076515,"buildings":433,"edits":469,"latest":"2018-08-26T10:23:54.000Z"},"geometry":{"type":"Point","coordinates":[28.7699073240751,-4.91187317363749]}},{"type":"Feature","properties":{"id":4726,"title":"Missing Maps: Map Nyangi in South Kivu, Democratic Republic of Congo (Project 33)","status":"ARCHIVED","created":"2018","lastUpdated":"2018","lastActive":"no","area":1.491036847033257,"changesets":461,"mappers":33,"roads":94.8855203345235,"buildings":3301,"edits":4361,"latest":"2018-07-27T13:19:05.000Z"},"geometry":{"type":"Point","coordinates":[28.8386186577951,-5.00259599539927]}},{"type":"Feature","properties":{"id":4697,"title":"Mapping for Ebola - Archiving this task - #OSM-DRC is responsible to coordinate these projects and zone already covered - please discuss with #OSM-DRC team on hot list","status":"ARCHIVED","created":"2018","lastUpdated":"2018","lastActive":"no","area":2644.394404002388,"changesets":4,"mappers":3,"roads":2.63084130743054,"buildings":11,"edits":44,"latest":"2018-06-16T17:48:28.000Z"},"geometry":{"type":"Point","coordinates":[18.7325363281888,-0.308788136006049]}},{"type":"Feature","properties":{"id":4635,"title":"Missing Maps: Map Misisi in South Kivu, Democratic Republic of Congo (Project 32)","status":"ARCHIVED","created":"2018","lastUpdated":"2018","lastActive":"no","area":1.168677206492672,"changesets":0,"mappers":0,"roads":0,"buildings":0,"edits":0,"latest":null},"geometry":{"type":"Point","coordinates":[28.6990181250359,-4.76507294128255]}},{"type":"Feature","properties":{"id":4580,"title":"2018 Ebola #27, South-East of Iboko, DRC","status":"ARCHIVED","created":"2018","lastUpdated":"2018","lastActive":"no","area":1458.5297321549076,"changesets":193,"mappers":31,"roads":135.765034876322,"buildings":83,"edits":284,"latest":"2018-05-24T20:09:49.000Z"},"geometry":{"type":"Point","coordinates":[18.8212408487306,-1.22229593004386]}},{"type":"Feature","properties":{"id":4558,"title":"2018 Ebola #17, West of Lake Tumba, DRC","status":"ARCHIVED","created":"2018","lastUpdated":"2018","lastActive":"no","area":1900.856631269421,"changesets":289,"mappers":35,"roads":59.442334527405,"buildings":1360,"edits":1709,"latest":"2018-05-21T15:22:52.000Z"},"geometry":{"type":"Point","coordinates":[17.8103299067143,-0.889247773483224]}},{"type":"Feature","properties":{"id":4574,"title":"2018 Ebola #25, East of Bikoro, DRC","status":"ARCHIVED","created":"2018","lastUpdated":"2018","lastActive":"no","area":9.986351246277929,"changesets":340,"mappers":44,"roads":19.0794099705515,"buildings":5592,"edits":5693,"latest":"2018-05-23T18:21:15.000Z"},"geometry":{"type":"Point","coordinates":[18.2345315166897,-0.739440755940976]}},{"type":"Feature","properties":{"id":4784,"title":"2018 Ebola #58, Along the Congo river 2, DRC","status":"ARCHIVED","created":"2018","lastUpdated":"2018","lastActive":"no","area":2.096867339292593,"changesets":178,"mappers":22,"roads":0.586125615676571,"buildings":2654,"edits":2662,"latest":"2018-07-03T07:17:42.000Z"},"geometry":{"type":"Point","coordinates":[18.2155357232769,0.095667094655171]}},{"type":"Feature","properties":{"id":4754,"title":"2018 Ebola #53, Bolaka, DRC","status":"ARCHIVED","created":"2018","lastUpdated":"2018","lastActive":"no","area":1.4466281290536755,"changesets":76,"mappers":7,"roads":2.8131136745933,"buildings":894,"edits":903,"latest":"2018-06-14T20:48:13.000Z"},"geometry":{"type":"Point","coordinates":[18.5172506708689,-0.365034922374921]}},{"type":"Feature","properties":{"id":2299,"title":"Missing Maps: Masisi territory, North Kivu, DRC (roads part 6)","status":"ARCHIVED","created":"2016","lastUpdated":"2018","lastActive":"no","area":404.1442837242991,"changesets":467,"mappers":37,"roads":250.73717806371,"buildings":100,"edits":1769,"latest":"2017-04-07T21:45:57.000Z"},"geometry":{"type":"Point","coordinates":[28.6356231520301,-1.65689369782861]}},{"type":"Feature","properties":{"id":751,"title":"Beni, Nord-Kivu, DRC","status":"ARCHIVED","created":"2014","lastUpdated":"2018","lastActive":"no","area":82.65651415308868,"changesets":1,"mappers":1,"roads":0.711364842081424,"buildings":0,"edits":4,"latest":"2015-06-15T14:54:39.000Z"},"geometry":{"type":"Point","coordinates":[29.459962322097,0.49786813930619]}},{"type":"Feature","properties":{"id":429,"title":"#mapcongo Mutabi","status":"ARCHIVED","created":"2014","lastUpdated":"2014","lastActive":"no","area":29.557125558542914,"changesets":0,"mappers":0,"roads":0,"buildings":0,"edits":0,"latest":null},"geometry":{"type":"Point","coordinates":[28.5190148760402,-8.60903412426737]}},{"type":"Feature","properties":{"id":1910,"title":"Missing Maps : Bunia, RDC","status":"PUBLISHED","created":"2016","lastUpdated":"2018","lastActive":"no","area":35.88869487068581,"changesets":2077,"mappers":142,"roads":324.222974555042,"buildings":33749,"edits":39586,"latest":"2016-09-08T13:37:18.000Z"},"geometry":{"type":"Point","coordinates":[30.2542815713256,1.56700145806776]}},{"type":"Feature","properties":{"id":5017,"title":"DRC Road network: Bandundu (main roads based on CI/OR data)","status":"PUBLISHED","created":"2018","lastUpdated":"2018","lastActive":"no","area":48576.906446531626,"changesets":216,"mappers":1,"roads":2360.51928083188,"buildings":3,"edits":3306,"latest":"2018-09-10T12:59:13.000Z"},"geometry":{"type":"Point","coordinates":[18.2133880095629,-4.62722328423884]}},{"type":"Feature","properties":{"id":2328,"title":"Missing Maps: Masisi territory, North Kivu, DRC (roads part 7)","status":"PUBLISHED","created":"2016","lastUpdated":"2018","lastActive":"no","area":566.26644966429,"changesets":651,"mappers":91,"roads":798.179439915245,"buildings":3365,"edits":7381,"latest":"2016-11-18T10:38:52.000Z"},"geometry":{"type":"Point","coordinates":[28.9334027930556,-1.38838744796668]}},{"type":"Feature","properties":{"id":4372,"title":"Missing Maps: Map Tchonka in South Kivu, Democratic Republic of Congo (Project 30)","status":"ARCHIVED","created":"2018","lastUpdated":"2018","lastActive":"no","area":81.95962619883498,"changesets":308,"mappers":62,"roads":24.6071783099488,"buildings":5282,"edits":5595,"latest":"2018-05-16T14:27:13.000Z"},"geometry":{"type":"Point","coordinates":[27.5396433192983,-2.32806750098613]}},{"type":"Feature","properties":{"id":4433,"title":"Missing Maps: Map Tchonka in South Kivu, Democratic Republic of Congo (Project 31)","status":"ARCHIVED","created":"2018","lastUpdated":"2018","lastActive":"no","area":658.3197350609657,"changesets":126,"mappers":28,"roads":6.22273763264387,"buildings":1917,"edits":2006,"latest":"2018-09-23T17:36:17.000Z"},"geometry":{"type":"Point","coordinates":[27.7795760183536,-2.25642584261544]}},{"type":"Feature","properties":{"id":1349,"title":"Missing Maps: Lubumbashi (north-east), Democratic Republic of Congo (DRC)","status":"ARCHIVED","created":"2015","lastUpdated":"2015","lastActive":"no","area":19.958570477891072,"changesets":496,"mappers":30,"roads":176.281088766763,"buildings":8137,"edits":12164,"latest":"2015-12-05T20:43:00.000Z"},"geometry":{"type":"Point","coordinates":[27.51667953628,-11.5687821707176]}},{"type":"Feature","properties":{"id":437,"title":"#mapcongo Kirungu","status":"ARCHIVED","created":"2014","lastUpdated":"2014","lastActive":"no","area":4.962991174742327,"changesets":6,"mappers":4,"roads":8.03473263994969,"buildings":337,"edits":371,"latest":"2018-04-04T14:20:38.000Z"},"geometry":{"type":"Point","coordinates":[29.0777793202628,-3.40486674527081]}},{"type":"Feature","properties":{"id":4958,"title":"Ebola2018, Beni, Nord-Kivu, DRC","status":"ARCHIVED","created":"2018","lastUpdated":"2018","lastActive":"no","area":82.65651415308375,"changesets":2403,"mappers":190,"roads":327.340473766896,"buildings":43010,"edits":46339,"latest":"2018-08-24T18:11:36.000Z"},"geometry":{"type":"Point","coordinates":[29.459962322097,0.497868139306192]}},{"type":"Feature","properties":{"id":1776,"title":"Missing Maps: Idjwi Island, South Kivu, DRC - vaccination campaign (part 2)","status":"ARCHIVED","created":"2016","lastUpdated":"2017","lastActive":"no","area":145.42750091311532,"changesets":1849,"mappers":143,"roads":163.434725876859,"buildings":21589,"edits":23492,"latest":"2016-04-19T16:30:24.000Z"},"geometry":{"type":"Point","coordinates":[29.0657847384669,-2.11942062116372]}},{"type":"Feature","properties":{"id":2047,"title":"Missing Maps: Biyela, Kinshasa, Democratic Republic of Congo (Road networks and residential areas) part 1","status":"ARCHIVED","created":"2016","lastUpdated":"2016","lastActive":"no","area":71.74190917285709,"changesets":216,"mappers":31,"roads":383.786854341193,"buildings":1531,"edits":4918,"latest":"2016-08-16T19:49:28.000Z"},"geometry":{"type":"Point","coordinates":[15.3966088336376,-4.50641093738646]}},{"type":"Feature","properties":{"id":4708,"title":"Mapping for Ebola  - Archiving this task - #OSM-DRC is responsible to coordinate these projects and zone already covered - please discuss with #OSM-DRC team on hot list","status":"ARCHIVED","created":"2018","lastUpdated":"2018","lastActive":"no","area":36035.618448038585,"changesets":566,"mappers":70,"roads":1.74055142893443,"buildings":28201,"edits":28346,"latest":"2018-06-11T09:54:01.000Z"},"geometry":{"type":"Point","coordinates":[18.3644855038404,-0.437884765824334]}},{"type":"Feature","properties":{"id":2045,"title":"Missing Maps: Kikimi, Kinshasa, Democratic Republic of Congo (Road networks and residential areas) part 1","status":"ARCHIVED","created":"2016","lastUpdated":"2016","lastActive":"no","area":112.87251192316259,"changesets":338,"mappers":51,"roads":558.480495887597,"buildings":526,"edits":3740,"latest":"2016-08-05T07:34:52.000Z"},"geometry":{"type":"Point","coordinates":[15.4851051892922,-4.5496481719706]}},{"type":"Feature","properties":{"id":1077,"title":"Missing Maps: Map South Kivu, Democratic Republic of Congo (Task 2: Roads and residential areas )","status":"ARCHIVED","created":"2015","lastUpdated":"2018","lastActive":"no","area":389.4641082900672,"changesets":410,"mappers":48,"roads":352.936916192387,"buildings":1922,"edits":4758,"latest":"2015-12-22T09:59:45.000Z"},"geometry":{"type":"Point","coordinates":[28.8833825581463,-4.5433663177797]}},{"type":"Feature","properties":{"id":352,"title":"RD Congo, Kindu","status":"ARCHIVED","created":"2013","lastUpdated":"2018","lastActive":"no","area":462.0128271001869,"changesets":0,"mappers":0,"roads":0,"buildings":0,"edits":0,"latest":null},"geometry":{"type":"Point","coordinates":[25.9137467525889,-2.94047804787534]}},{"type":"Feature","properties":{"id":515,"title":"Kongolo. Roads. MSF","status":"ARCHIVED","created":"2014","lastUpdated":"2014","lastActive":"no","area":20.011239933104736,"changesets":0,"mappers":0,"roads":0,"buildings":0,"edits":0,"latest":null},"geometry":{"type":"Point","coordinates":[27.0046230668398,-5.37035061988594]}},{"type":"Feature","properties":{"id":1145,"title":"Missing Maps: Bukama, Democratic Republic of the Congo (DRC)","status":"ARCHIVED","created":"2015","lastUpdated":"2016","lastActive":"no","area":18691.21681431632,"changesets":574,"mappers":52,"roads":1300.64187466621,"buildings":676,"edits":3778,"latest":"2016-02-21T01:23:39.000Z"},"geometry":{"type":"Point","coordinates":[25.8880196382984,-9.22785229970339]}},{"type":"Feature","properties":{"id":626,"title":"DRC Ebola 2014, Boende area","status":"ARCHIVED","created":"2014","lastUpdated":"2014","lastActive":"no","area":1942.1036609225011,"changesets":0,"mappers":0,"roads":0,"buildings":0,"edits":0,"latest":null},"geometry":{"type":"Point","coordinates":[20.6629302328346,-0.586198669559367]}},{"type":"Feature","properties":{"id":648,"title":"DRC Ebola 2014, Bokoto and surroundings, mapping with WorldView-1 imagery","status":"ARCHIVED","created":"2014","lastUpdated":"2014","lastActive":"no","area":2649.0243494601896,"changesets":0,"mappers":0,"roads":0,"buildings":0,"edits":0,"latest":null},"geometry":{"type":"Point","coordinates":[20.3626399615024,-0.500372087515773]}},{"type":"Feature","properties":{"id":658,"title":"DRC Ebola 2014, Boende city update (Sept. 16, 2014 WorldView-2 imagery)","status":"ARCHIVED","created":"2014","lastUpdated":"2014","lastActive":"no","area":13.961906787706155,"changesets":0,"mappers":0,"roads":0,"buildings":0,"edits":0,"latest":null},"geometry":{"type":"Point","coordinates":[20.8801971606474,-0.287437343374973]}},{"type":"Feature","properties":{"id":734,"title":"Please delete","status":"ARCHIVED","created":"2014","lastUpdated":"2014","lastActive":"no","area":9.00966089426908,"changesets":0,"mappers":0,"roads":0,"buildings":0,"edits":0,"latest":null},"geometry":{"type":"Point","coordinates":[28.6576460903318,-4.68040522927291]}},{"type":"Feature","properties":{"id":4696,"title":"Mapping for Ebola  - Archiving this task - #OSM-DRC is responsible to coordinate these projedts and zone already covered - please discuss with #OSM-DRC team on hot list","status":"ARCHIVED","created":"2018","lastUpdated":"2018","lastActive":"no","area":2644.394404002388,"changesets":359,"mappers":73,"roads":1.31538440355478,"buildings":13114,"edits":13178,"latest":"2018-06-08T22:45:38.000Z"},"geometry":{"type":"Point","coordinates":[18.7325363281888,-0.308788136006049]}},{"type":"Feature","properties":{"id":5225,"title":"Ebola 2018, South-West of Beni, Nord-Kivu, DRC","status":"PUBLISHED","created":"2018","lastUpdated":"2018","lastActive":"no","area":226.93873761591792,"changesets":993,"mappers":102,"roads":244.687755024827,"buildings":9271,"edits":10813,"latest":"2018-10-03T17:13:48.000Z"},"geometry":{"type":"Point","coordinates":[29.5743969452797,0.414481178165362]}},{"type":"Feature","properties":{"id":5342,"title":"Rseau Routier de la RDC : Katanga (routes principales sur base des donnes CI/OR)","status":"PUBLISHED","created":"2018","lastUpdated":"2018","lastActive":"no","area":62040.830437528515,"changesets":162,"mappers":4,"roads":1618.37892377881,"buildings":30,"edits":2292,"latest":"2018-10-19T11:37:13.000Z"},"geometry":{"type":"Point","coordinates":[26.218634804486,-8.92516618095902]}},{"type":"Feature","properties":{"id":4530,"title":"DRC Road network: Equateur (main roads based on CI/OR data)","status":"ARCHIVED","created":"2018","lastUpdated":"2018","lastActive":"no","area":49783.31145279449,"changesets":1191,"mappers":90,"roads":19785.6491236583,"buildings":3205,"edits":20510,"latest":"2018-09-02T16:48:35.000Z"},"geometry":{"type":"Point","coordinates":[20.5060270092659,1.77497554112799]}},{"type":"Feature","properties":{"id":5018,"title":"DRC Road network: Orientale (main roads based on CI/OR data)","status":"PUBLISHED","created":"2018","lastUpdated":"2018","lastActive":"no","area":60327.41471001424,"changesets":211,"mappers":8,"roads":2548.23152920379,"buildings":80,"edits":1992,"latest":"2018-10-10T07:57:38.000Z"},"geometry":{"type":"Point","coordinates":[26.5480189510261,2.17570858598967]}},{"type":"Feature","properties":{"id":2700,"title":"Kinshasa field data entry test VORONOI","status":"PUBLISHED","created":"2017","lastUpdated":"2017","lastActive":"no","area":133.89260629889745,"changesets":344,"mappers":2,"roads":1.40500077727434,"buildings":190,"edits":583,"latest":"2017-04-20T11:31:51.000Z"},"geometry":{"type":"Point","coordinates":[15.4092659528927,-4.42723059603828]}},{"type":"Feature","properties":{"id":4471,"title":"DRC Road network: Kivu (main roads based on CI/OR data)","status":"ARCHIVED","created":"2018","lastUpdated":"2018","lastActive":"no","area":38701.61965431843,"changesets":379,"mappers":11,"roads":3490.28520219796,"buildings":390,"edits":5254,"latest":"2018-08-29T10:14:13.000Z"},"geometry":{"type":"Point","coordinates":[27.4539704415194,-2.68338443305671]}},{"type":"Feature","properties":{"id":5265,"title":"Ebola 2018, Kasenyi, Ituri, DRC","status":"ARCHIVED","created":"2018","lastUpdated":"2018","lastActive":"no","area":101.90828555411727,"changesets":570,"mappers":38,"roads":813.124409427895,"buildings":14727,"edits":17271,"latest":"2018-10-10T05:39:04.000Z"},"geometry":{"type":"Point","coordinates":[30.48860092733,1.497277568076]}},{"type":"Feature","properties":{"id":3268,"title":"Missing Maps: Map South Kivu, Democratic Republic of Congo (Project 23: Buildings)","status":"ARCHIVED","created":"2017","lastUpdated":"2018","lastActive":"no","area":110.119725914713,"changesets":261,"mappers":43,"roads":75.8566614788438,"buildings":9432,"edits":9949,"latest":"2017-08-01T06:32:39.000Z"},"geometry":{"type":"Point","coordinates":[29.0501030786814,-4.20005248704493]}},{"type":"Feature","properties":{"id":3246,"title":"Missing Maps: Map South Kivu, Democratic Republic of Congo (Project 22: Roads and residential areas)","status":"ARCHIVED","created":"2017","lastUpdated":"2018","lastActive":"no","area":171.35435792577496,"changesets":96,"mappers":23,"roads":96.3587656914518,"buildings":127,"edits":514,"latest":"2017-07-14T07:54:06.000Z"},"geometry":{"type":"Point","coordinates":[29.1038286360375,-4.60595291138693]}},{"type":"Feature","properties":{"id":1872,"title":"Mwenge villages (PLEASE DELETE)","status":"ARCHIVED","created":"2016","lastUpdated":"2016","lastActive":"no","area":7.061149210150951,"changesets":0,"mappers":0,"roads":0,"buildings":0,"edits":0,"latest":null},"geometry":{"type":"Point","coordinates":[28.6948060830029,-7.92843885221295]}},{"type":"Feature","properties":{"id":1251,"title":"Missing Maps: Map South Kivu, Democratic Republic of Congo (Task 11: Roads and residential areas )","status":"ARCHIVED","created":"2015","lastUpdated":"2017","lastActive":"no","area":496.70077096194547,"changesets":401,"mappers":54,"roads":369.454340890693,"buildings":1502,"edits":4049,"latest":"2016-07-25T16:05:19.000Z"},"geometry":{"type":"Point","coordinates":[28.9084142513084,-4.38111530526132]}},{"type":"Feature","properties":{"id":1302,"title":"Missing Maps: Map South Kivu, Democratic Republic of Congo  (Task 14: Roads and residential areas )","status":"ARCHIVED","created":"2015","lastUpdated":"2016","lastActive":"no","area":233.05192036532696,"changesets":285,"mappers":35,"roads":192.394859295451,"buildings":1529,"edits":4777,"latest":"2016-02-02T20:55:44.000Z"},"geometry":{"type":"Point","coordinates":[29.1236711711411,-3.45110321154127]}},{"type":"Feature","properties":{"id":1248,"title":"Missing Maps: Map South Kivu, Democratic Republic of Congo (Task 9: Roads and residential areas )","status":"ARCHIVED","created":"2015","lastUpdated":"2016","lastActive":"no","area":908.7161892990985,"changesets":204,"mappers":19,"roads":523.693586677618,"buildings":835,"edits":3525,"latest":"2016-07-14T09:12:11.000Z"},"geometry":{"type":"Point","coordinates":[29.0172187095793,-4.10776798969038]}},{"type":"Feature","properties":{"id":1079,"title":"Missing Maps: Map South Kivu, Democratic Republic of Congo  (Task 4: Roads and residential areas )","status":"ARCHIVED","created":"2015","lastUpdated":"2018","lastActive":"no","area":2250.512692755052,"changesets":484,"mappers":19,"roads":94.3245980840381,"buildings":207,"edits":1648,"latest":"2015-11-04T15:19:06.000Z"},"geometry":{"type":"Point","coordinates":[28.0367855243459,-2.50911124395526]}},{"type":"Feature","properties":{"id":3360,"title":"Mama Nzenze and Kingabwa, Kinshasa, DRC","status":"PUBLISHED","created":"2017","lastUpdated":"2017","lastActive":"no","area":0.4940352502577961,"changesets":143,"mappers":30,"roads":0.690137581293766,"buildings":1411,"edits":1522,"latest":"2018-05-30T20:32:52.000Z"},"geometry":{"type":"Point","coordinates":[15.3528176623676,-4.3439753333598]}},{"type":"Feature","properties":{"id":3245,"title":"Missing Maps: Map South Kivu, Democratic Republic of Congo (Project 21: Roads and residential areas)","status":"ARCHIVED","created":"2017","lastUpdated":"2018","lastActive":"no","area":178.50731322970077,"changesets":104,"mappers":22,"roads":436.308277189034,"buildings":243,"edits":2239,"latest":"2017-08-30T08:16:46.000Z"},"geometry":{"type":"Point","coordinates":[28.6857113218868,-4.44742628736164]}},{"type":"Feature","properties":{"id":3085,"title":"2017 Ebola outbreak in Bas-Uele, DRC (Proj. 15)","status":"ARCHIVED","created":"2017","lastUpdated":"2017","lastActive":"no","area":128.3118606072192,"changesets":16,"mappers":5,"roads":13.8701480746506,"buildings":6,"edits":66,"latest":"2017-05-28T10:38:52.000Z"},"geometry":{"type":"Point","coordinates":[23.2599785364384,3.72889725318382]}},{"type":"Feature","properties":{"id":3038,"title":"2017 Ebola outbreak in Bas-Uele, DRC (Proj. 7)","status":"ARCHIVED","created":"2017","lastUpdated":"2017","lastActive":"no","area":1018.3930333969606,"changesets":150,"mappers":31,"roads":178.275646790286,"buildings":2405,"edits":2895,"latest":"2017-05-24T12:53:36.000Z"},"geometry":{"type":"Point","coordinates":[23.7701102880355,3.31789330387062]}},{"type":"Feature","properties":{"id":3059,"title":"2017 Ebola outbreak in Bas-Uele, DRC (Proj. 11)","status":"ARCHIVED","created":"2017","lastUpdated":"2017","lastActive":"no","area":334.19917732267754,"changesets":238,"mappers":28,"roads":16.8678060976209,"buildings":1764,"edits":2127,"latest":"2017-05-24T22:35:30.000Z"},"geometry":{"type":"Point","coordinates":[23.7870449758019,3.4046765175966]}},{"type":"Feature","properties":{"id":2991,"title":"2017 Ebola outbreak in Bas-Uele, DRC (Proj. 3)","status":"ARCHIVED","created":"2017","lastUpdated":"2017","lastActive":"no","area":11651.716435614915,"changesets":890,"mappers":94,"roads":1502.8821851843,"buildings":7412,"edits":13751,"latest":"2017-06-05T14:42:43.000Z"},"geometry":{"type":"Point","coordinates":[23.2896907172166,2.65863552337951]}},{"type":"Feature","properties":{"id":3056,"title":"2017 Ebola outbreak in Bas-Uele, DRC (Proj. 10)","status":"ARCHIVED","created":"2017","lastUpdated":"2017","lastActive":"no","area":207.98118312777888,"changesets":6,"mappers":5,"roads":0.0948112795362752,"buildings":77,"edits":79,"latest":"2017-05-23T13:51:13.000Z"},"geometry":{"type":"Point","coordinates":[23.621929070742,3.33356556034157]}},{"type":"Feature","properties":{"id":2985,"title":"2017 Ebola outbreak in Bas-Uele, DRC","status":"ARCHIVED","created":"2017","lastUpdated":"2017","lastActive":"no","area":65362.73536842078,"changesets":14,"mappers":4,"roads":11.8500973797555,"buildings":10,"edits":40,"latest":"2017-05-12T18:25:10.000Z"},"geometry":{"type":"Point","coordinates":[23.9225645184878,3.35562497806035]}},{"type":"Feature","properties":{"id":2844,"title":"Okapi National Park, East-West Road, DRC","status":"ARCHIVED","created":"2017","lastUpdated":"2017","lastActive":"no","area":80.97546979591154,"changesets":0,"mappers":0,"roads":0,"buildings":0,"edits":0,"latest":null},"geometry":{"type":"Point","coordinates":[28.413884926327,1.40230801175528]}}],"Zambia":[{"type":"Feature","properties":{"id":2594,"title":"Missing Maps: Zambia Malaria Elimination 32","status":"ARCHIVED","created":"2017","lastUpdated":"2017","lastActive":"no","area":43.26936567615261,"changesets":1273,"mappers":70,"roads":18.9927893029869,"buildings":7488,"edits":7992,"latest":"2017-04-08T00:18:09.000Z"},"geometry":{"type":"Point","coordinates":[27.3457489157097,-16.2479875735404]}},{"type":"Feature","properties":{"id":3293,"title":"Livingstone mapping - OSM Zambia","status":"PUBLISHED","created":"2017","lastUpdated":"2017","lastActive":"no","area":101.17010264284768,"changesets":994,"mappers":12,"roads":308.983608542543,"buildings":36591,"edits":45782,"latest":"2017-08-23T14:14:19.000Z"},"geometry":{"type":"Point","coordinates":[25.8585971206155,-17.8421540120287]}},{"type":"Feature","properties":{"id":3992,"title":"Zambia Cholera Outbreak","status":"PUBLISHED","created":"2018","lastUpdated":"2018","lastActive":"no","area":4.036566110310592,"changesets":608,"mappers":32,"roads":29.2512963162562,"buildings":4494,"edits":5618,"latest":"2018-01-08T03:28:50.000Z"},"geometry":{"type":"Point","coordinates":[28.2443472716737,-15.4546130087783]}},{"type":"Feature","properties":{"id":2728,"title":"Zambia - Peace Corps Public Health Program","status":"PUBLISHED","created":"2017","lastUpdated":"2018","lastActive":"no","area":1812.3066110321777,"changesets":561,"mappers":95,"roads":712.112904040654,"buildings":6766,"edits":11389,"latest":"2018-10-09T12:40:02.000Z"},"geometry":{"type":"Point","coordinates":[26.0244494385981,-12.8954326004688]}},{"type":"Feature","properties":{"id":3995,"title":"Zambia Cholera Outbreak 2018","status":"PUBLISHED","created":"2018","lastUpdated":"2018","lastActive":"no","area":13.021695568322011,"changesets":1508,"mappers":109,"roads":61.4631865032384,"buildings":23480,"edits":27523,"latest":"2018-03-12T08:51:32.000Z"},"geometry":{"type":"Point","coordinates":[28.3151884921123,-15.4416751223048]}},{"type":"Feature","properties":{"id":3899,"title":"Fiwila Health Centre - learn how to efficiently replace node-buildings","status":"PUBLISHED","created":"2017","lastUpdated":"2018","lastActive":"no","area":628.4823419648842,"changesets":60,"mappers":10,"roads":84.3866231672886,"buildings":1172,"edits":1552,"latest":"2018-10-18T00:18:42.000Z"},"geometry":{"type":"Point","coordinates":[29.6330945573751,-14.0154371932199]}},{"type":"Feature","properties":{"id":3183,"title":"Missing Maps: Zambia Malaria Elimination 79","status":"ARCHIVED","created":"2017","lastUpdated":"2017","lastActive":"no","area":978.3907149799423,"changesets":2285,"mappers":192,"roads":52.4306319853615,"buildings":8399,"edits":8880,"latest":"2017-08-19T15:28:24.000Z"},"geometry":{"type":"Point","coordinates":[26.7839004297929,-15.9198612690273]}},{"type":"Feature","properties":{"id":2661,"title":"Missing Maps: Zambia Malaria Elimination 55","status":"ARCHIVED","created":"2017","lastUpdated":"2017","lastActive":"no","area":44.95788437690187,"changesets":381,"mappers":40,"roads":6.26931224903175,"buildings":1937,"edits":2049,"latest":"2017-03-18T11:10:07.000Z"},"geometry":{"type":"Point","coordinates":[26.7095184288564,-16.6529817809649]}},{"type":"Feature","properties":{"id":5231,"title":"Missing Maps - Zambia - Mongu centre2","status":"ARCHIVED","created":"2018","lastUpdated":"2018","lastActive":"no","area":8.07328076511913,"changesets":512,"mappers":48,"roads":43.1174108384455,"buildings":5945,"edits":6708,"latest":"2018-09-24T14:29:59.000Z"},"geometry":{"type":"Point","coordinates":[23.1451122969085,-15.2747772857719]}},{"type":"Feature","properties":{"id":2670,"title":"Missing Maps: Zambia Malaria Elimination 58","status":"ARCHIVED","created":"2017","lastUpdated":"2017","lastActive":"no","area":52.22446425255846,"changesets":450,"mappers":42,"roads":12.5052306014992,"buildings":3306,"edits":3498,"latest":"2017-03-23T21:36:31.000Z"},"geometry":{"type":"Point","coordinates":[26.682991358299,-16.7963311571231]}},{"type":"Feature","properties":{"id":2546,"title":"Missing Maps: Zambia Malaria Elimination 6","status":"ARCHIVED","created":"2017","lastUpdated":"2017","lastActive":"no","area":33.848371279562905,"changesets":1125,"mappers":60,"roads":59.5274783501728,"buildings":5533,"edits":5905,"latest":"2017-03-20T13:03:45.000Z"},"geometry":{"type":"Point","coordinates":[26.2861727088638,-15.8927405111516]}},{"type":"Feature","properties":{"id":2606,"title":"Missing Maps: Zambia Malaria Elimination 37","status":"ARCHIVED","created":"2017","lastUpdated":"2017","lastActive":"no","area":30.975047863285592,"changesets":922,"mappers":62,"roads":102.254978189865,"buildings":7438,"edits":8154,"latest":"2017-04-12T14:36:51.000Z"},"geometry":{"type":"Point","coordinates":[27.0010022975683,-16.5926195924436]}},{"type":"Feature","properties":{"id":2586,"title":"Missing Maps: Zambia Malaria Elimination 25","status":"ARCHIVED","created":"2017","lastUpdated":"2017","lastActive":"no","area":11.867807532613435,"changesets":544,"mappers":33,"roads":6.4267548796816,"buildings":2167,"edits":2195,"latest":"2017-03-27T10:49:22.000Z"},"geometry":{"type":"Point","coordinates":[28.0011485249086,-15.9342298085104]}},{"type":"Feature","properties":{"id":2588,"title":"Missing Maps: Zambia Malaria Elimination 27","status":"ARCHIVED","created":"2017","lastUpdated":"2017","lastActive":"no","area":31.889495041013184,"changesets":1413,"mappers":34,"roads":24.1011558976978,"buildings":7618,"edits":8792,"latest":"2017-04-04T18:16:46.000Z"},"geometry":{"type":"Point","coordinates":[27.5352249359389,-16.1835984997993]}},{"type":"Feature","properties":{"id":2567,"title":"Missing Maps: Zambia Malaria Elimination 15","status":"ARCHIVED","created":"2017","lastUpdated":"2017","lastActive":"no","area":35.688557069757834,"changesets":1113,"mappers":61,"roads":4.50367607505807,"buildings":8009,"edits":8063,"latest":"2017-03-24T16:48:39.000Z"},"geometry":{"type":"Point","coordinates":[28.0348670421815,-16.2052939633314]}},{"type":"Feature","properties":{"id":669,"title":"Peace Corps Stomp Out Malaria - Kazungula","status":"ARCHIVED","created":"2014","lastUpdated":"2014","lastActive":"no","area":16.95503106955802,"changesets":0,"mappers":0,"roads":0,"buildings":0,"edits":0,"latest":null},"geometry":{"type":"Point","coordinates":[25.2648704594212,-17.7887846157581]}},{"type":"Feature","properties":{"id":2394,"title":"Missing Maps: Misisi, Lusaka, Zambia - Buildings only","status":"ARCHIVED","created":"2016","lastUpdated":"2017","lastActive":"no","area":0.08582588949957824,"changesets":61,"mappers":12,"roads":0.806437509201202,"buildings":1449,"edits":1515,"latest":"2017-02-10T15:08:42.000Z"},"geometry":{"type":"Point","coordinates":[28.2857329942074,-15.4414327764804]}},{"type":"Feature","properties":{"id":2773,"title":"Missing Maps: Zambia Malaria Elimination 76","status":"ARCHIVED","created":"2017","lastUpdated":"2017","lastActive":"no","area":38.49078939239585,"changesets":320,"mappers":24,"roads":0,"buildings":2320,"edits":2320,"latest":"2017-04-07T16:10:34.000Z"},"geometry":{"type":"Point","coordinates":[26.0526745550425,-17.1420374248002]}},{"type":"Feature","properties":{"id":2348,"title":"Archived/Replaced by other Projects - Kuzungula District, Zambia","status":"ARCHIVED","created":"2016","lastUpdated":"2017","lastActive":"no","area":12042.04128837934,"changesets":401,"mappers":69,"roads":247.402666716234,"buildings":8464,"edits":9075,"latest":"2017-03-11T15:09:21.000Z"},"geometry":{"type":"Point","coordinates":[25.6273733502222,-17.213353497404]}},{"type":"Feature","properties":{"id":2360,"title":"Misisi, Lusaka, Zambia","status":"PUBLISHED","created":"2016","lastUpdated":"2017","lastActive":"no","area":3.254160281977127,"changesets":977,"mappers":35,"roads":14.7746021737245,"buildings":10044,"edits":12131,"latest":"2017-04-19T06:30:14.000Z"},"geometry":{"type":"Point","coordinates":[28.2793157762274,-15.4433304402041]}},{"type":"Feature","properties":{"id":2761,"title":"Missing Maps: Zambia Malaria Elimination 74","status":"ARCHIVED","created":"2017","lastUpdated":"2017","lastActive":"no","area":47.19235660906852,"changesets":579,"mappers":40,"roads":20.5626297877843,"buildings":3277,"edits":3389,"latest":"2017-04-12T13:01:45.000Z"},"geometry":{"type":"Point","coordinates":[26.6191107116027,-17.4284490157584]}},{"type":"Feature","properties":{"id":2612,"title":"Missing Maps: Zambia Malaria Elimination 41","status":"ARCHIVED","created":"2017","lastUpdated":"2017","lastActive":"no","area":39.12071193861273,"changesets":1201,"mappers":50,"roads":38.6208702735165,"buildings":8369,"edits":8715,"latest":"2017-08-07T12:21:04.000Z"},"geometry":{"type":"Point","coordinates":[27.6376904065045,-16.4473867460371]}},{"type":"Feature","properties":{"id":2610,"title":"Missing Maps: Zambia Malaria Elimination 39","status":"ARCHIVED","created":"2017","lastUpdated":"2017","lastActive":"no","area":51.10622722327789,"changesets":1447,"mappers":59,"roads":110.565243716719,"buildings":10273,"edits":12222,"latest":"2017-04-06T09:53:30.000Z"},"geometry":{"type":"Point","coordinates":[27.4968094062617,-16.4326310664699]}},{"type":"Feature","properties":{"id":2604,"title":"Missing Maps: Zambia Malaria Elimination 35","status":"ARCHIVED","created":"2017","lastUpdated":"2017","lastActive":"no","area":47.681523032445796,"changesets":747,"mappers":61,"roads":0.646824385341615,"buildings":2683,"edits":2695,"latest":"2017-03-03T10:25:07.000Z"},"geometry":{"type":"Point","coordinates":[27.39946944317,-16.3376490201743]}},{"type":"Feature","properties":{"id":2622,"title":"Missing Maps: Zambia Malaria Elimination 43","status":"ARCHIVED","created":"2017","lastUpdated":"2017","lastActive":"no","area":52.94171063556428,"changesets":1003,"mappers":100,"roads":121.692857457407,"buildings":6453,"edits":7526,"latest":"2017-04-20T09:57:23.000Z"},"geometry":{"type":"Point","coordinates":[27.4793076354582,-16.5586713314048]}},{"type":"Feature","properties":{"id":2549,"title":"Zambia14","status":"ARCHIVED","created":"2017","lastUpdated":"2017","lastActive":"no","area":30.905717274348312,"changesets":0,"mappers":0,"roads":0,"buildings":0,"edits":0,"latest":null},"geometry":{"type":"Point","coordinates":[26.8995524285374,-15.9672565612992]}},{"type":"Feature","properties":{"id":2545,"title":"Missing Maps: Zambia Malaria Elimination 5","status":"ARCHIVED","created":"2017","lastUpdated":"2017","lastActive":"no","area":29.240261299687603,"changesets":2462,"mappers":63,"roads":59.6692415195899,"buildings":19056,"edits":19476,"latest":"2017-07-21T09:55:23.000Z"},"geometry":{"type":"Point","coordinates":[26.0720422320165,-15.9727674891682]}},{"type":"Feature","properties":{"id":2764,"title":"Mistake Do Not Use","status":"ARCHIVED","created":"2017","lastUpdated":"2017","lastActive":"no","area":35.92752078925789,"changesets":0,"mappers":0,"roads":0,"buildings":0,"edits":0,"latest":null},"geometry":{"type":"Point","coordinates":[28.1010543332572,-15.9357645571568]}},{"type":"Feature","properties":{"id":2565,"title":"MISTAKE IN PROJECT SIZE/ARCHIVE/DONOTUSE Missing Maps: Zambia Malaria Elimination 14","status":"ARCHIVED","created":"2017","lastUpdated":"2017","lastActive":"no","area":248.49122523499858,"changesets":5,"mappers":1,"roads":0,"buildings":201,"edits":201,"latest":"2017-02-20T23:41:04.000Z"},