{"totalEdits":44177638,"totalBuildings":36762681,"totalRoads":926665.910231033,"mappersOnline":114,"totalTasksMapped":1752718,"totalMappers":151103,"totalProjects":4270,"Lesotho":[{"type":"Feature","properties":{"id":1940,"title":"#MapLesotho - Mokhotlong Detailed District Mapping","status":"ARCHIVED","created":"2016","lastUpdated":"2016","lastActive":"no","area":3890.25681896109,"changesets":0,"mappers":0,"roads":0,"buildings":0,"edits":0,"latest":null},"geometry":{"type":"Point","coordinates":[29.0278575878855,-29.1956838922898]}},{"type":"Feature","properties":{"id":3781,"title":"#MapLesotho Phase 4 - Quthing","status":"ARCHIVED","created":"2017","lastUpdated":"2017","lastActive":"no","area":5.3045522366124365,"changesets":0,"mappers":0,"roads":0,"buildings":0,"edits":0,"latest":null},"geometry":{"type":"Point","coordinates":[27.7063417561356,-30.4031007823616]}},{"type":"Feature","properties":{"id":3884,"title":"#MapLesotho Phase 4 - Qachas Nek Outskirts","status":"PUBLISHED","created":"2017","lastUpdated":"2018","lastActive":"no","area":1.1201671883121602,"changesets":78,"mappers":5,"roads":3.47834990822575,"buildings":866,"edits":1164,"latest":"2018-09-01T11:11:46.000Z"},"geometry":{"type":"Point","coordinates":[28.6423424758273,-30.0959304966062]}},{"type":"Feature","properties":{"id":3888,"title":"#MapLesotho Phase 4 - Southern Thaba Tseka","status":"PUBLISHED","created":"2017","lastUpdated":"2018","lastActive":"no","area":1.8046089493881072,"changesets":55,"mappers":5,"roads":0.954628013646713,"buildings":288,"edits":451,"latest":"2018-10-26T20:52:47.000Z"},"geometry":{"type":"Point","coordinates":[28.607743677396,-29.5232106681215]}},{"type":"Feature","properties":{"id":3849,"title":"#MapLesotho Phase 4 - Quthing Camptown","status":"PUBLISHED","created":"2017","lastUpdated":"2017","lastActive":"no","area":3.5360621731869757,"changesets":205,"mappers":6,"roads":4.53582044346629,"buildings":419,"edits":841,"latest":"2017-12-09T21:18:17.000Z"},"geometry":{"type":"Point","coordinates":[27.7011607769266,-30.4029502361281]}},{"type":"Feature","properties":{"id":3886,"title":"#MapLesotho Phase 4 - Maseru East Airport","status":"PUBLISHED","created":"2017","lastUpdated":"2018","lastActive":"no","area":2.536619619390297,"changesets":358,"mappers":6,"roads":14.5518489678542,"buildings":1180,"edits":1961,"latest":"2018-09-11T13:21:29.000Z"},"geometry":{"type":"Point","coordinates":[27.5681683490178,-29.4357030419612]}},{"type":"Feature","properties":{"id":3887,"title":"#MapLesotho Phase 4 - Leribe Lejone","status":"PUBLISHED","created":"2017","lastUpdated":"2018","lastActive":"no","area":0.9313049194978957,"changesets":24,"mappers":5,"roads":0.692625852590988,"buildings":198,"edits":238,"latest":"2018-10-01T16:40:05.000Z"},"geometry":{"type":"Point","coordinates":[28.4869097882827,-29.109818374574]}},{"type":"Feature","properties":{"id":3885,"title":"#MapLesotho Phase 4 - Mafeteng Motsekuoa","status":"PUBLISHED","created":"2017","lastUpdated":"2018","lastActive":"no","area":1.504511592199441,"changesets":259,"mappers":8,"roads":3.59424989734915,"buildings":2056,"edits":2661,"latest":"2018-07-30T13:16:18.000Z"},"geometry":{"type":"Point","coordinates":[27.4355582247084,-29.697359406389]}},{"type":"Feature","properties":{"id":3883,"title":"#MapLesotho Phase 4 - Quthing Alwynskop","status":"PUBLISHED","created":"2017","lastUpdated":"2018","lastActive":"no","area":1.449201594904091,"changesets":82,"mappers":1,"roads":6.405425731638,"buildings":892,"edits":1014,"latest":"2018-10-12T17:53:04.000Z"},"geometry":{"type":"Point","coordinates":[27.6207854657664,-30.3938860595116]}}],"totalArea":5619027.554620016,"Botswana":[{"type":"Feature","properties":{"id":2557,"title":"Missing Maps: villages of Tutume district, Botswana - Clinton Health Access Initiative","status":"ARCHIVED","created":"2017","lastUpdated":"2017","lastActive":"no","area":12679.773843905916,"changesets":0,"mappers":0,"roads":0,"buildings":0,"edits":0,"latest":null},"geometry":{"type":"Point","coordinates":[26.215692361954,-20.3998753421187]}},{"type":"Feature","properties":{"id":1991,"title":"Missing Maps: Ngami District, Botswana - Clinton Health Access Initiative ","status":"ARCHIVED","created":"2016","lastUpdated":"2017","lastActive":"no","area":65777.26250106131,"changesets":0,"mappers":0,"roads":0,"buildings":0,"edits":0,"latest":null},"geometry":{"type":"Point","coordinates":[23.2841323904972,-20.0026575598528]}},{"type":"Feature","properties":{"id":5181,"title":"Botswana, Okavango Sub-district - National Malaria Programme","status":"ARCHIVED","created":"2018","lastUpdated":"2018","lastActive":"no","area":32466.830756382315,"changesets":0,"mappers":0,"roads":0,"buildings":0,"edits":0,"latest":null},"geometry":{"type":"Point","coordinates":[22.008151679285,-18.9930660401322]}},{"type":"Feature","properties":{"id":4339,"title":"Botswana, Gumare Village - National Malaria Programme","status":"PUBLISHED","created":"2018","lastUpdated":"2018","lastActive":"no","area":62.94267106863238,"changesets":408,"mappers":51,"roads":114.3642599087,"buildings":2711,"edits":3636,"latest":"2018-04-18T10:29:18.000Z"},"geometry":{"type":"Point","coordinates":[22.1783284839623,-19.3262353380699]}},{"type":"Feature","properties":{"id":1772,"title":"Missing Maps: Chobe District, Botswana - Clinton Health Access Initiative ","status":"ARCHIVED","created":"2016","lastUpdated":"2017","lastActive":"no","area":21188.486703991395,"changesets":600,"mappers":121,"roads":1701.20767748245,"buildings":14170,"edits":20230,"latest":"2017-08-15T15:41:18.000Z"},"geometry":{"type":"Point","coordinates":[24.8039971245855,-18.5134283179712]}},{"type":"Feature","properties":{"id":2374,"title":"Missing Maps: Ngami District, Botswana -Part 4/5- Clinton Health Access Initiative - BUILDINGS ONLYoject","status":"ARCHIVED","created":"2016","lastUpdated":"2016","lastActive":"no","area":9146.493797836127,"changesets":0,"mappers":0,"roads":0,"buildings":0,"edits":0,"latest":null},"geometry":{"type":"Point","coordinates":[23.2213603571419,-19.783292692621]}},{"type":"Feature","properties":{"id":2152,"title":"Peace Corps -- Botswana","status":"PUBLISHED","created":"2016","lastUpdated":"2018","lastActive":"no","area":399.9650587062993,"changesets":3534,"mappers":386,"roads":3661.07145658057,"buildings":85793,"edits":113013,"latest":"2018-11-13T13:40:52.000Z"},"geometry":{"type":"Point","coordinates":[25.7667174209141,-23.123439124819]}},{"type":"Feature","properties":{"id":2376,"title":"Missing Maps: BOBIRWA District, Botswana -Part 1/2- Clinton Health Access Initiative - BUILDINGS ONLY  ","status":"ARCHIVED","created":"2016","lastUpdated":"2016","lastActive":"no","area":7146.471227371979,"changesets":2455,"mappers":47,"roads":23.8959178272802,"buildings":20700,"edits":20908,"latest":"2017-02-13T14:31:19.000Z"},"geometry":{"type":"Point","coordinates":[28.5849034996303,-22.1952816839487]}},{"type":"Feature","properties":{"id":897,"title":"Peace Corps Botswana - Shoshong I","status":"ARCHIVED","created":"2015","lastUpdated":"2016","lastActive":"no","area":2.0936381617597717,"changesets":254,"mappers":14,"roads":45.9038927706412,"buildings":2258,"edits":3656,"latest":"2016-09-01T08:16:04.000Z"},"geometry":{"type":"Point","coordinates":[26.5203764508492,-23.034845898527]}},{"type":"Feature","properties":{"id":1538,"title":"Peace Corps Botswana - Serowe","status":"PUBLISHED","created":"2016","lastUpdated":"2018","lastActive":"no","area":103.03380657395984,"changesets":1123,"mappers":127,"roads":507.440389502026,"buildings":18456,"edits":23113,"latest":"2018-09-12T08:44:26.000Z"},"geometry":{"type":"Point","coordinates":[26.7196956660752,-22.4060053626072]}},{"type":"Feature","properties":{"id":2511,"title":"MAITENGWE, Botswana, Clinton Health Access Initiative","status":"ARCHIVED","created":"2017","lastUpdated":"2017","lastActive":"no","area":742.3407665856527,"changesets":301,"mappers":4,"roads":0,"buildings":8123,"edits":8123,"latest":"2017-02-18T10:04:22.000Z"},"geometry":{"type":"Point","coordinates":[27.0463890362223,-20.1234060013298]}},{"type":"Feature","properties":{"id":2509,"title":"Missing Maps: NSWAZWI, Botswana - Clinton Health Access","status":"ARCHIVED","created":"2017","lastUpdated":"2017","lastActive":"no","area":156.20496768189332,"changesets":234,"mappers":4,"roads":0,"buildings":3401,"edits":3401,"latest":"2017-02-14T14:31:34.000Z"},"geometry":{"type":"Point","coordinates":[27.2294703221757,-20.6248308345425]}},{"type":"Feature","properties":{"id":2537,"title":"Missing Maps: BUILDINGS ONLY (4/5)  Botswana - Clinton Health Access Initiative","status":"ARCHIVED","created":"2017","lastUpdated":"2017","lastActive":"no","area":3107.54735593311,"changesets":0,"mappers":0,"roads":0,"buildings":0,"edits":0,"latest":null},"geometry":{"type":"Point","coordinates":[26.7275872377179,-20.4926988742273]}},{"type":"Feature","properties":{"id":2529,"title":"Missing Maps: GOSHWE, Botswana - Clinton Health Access Initiative","status":"ARCHIVED","created":"2017","lastUpdated":"2017","lastActive":"no","area":240.0800264822955,"changesets":0,"mappers":0,"roads":0,"buildings":0,"edits":0,"latest":null},"geometry":{"type":"Point","coordinates":[27.2381725518904,-20.4791243437741]}},{"type":"Feature","properties":{"id":2482,"title":"Missing Maps: Training #3, Botswana - Clinton Health Access Initiative","status":"ARCHIVED","created":"2017","lastUpdated":"2017","lastActive":"no","area":551.5249517516633,"changesets":239,"mappers":5,"roads":23.3898739510421,"buildings":973,"edits":1085,"latest":"2017-02-13T12:26:47.000Z"},"geometry":{"type":"Point","coordinates":[26.5749787423366,-20.4913235795466]}},{"type":"Feature","properties":{"id":2518,"title":"Missing Maps: Zone 2A, Botswana - Clinton Health Access Initiative","status":"ARCHIVED","created":"2017","lastUpdated":"2017","lastActive":"no","area":455.6379336094699,"changesets":44,"mappers":5,"roads":123.480967542219,"buildings":399,"edits":563,"latest":"2017-02-15T10:45:11.000Z"},"geometry":{"type":"Point","coordinates":[25.7781965392702,-21.7544639123788]}},{"type":"Feature","properties":{"id":882,"title":"Peace Corps Botswana - Ghanzi II","status":"ARCHIVED","created":"2015","lastUpdated":"2015","lastActive":"no","area":7.7984241198764455,"changesets":91,"mappers":10,"roads":22.8525811480595,"buildings":789,"edits":1023,"latest":"2015-06-30T16:22:49.000Z"},"geometry":{"type":"Point","coordinates":[21.654697421026,-21.6860984629844]}},{"type":"Feature","properties":{"id":5162,"title":"Botswana, Boteti Sub-district - National Malaria Programme","status":"ARCHIVED","created":"2018","lastUpdated":"2018","lastActive":"no","area":16562.83359044561,"changesets":3,"mappers":2,"roads":0,"buildings":12,"edits":12,"latest":"2018-09-05T18:50:51.000Z"},"geometry":{"type":"Point","coordinates":[24.6092839036636,-21.0752686480163]}},{"type":"Feature","properties":{"id":5185,"title":"Botswana, Bobirwa Sub-district - 02 - National Malaria Programme","status":"ARCHIVED","created":"2018","lastUpdated":"2018","lastActive":"no","area":1470.7566346831622,"changesets":66,"mappers":21,"roads":33.664184057159,"buildings":347,"edits":378,"latest":"2018-09-12T17:11:40.000Z"},"geometry":{"type":"Point","coordinates":[28.50484696108,-22.3820740784452]}},{"type":"Feature","properties":{"id":881,"title":"Peace Corps Botswana - Ghanzi I","status":"ARCHIVED","created":"2015","lastUpdated":"2015","lastActive":"no","area":9.565040828025442,"changesets":344,"mappers":14,"roads":30.2804640524472,"buildings":3849,"edits":4585,"latest":"2015-08-21T16:00:54.000Z"},"geometry":{"type":"Point","coordinates":[21.6485916959472,-21.7063267069395]}},{"type":"Feature","properties":{"id":5183,"title":"Botswana, Tutume Sub-district - Road Network Improvement","status":"PUBLISHED","created":"2018","lastUpdated":"2018","lastActive":"yes","area":10265.790520967448,"changesets":1265,"mappers":140,"roads":3452.96574864892,"buildings":2188,"edits":7237,"latest":"2018-12-12T02:09:36.000Z"},"geometry":{"type":"Point","coordinates":[25.8188327114728,-20.0815413865541]}},{"type":"Feature","properties":{"id":4382,"title":"Botswana, Nata Village (re-do) - National Malaria Programme","status":"PUBLISHED","created":"2018","lastUpdated":"2018","lastActive":"no","area":434.7624185220041,"changesets":662,"mappers":110,"roads":697.130695316267,"buildings":3508,"edits":6902,"latest":"2018-04-14T08:01:09.000Z"},"geometry":{"type":"Point","coordinates":[26.1684393154216,-20.392170608413]}},{"type":"Feature","properties":{"id":4337,"title":"Botswana, Nata Village - National Malaria Programme","status":"ARCHIVED","created":"2018","lastUpdated":"2018","lastActive":"no","area":434.7624185042024,"changesets":307,"mappers":52,"roads":193.648583756651,"buildings":1256,"edits":1783,"latest":"2018-03-29T17:19:17.000Z"},"geometry":{"type":"Point","coordinates":[26.168439315419,-20.3921706084066]}},{"type":"Feature","properties":{"id":2507,"title":"Missing Maps: Nata, Botswana - Clinton Health Access Initiative","status":"ARCHIVED","created":"2017","lastUpdated":"2017","lastActive":"no","area":3056.121403849905,"changesets":88,"mappers":2,"roads":0.000221877779758245,"buildings":896,"edits":900,"latest":"2017-03-04T12:27:25.000Z"},"geometry":{"type":"Point","coordinates":[26.1401585287195,-20.5135760976171]}},{"type":"Feature","properties":{"id":2504,"title":"Kedia, Botswana","status":"ARCHIVED","created":"2017","lastUpdated":"2017","lastActive":"no","area":392.97147653587194,"changesets":83,"mappers":1,"roads":0.0000128968755100445,"buildings":1055,"edits":1061,"latest":"2017-02-09T14:31:56.000Z"},"geometry":{"type":"Point","coordinates":[24.71970858006,-21.3638031480407]}},{"type":"Feature","properties":{"id":1035,"title":"Peace Corps Botswana - Molepolole III","status":"PUBLISHED","created":"2015","lastUpdated":"2017","lastActive":"no","area":14.04745954473544,"changesets":538,"mappers":49,"roads":28.6935776094552,"buildings":6177,"edits":6837,"latest":"2017-02-24T10:34:09.000Z"},"geometry":{"type":"Point","coordinates":[25.5010282541785,-24.3865919107098]}},{"type":"Feature","properties":{"id":2514,"title":"KHUMAGA, Botswana, Clinton Health Access Initiative","status":"ARCHIVED","created":"2017","lastUpdated":"2017","lastActive":"no","area":710.0664176037427,"changesets":258,"mappers":2,"roads":0.001811493892779,"buildings":1308,"edits":1316,"latest":"2017-02-14T14:24:29.000Z"},"geometry":{"type":"Point","coordinates":[24.3560104041127,-20.4869353629065]}},{"type":"Feature","properties":{"id":1990,"title":"Missing Maps: Okavango District, Botswana - Clinton Health Access Initiative - BUILDINGS ONLY","status":"ARCHIVED","created":"2016","lastUpdated":"2017","lastActive":"no","area":46246.260994317374,"changesets":2838,"mappers":174,"roads":5970.17288197357,"buildings":35953,"edits":79004,"latest":"2016-12-09T12:53:33.000Z"},"geometry":{"type":"Point","coordinates":[22.0464839391768,-19.0586132232621]}},{"type":"Feature","properties":{"id":2491,"title":"Changate, Botswana - Clinton Health Access Initiative","status":"ARCHIVED","created":"2017","lastUpdated":"2017","lastActive":"no","area":93.80606413322549,"changesets":87,"mappers":1,"roads":0,"buildings":1733,"edits":1733,"latest":"2017-02-10T14:31:35.000Z"},"geometry":{"type":"Point","coordinates":[27.237449845083,-20.29682033743]}},{"type":"Feature","properties":{"id":2512,"title":"WMA, Botswana, Clinton Health Access Initiative","status":"ARCHIVED","created":"2017","lastUpdated":"2017","lastActive":"no","area":10119.295625237915,"changesets":10,"mappers":1,"roads":0,"buildings":207,"edits":207,"latest":"2017-02-14T10:28:14.000Z"},"geometry":{"type":"Point","coordinates":[25.6000717391353,-19.4105744561759]}},{"type":"Feature","properties":{"id":2497,"title":"MARAPONG, Botswana - Clinton Health Access Initiative","status":"ARCHIVED","created":"2017","lastUpdated":"2017","lastActive":"no","area":404.47681596670554,"changesets":127,"mappers":2,"roads":0,"buildings":2889,"edits":2889,"latest":"2017-02-17T06:20:49.000Z"},"geometry":{"type":"Point","coordinates":[26.9638444741489,-20.8946752912905]}},{"type":"Feature","properties":{"id":2517,"title":"Missing Maps: Mosu, Botswana - Clinton Health Access Initiative","status":"ARCHIVED","created":"2017","lastUpdated":"2017","lastActive":"no","area":2220.4774511050036,"changesets":115,"mappers":10,"roads":15.9142033171499,"buildings":1089,"edits":1153,"latest":"2017-02-20T14:28:30.000Z"},"geometry":{"type":"Point","coordinates":[26.0504000315427,-21.1107601577386]}},{"type":"Feature","properties":{"id":1331,"title":"Peace Corps Botswana - Goodhope","status":"ARCHIVED","created":"2015","lastUpdated":"2016","lastActive":"no","area":62.06260037376828,"changesets":674,"mappers":33,"roads":564.874062205233,"buildings":5335,"edits":10718,"latest":"2016-03-02T23:34:31.000Z"},"geometry":{"type":"Point","coordinates":[25.4586365642769,-25.4834764948192]}},{"type":"Feature","properties":{"id":891,"title":"Peace Corps Botswana - Shakawe IV","status":"ARCHIVED","created":"2015","lastUpdated":"2016","lastActive":"no","area":13.368616308666791,"changesets":153,"mappers":13,"roads":36.4702363673944,"buildings":504,"edits":1000,"latest":"2016-08-20T18:19:54.000Z"},"geometry":{"type":"Point","coordinates":[21.8212448316571,-18.3374377925001]}},{"type":"Feature","properties":{"id":1099,"title":"Peace Corps Botswana - Francistown","status":"ARCHIVED","created":"2015","lastUpdated":"2017","lastActive":"no","area":104.562896710975,"changesets":991,"mappers":108,"roads":1750.96965222628,"buildings":27404,"edits":35860,"latest":"2018-03-05T08:51:15.000Z"},"geometry":{"type":"Point","coordinates":[27.5077143602993,-21.1735716520143]}},{"type":"Feature","properties":{"id":1162,"title":"Peace Corps Botswana - Mathathane","status":"ARCHIVED","created":"2015","lastUpdated":"2016","lastActive":"no","area":3.4753621827977477,"changesets":35,"mappers":7,"roads":14.0990783535182,"buildings":348,"edits":479,"latest":"2016-05-10T14:29:03.000Z"},"geometry":{"type":"Point","coordinates":[28.74806515514,-22.2684164073292]}},{"type":"Feature","properties":{"id":2452,"title":"Missing Maps: Tutume Village, Tutume District, Botswana - Clinton Health Access Initiative","status":"ARCHIVED","created":"2017","lastUpdated":"2017","lastActive":"no","area":783.2954247950306,"changesets":319,"mappers":10,"roads":18.8532237489258,"buildings":1881,"edits":1955,"latest":"2017-02-16T14:25:28.000Z"},"geometry":{"type":"Point","coordinates":[27.0308195890078,-20.5073448184245]}},{"type":"Feature","properties":{"id":2531,"title":"Missing Maps: XHUMO, Botswana - Clinton Health Access Initiative","status":"ARCHIVED","created":"2017","lastUpdated":"2017","lastActive":"no","area":671.5956891817073,"changesets":0,"mappers":0,"roads":0,"buildings":0,"edits":0,"latest":null},"geometry":{"type":"Point","coordinates":[24.6124969127515,-21.2394687054567]}},{"type":"Feature","properties":{"id":2530,"title":"Missing Maps: TOROMOJA, Botswana - Clinton Health Access Initiative","status":"ARCHIVED","created":"2017","lastUpdated":"2017","lastActive":"no","area":313.41902484934343,"changesets":0,"mappers":0,"roads":0,"buildings":0,"edits":0,"latest":null},"geometry":{"type":"Point","coordinates":[24.6083678501743,-21.0577627315384]}},{"type":"Feature","properties":{"id":1513,"title":"Peace Corps Botswana - Maun","status":"ARCHIVED","created":"2016","lastUpdated":"2016","lastActive":"no","area":96.34975375540765,"changesets":1749,"mappers":138,"roads":825.663688851591,"buildings":45930,"edits":59711,"latest":"2016-03-22T09:28:24.000Z"},"geometry":{"type":"Point","coordinates":[23.4396045710877,-19.9882200021714]}}],"Zimbabwe":[{"type":"Feature","properties":{"id":2823,"title":"Missing Maps: Zimbabwe Malaria Elimination 41","status":"ARCHIVED","created":"2017","lastUpdated":"2017","lastActive":"no","area":54.64109539947108,"changesets":877,"mappers":52,"roads":2.73130250220412,"buildings":8237,"edits":8261,"latest":"2017-07-16T21:26:30.000Z"},"geometry":{"type":"Point","coordinates":[27.9261917409197,-18.19937446157]}},{"type":"Feature","properties":{"id":4468,"title":"Missing Maps: West Harare, Zimbabwe 3/5","status":"ARCHIVED","created":"2018","lastUpdated":"2018","lastActive":"no","area":5.871127416958808,"changesets":297,"mappers":48,"roads":10.4045277044697,"buildings":4219,"edits":4409,"latest":"2018-05-04T11:27:02.000Z"},"geometry":{"type":"Point","coordinates":[30.9191490199491,-17.8906588959121]}},{"type":"Feature","properties":{"id":4466,"title":"Missing Maps: West Harare, Zimbabwe 1/5","status":"ARCHIVED","created":"2018","lastUpdated":"2018","lastActive":"no","area":6.934755919805506,"changesets":432,"mappers":43,"roads":17.670341634145,"buildings":7231,"edits":7564,"latest":"2018-05-03T11:12:48.000Z"},"geometry":{"type":"Point","coordinates":[30.8995299705196,-17.8794812737692]}},{"type":"Feature","properties":{"id":4470,"title":"Missing Maps: West Harare, Zimbabwe 5/5","status":"ARCHIVED","created":"2018","lastUpdated":"2018","lastActive":"no","area":7.261962379932375,"changesets":600,"mappers":67,"roads":11.6548363287533,"buildings":7140,"edits":7402,"latest":"2018-05-03T12:03:37.000Z"},"geometry":{"type":"Point","coordinates":[30.9408151333863,-17.90220137385]}},{"type":"Feature","properties":{"id":2732,"title":"Missing Maps: Zimbabwe Malaria Elimination 5","status":"ARCHIVED","created":"2017","lastUpdated":"2017","lastActive":"no","area":41.71815753787245,"changesets":1137,"mappers":50,"roads":16.9178368204629,"buildings":8332,"edits":8454,"latest":"2017-08-05T21:43:27.000Z"},"geometry":{"type":"Point","coordinates":[26.6283924837683,-18.1336524723816]}},{"type":"Feature","properties":{"id":2758,"title":"Missing Maps: Zimbabwe Malaria Elimination 9","status":"ARCHIVED","created":"2017","lastUpdated":"2017","lastActive":"no","area":45.82807193453851,"changesets":900,"mappers":41,"roads":19.0038743691646,"buildings":9055,"edits":9101,"latest":"2017-04-25T05:41:50.000Z"},"geometry":{"type":"Point","coordinates":[27.1797077255989,-18.5842296424011]}},{"type":"Feature","properties":{"id":2739,"title":"Missing Maps: Zimbabwe Malaria Elimination 7","status":"ARCHIVED","created":"2017","lastUpdated":"2017","lastActive":"no","area":49.15595302659425,"changesets":656,"mappers":30,"roads":261.53430399888,"buildings":12086,"edits":14378,"latest":"2017-08-07T13:49:11.000Z"},"geometry":{"type":"Point","coordinates":[26.8538153160123,-18.5232733367907]}},{"type":"Feature","properties":{"id":2787,"title":"Missing Maps: Zimbabwe Malaria Elimination 20","status":"ARCHIVED","created":"2017","lastUpdated":"2017","lastActive":"no","area":56.49732632571366,"changesets":753,"mappers":44,"roads":26.0022231041538,"buildings":5808,"edits":6478,"latest":"2017-05-06T02:40:27.000Z"},"geometry":{"type":"Point","coordinates":[27.2275566064518,-18.2871393168152]}},{"type":"Feature","properties":{"id":3890,"title":"Road network Zimbabwe (2)","status":"ARCHIVED","created":"2017","lastUpdated":"2018","lastActive":"no","area":994.1777468745335,"changesets":975,"mappers":107,"roads":4228.79707078348,"buildings":1284,"edits":20601,"latest":"2018-06-11T14:27:49.000Z"},"geometry":{"type":"Point","coordinates":[30.8705074219935,-19.4741958029124]}},{"type":"Feature","properties":{"id":4467,"title":"Missing Maps: West Harare, Zimbabwe 2/5","status":"ARCHIVED","created":"2018","lastUpdated":"2018","lastActive":"no","area":4.219669061118951,"changesets":104,"mappers":22,"roads":23.515697663126,"buildings":1282,"edits":1511,"latest":"2018-04-29T11:25:01.000Z"},"geometry":{"type":"Point","coordinates":[30.9351296047106,-17.919704092956]}},{"type":"Feature","properties":{"id":2829,"title":"Missing Maps: Zimbabwe Malaria Elimination 47","status":"ARCHIVED","created":"2017","lastUpdated":"2017","lastActive":"no","area":448.7195233692771,"changesets":1202,"mappers":37,"roads":0,"buildings":10502,"edits":10502,"latest":"2017-04-15T18:08:32.000Z"},"geometry":{"type":"Point","coordinates":[27.3087888892253,-20.1069999567029]}},{"type":"Feature","properties":{"id":2840,"title":"Missing Maps: Zimbabwe Malaria Elimination 55","status":"ARCHIVED","created":"2017","lastUpdated":"2017","lastActive":"no","area":750.5083234989515,"changesets":1738,"mappers":47,"roads":41.8380577449768,"buildings":14247,"edits":14331,"latest":"2017-04-25T03:46:39.000Z"},"geometry":{"type":"Point","coordinates":[28.8830908782938,-18.6571673509074]}},{"type":"Feature","properties":{"id":2856,"title":"Missing Maps: Zimbabwe Malaria Elimination 66","status":"ARCHIVED","created":"2017","lastUpdated":"2017","lastActive":"no","area":885.6906814881532,"changesets":1623,"mappers":107,"roads":108.711686765107,"buildings":11072,"edits":11388,"latest":"2017-06-27T19:43:01.000Z"},"geometry":{"type":"Point","coordinates":[27.9649328281125,-20.2588016279664]}},{"type":"Feature","properties":{"id":2858,"title":"Missing Maps: Zimbabwe Malaria Elimination 68","status":"ARCHIVED","created":"2017","lastUpdated":"2017","lastActive":"no","area":670.5467522568063,"changesets":1713,"mappers":50,"roads":30.5299813651658,"buildings":21623,"edits":21784,"latest":"2017-08-07T23:28:32.000Z"},"geometry":{"type":"Point","coordinates":[27.8300125726206,-20.9690565655556]}},{"type":"Feature","properties":{"id":2870,"title":"Missing Maps: Zimbabwe Malaria Elimination 78","status":"ARCHIVED","created":"2017","lastUpdated":"2017","lastActive":"no","area":826.6994036996933,"changesets":1362,"mappers":59,"roads":50.3545425528962,"buildings":13002,"edits":13227,"latest":"2017-04-25T17:44:11.000Z"},"geometry":{"type":"Point","coordinates":[28.9559069145901,-20.7415598912591]}},{"type":"Feature","properties":{"id":2878,"title":"Missing Maps: Zimbabwe Malaria Elimination 82","status":"ARCHIVED","created":"2017","lastUpdated":"2017","lastActive":"no","area":800.079583441679,"changesets":2026,"mappers":42,"roads":0.449452477470892,"buildings":20672,"edits":20894,"latest":"2017-05-12T07:04:04.000Z"},"geometry":{"type":"Point","coordinates":[28.2880657983173,-21.4679016200147]}},{"type":"Feature","properties":{"id":2900,"title":"Missing Maps: Zimbabwe Malaria Elimination 94","status":"ARCHIVED","created":"2017","lastUpdated":"2017","lastActive":"no","area":1108.7641464450846,"changesets":1663,"mappers":55,"roads":19.691640370056,"buildings":15599,"edits":15693,"latest":"2017-08-11T15:59:08.000Z"},"geometry":{"type":"Point","coordinates":[28.7851345739144,-17.3112158229841]}},{"type":"Feature","properties":{"id":2795,"title":"Missing Maps: Zimbabwe Malaria Elimination 24","status":"ARCHIVED","created":"2017","lastUpdated":"2017","lastActive":"no","area":56.22241484399556,"changesets":815,"mappers":48,"roads":18.8222870590669,"buildings":8003,"edits":8212,"latest":"2017-08-05T13:44:44.000Z"},"geometry":{"type":"Point","coordinates":[28.4675832865777,-19.027234884057]}},{"type":"Feature","properties":{"id":2851,"title":"Missing Maps: Zimbabwe Malaria Elimination 62","status":"ARCHIVED","created":"2017","lastUpdated":"2017","lastActive":"no","area":1581.0960909738353,"changesets":1632,"mappers":47,"roads":0.701317044790455,"buildings":17571,"edits":17770,"latest":"2017-04-20T06:05:18.000Z"},"geometry":{"type":"Point","coordinates":[28.4689805413047,-19.9788253620067]}},{"type":"Feature","properties":{"id":2911,"title":"Do Not Use, Replaced","status":"ARCHIVED","created":"2017","lastUpdated":"2017","lastActive":"no","area":1007.2709701767525,"changesets":0,"mappers":0,"roads":0,"buildings":0,"edits":0,"latest":null},"geometry":{"type":"Point","coordinates":[29.1354017671059,-17.4077822101653]}},{"type":"Feature","properties":{"id":2916,"title":"Missing Maps: Zimbabwe Malaria Elimination 100","status":"ARCHIVED","created":"2017","lastUpdated":"2017","lastActive":"no","area":1398.0254294858028,"changesets":1659,"mappers":40,"roads":98.3396528561587,"buildings":19366,"edits":19500,"latest":"2017-05-13T00:52:35.000Z"},"geometry":{"type":"Point","coordinates":[29.1850918222668,-17.6837638975717]}},{"type":"Feature","properties":{"id":2797,"title":"Missing Maps: Zimbabwe Malaria Elimination 26","status":"ARCHIVED","created":"2017","lastUpdated":"2017","lastActive":"no","area":41.06167340898977,"changesets":564,"mappers":24,"roads":2.55060485020248,"buildings":6515,"edits":6533,"latest":"2017-08-09T20:54:08.000Z"},"geometry":{"type":"Point","coordinates":[28.0037013409184,-18.9878336004839]}},{"type":"Feature","properties":{"id":2941,"title":"Missing Maps: Zimbabwe Malaria Elimination 114","status":"ARCHIVED","created":"2017","lastUpdated":"2017","lastActive":"no","area":836.3498563796146,"changesets":1818,"mappers":72,"roads":20.1361360377823,"buildings":21309,"edits":21537,"latest":"2017-08-17T10:26:46.000Z"},"geometry":{"type":"Point","coordinates":[29.222457298371,-18.5487700719139]}},{"type":"Feature","properties":{"id":2963,"title":"Missing Maps: Zimbabwe Malaria Elimination 127","status":"ARCHIVED","created":"2017","lastUpdated":"2017","lastActive":"no","area":813.3539894540471,"changesets":2304,"mappers":133,"roads":133.278000513283,"buildings":19091,"edits":19847,"latest":"2017-08-02T16:55:10.000Z"},"geometry":{"type":"Point","coordinates":[31.1366344811849,-19.1512185671456]}},{"type":"Feature","properties":{"id":2969,"title":"Missing Maps: Zimbabwe Malaria Elimination 129","status":"ARCHIVED","created":"2017","lastUpdated":"2017","lastActive":"no","area":645.5616655371582,"changesets":1333,"mappers":47,"roads":7.92276066058569,"buildings":16174,"edits":16334,"latest":"2017-05-11T19:43:14.000Z"},"geometry":{"type":"Point","coordinates":[29.1598266459534,-19.118248825991]}},{"type":"Feature","properties":{"id":2943,"title":"Missing Maps: Zimbabwe Malaria Elimination 116","status":"ARCHIVED","created":"2017","lastUpdated":"2017","lastActive":"no","area":663.1540269615123,"changesets":2078,"mappers":107,"roads":6.09972445031809,"buildings":18717,"edits":18848,"latest":"2017-05-05T06:37:06.000Z"},"geometry":{"type":"Point","coordinates":[29.0797990850103,-18.9353270820932]}},{"type":"Feature","properties":{"id":2976,"title":"Missing Maps: Zimbabwe Malaria Elimination 132","status":"ARCHIVED","created":"2017","lastUpdated":"2017","lastActive":"no","area":350.88029239505295,"changesets":1179,"mappers":37,"roads":0.0216834195097381,"buildings":16707,"edits":16717,"latest":"2017-05-15T04:27:38.000Z"},"geometry":{"type":"Point","coordinates":[29.4876286195405,-19.3114923056629]}},{"type":"Feature","properties":{"id":2949,"title":"Missing Maps: Zimbabwe Malaria Elimination 120","status":"ARCHIVED","created":"2017","lastUpdated":"2017","lastActive":"no","area":1404.8127933253527,"changesets":1781,"mappers":95,"roads":30.2994533953136,"buildings":11885,"edits":12233,"latest":"2017-05-11T07:36:13.000Z"},"geometry":{"type":"Point","coordinates":[30.5920731524007,-18.9055060637847]}},{"type":"Feature","properties":{"id":2996,"title":"Missing Maps: Zimbabwe Malaria Elimination 138","status":"ARCHIVED","created":"2017","lastUpdated":"2017","lastActive":"no","area":1339.950620889106,"changesets":1064,"mappers":25,"roads":14.9056884598634,"buildings":12527,"edits":12561,"latest":"2017-05-18T08:28:47.000Z"},"geometry":{"type":"Point","coordinates":[29.798937961672,-19.7751057981346]}},{"type":"Feature","properties":{"id":2983,"title":"Missing Maps: Zimbabwe Malaria Elimination 135","status":"ARCHIVED","created":"2017","lastUpdated":"2017","lastActive":"no","area":1558.4975300443505,"changesets":1076,"mappers":18,"roads":12.5034732947381,"buildings":9430,"edits":9450,"latest":"2017-05-16T08:49:02.000Z"},"geometry":{"type":"Point","coordinates":[29.5221978275255,-19.6178150573795]}},{"type":"Feature","properties":{"id":3191,"title":"Missing Maps: Zimbabwe Malaria Elimination 206","status":"ARCHIVED","created":"2017","lastUpdated":"2017","lastActive":"no","area":200.1057875494198,"changesets":1131,"mappers":78,"roads":3.81025624799403,"buildings":24003,"edits":24576,"latest":"2017-06-29T16:08:32.000Z"},"geometry":{"type":"Point","coordinates":[28.642212015928,-20.1626701893723]}},{"type":"Feature","properties":{"id":2832,"title":"Missing Maps: Zimbabwe Malaria Elimination 49","status":"ARCHIVED","created":"2017","lastUpdated":"2017","lastActive":"no","area":1088.6982044458798,"changesets":2110,"mappers":45,"roads":3.74178440964477,"buildings":52569,"edits":52847,"latest":"2017-05-30T04:39:22.000Z"},"geometry":{"type":"Point","coordinates":[27.797723802379,-18.3456571815474]}},{"type":"Feature","properties":{"id":2825,"title":"Missing Maps: Zimbabwe Malaria Elimination 43","status":"ARCHIVED","created":"2017","lastUpdated":"2017","lastActive":"no","area":53.35566178284181,"changesets":822,"mappers":34,"roads":7.67328006313057,"buildings":6647,"edits":6717,"latest":"2017-07-30T17:08:33.000Z"},"geometry":{"type":"Point","coordinates":[27.7195831852525,-18.1499513381137]}},{"type":"Feature","properties":{"id":2808,"title":"Missing Maps: Zimbabwe Malaria Elimination 35","status":"ARCHIVED","created":"2017","lastUpdated":"2017","lastActive":"no","area":56.34732182955632,"changesets":839,"mappers":50,"roads":1.58779736443398,"buildings":7724,"edits":7753,"latest":"2017-04-18T03:57:16.000Z"},"geometry":{"type":"Point","coordinates":[27.5374017415249,-17.9314105636508]}},{"type":"Feature","properties":{"id":2888,"title":"Missing Maps: Zimbabwe Malaria Elimination 89","status":"ARCHIVED","created":"2017","lastUpdated":"2017","lastActive":"no","area":751.2995980735323,"changesets":1750,"mappers":65,"roads":13.2047755888788,"buildings":11022,"edits":11151,"latest":"2017-05-02T01:47:41.000Z"},"geometry":{"type":"Point","coordinates":[29.0666860293344,-21.6378048707465]}},{"type":"Feature","properties":{"id":2924,"title":"Missing Maps: Zimbabwe Malaria Elimination 106","status":"ARCHIVED","created":"2017","lastUpdated":"2017","lastActive":"no","area":692.8571717865406,"changesets":1621,"mappers":39,"roads":9.57999519456574,"buildings":15112,"edits":15160,"latest":"2017-05-02T00:26:27.000Z"},"geometry":{"type":"Point","coordinates":[28.2538906009342,-18.3532722678745]}},{"type":"Feature","properties":{"id":2933,"title":"Missing Maps: Zimbabwe Malaria Elimination 112","status":"ARCHIVED","created":"2017","lastUpdated":"2017","lastActive":"no","area":691.0423465045619,"changesets":1872,"mappers":72,"roads":139.142328439926,"buildings":20623,"edits":21151,"latest":"2017-05-09T08:28:05.000Z"},"geometry":{"type":"Point","coordinates":[29.2341535198336,-18.3230460200127]}},{"type":"Feature","properties":{"id":2838,"title":"Missing Maps: Zimbabwe Malaria Elimination 53","status":"ARCHIVED","created":"2017","lastUpdated":"2017","lastActive":"no","area":711.9087745941038,"changesets":1325,"mappers":88,"roads":16.5796252082774,"buildings":19886,"edits":20758,"latest":"2017-04-23T20:24:06.000Z"},"geometry":{"type":"Point","coordinates":[28.5752808103955,-18.652681205333]}},{"type":"Feature","properties":{"id":2846,"title":"Missing Maps: Zimbabwe Malaria Elimination 58","status":"ARCHIVED","created":"2017","lastUpdated":"2017","lastActive":"no","area":903.2056705079176,"changesets":1701,"mappers":72,"roads":11.5105254369568,"buildings":17463,"edits":17771,"latest":"2017-04-29T09:29:00.000Z"},"geometry":{"type":"Point","coordinates":[27.6525824119396,-19.5605607324227]}},{"type":"Feature","properties":{"id":2805,"title":"Missing Maps: Zimbabwe Malaria Elimination 34","status":"ARCHIVED","created":"2017","lastUpdated":"2017","lastActive":"no","area":52.52290646149716,"changesets":1612,"mappers":57,"roads":1.60843244639418,"buildings":12535,"edits":12703,"latest":"2017-08-13T23:58:52.000Z"},"geometry":{"type":"Point","coordinates":[27.3069014746024,-17.8308419103354]}},{"type":"Feature","properties":{"id":2813,"title":"Mistake Do Not Use","status":"ARCHIVED","created":"2017","lastUpdated":"2017","lastActive":"no","area":54.7652059193273,"changesets":0,"mappers":0,"roads":0,"buildings":0,"edits":0,"latest":null},"geometry":{"type":"Point","coordinates":[27.3359411150269,-18.347976081161]}},{"type":"Feature","properties":{"id":2860,"title":"Missing Maps: Zimbabwe Malaria Elimination 70","status":"ARCHIVED","created":"2017","lastUpdated":"2017","lastActive":"no","area":600.7456201464605,"changesets":2044,"mappers":81,"roads":29.7641093903686,"buildings":16025,"edits":16077,"latest":"2017-07-19T14:34:55.000Z"},"geometry":{"type":"Point","coordinates":[28.0097009406958,-21.2532876901318]}},{"type":"Feature","properties":{"id":2827,"title":"Missing Maps: Zimbabwe Malaria Elimination 45","status":"ARCHIVED","created":"2017","lastUpdated":"2017","lastActive":"no","area":56.37261573354931,"changesets":679,"mappers":28,"roads":2.84719864052578,"buildings":5854,"edits":5875,"latest":"2017-04-16T09:59:11.000Z"},"geometry":{"type":"Point","coordinates":[27.5219570339021,-18.4524482241218]}},{"type":"Feature","properties":{"id":868,"title":"Missing Maps: Epworth, Zimbabwe","status":"ARCHIVED","created":"2015","lastUpdated":"2016","lastActive":"no","area":63.14062928614545,"changesets":6586,"mappers":159,"roads":751.239837478883,"buildings":23208,"edits":50216,"latest":"2015-04-21T10:00:25.000Z"},"geometry":{"type":"Point","coordinates":[31.1478316708795,-17.9060137921115]}},{"type":"Feature","properties":{"id":2998,"title":"Missing Maps: Zimbabwe Malaria Elimination 140","status":"ARCHIVED","created":"2017","lastUpdated":"2017","lastActive":"no","area":804.7792095461232,"changesets":1621,"mappers":63,"roads":3.63328116795482,"buildings":17755,"edits":17838,"latest":"2017-05-22T12:48:12.000Z"},"geometry":{"type":"Point","coordinates":[30.5531221656975,-19.4738085007803]}},{"type":"Feature","properties":{"id":2815,"title":"Missing Maps: Zimbabwe Malaria Elimination 39","status":"ARCHIVED","created":"2017","lastUpdated":"2017","lastActive":"no","area":49.89364930366843,"changesets":759,"mappers":36,"roads":38.2810102355844,"buildings":5482,"edits":5586,"latest":"2017-05-21T20:16:58.000Z"},"geometry":{"type":"Point","coordinates":[27.7987680764498,-18.0167813584068]}},{"type":"Feature","properties":{"id":2811,"title":"Missing Maps: Zimbabwe Malaria Elimination 37","status":"ARCHIVED","created":"2017","lastUpdated":"2017","lastActive":"no","area":54.7652059193273,"changesets":1416,"mappers":34,"roads":0.00311241980128756,"buildings":13921,"edits":13925,"latest":"2017-04-29T11:22:57.000Z"},"geometry":{"type":"Point","coordinates":[27.3359411150269,-18.347976081161]}},{"type":"Feature","properties":{"id":3133,"title":"Missing Maps: Zimbabwe Malaria Elimination 186","status":"ARCHIVED","created":"2017","lastUpdated":"2017","lastActive":"no","area":408.5777626013577,"changesets":1510,"mappers":28,"roads":2.10027285288437,"buildings":14938,"edits":14974,"latest":"2017-06-08T18:44:16.000Z"},"geometry":{"type":"Point","coordinates":[30.2883779535857,-17.7232869543712]}},{"type":"Feature","properties":{"id":3111,"title":"Missing Maps: Zimbabwe Malaria Elimination 171","status":"ARCHIVED","created":"2017","lastUpdated":"2017","lastActive":"no","area":1190.1669798875268,"changesets":1595,"mappers":36,"roads":11.7322879915586,"buildings":22240,"edits":22286,"latest":"2017-07-14T11:30:37.000Z"},"geometry":{"type":"Point","coordinates":[29.9113257369465,-17.0079121058246]}},{"type":"Feature","properties":{"id":3119,"title":"Missing Maps: Zimbabwe Malaria Elimination 175","status":"ARCHIVED","created":"2017","lastUpdated":"2017","lastActive":"no","area":930.6776345634797,"changesets":1830,"mappers":28,"roads":0.67807207985852,"buildings":20626,"edits":20658,"latest":"2017-07-19T05:59:02.000Z"},"geometry":{"type":"Point","coordinates":[29.6893301142335,-17.2297557534568]}},{"type":"Feature","properties":{"id":3091,"title":"Missing Maps: Zimbabwe Malaria Elimination 165","status":"ARCHIVED","created":"2017","lastUpdated":"2017","lastActive":"no","area":636.1436044775421,"changesets":933,"mappers":22,"roads":0.480242074978502,"buildings":21711,"edits":21756,"latest":"2017-05-31T05:48:57.000Z"},"geometry":{"type":"Point","coordinates":[29.7405924072834,-16.7766913522357]}},{"type":"Feature","properties":{"id":2286,"title":"Missing Maps: Mwezeni District, Zimbabwe (roads and settlements)","status":"PUBLISHED","created":"2016","lastUpdated":"2018","lastActive":"no","area":13275.258682859241,"changesets":4131,"mappers":371,"roads":12590.212089941,"buildings":12704,"edits":42335,"latest":"2018-12-05T12:09:09.000Z"},"geometry":{"type":"Point","coordinates":[30.6917474873179,-21.3654288722803]}},{"type":"Feature","properties":{"id":2958,"title":"Missing Maps: Zimbabwe Malaria Elimination 123","status":"ARCHIVED","created":"2017","lastUpdated":"2017","lastActive":"no","area":493.0496413377599,"changesets":2062,"mappers":74,"roads":0.318310026732813,"buildings":16286,"edits":16314,"latest":"2017-07-19T17:49:45.000Z"},"geometry":{"type":"Point","coordinates":[31.491969543418,-18.9734607361612]}},{"type":"Feature","properties":{"id":2880,"title":"Missing Maps: Zimbabwe Malaria Elimination 84","status":"ARCHIVED","created":"2017","lastUpdated":"2017","lastActive":"no","area":849.839614543162,"changesets":1549,"mappers":53,"roads":0.0206834947756005,"buildings":18205,"edits":18264,"latest":"2017-05-12T07:17:44.000Z"},"geometry":{"type":"Point","coordinates":[28.5014200992884,-21.2166957370388]}},{"type":"Feature","properties":{"id":3013,"title":"Missing Maps: Zimbabwe Malaria Elimination 142","status":"ARCHIVED","created":"2017","lastUpdated":"2017","lastActive":"no","area":951.5267715664739,"changesets":2005,"mappers":114,"roads":220.788374419228,"buildings":22053,"edits":22760,"latest":"2017-05-31T22:07:57.000Z"},"geometry":{"type":"Point","coordinates":[30.37435373283,-19.6945231476376]}},{"type":"Feature","properties":{"id":3190,"title":"Missing Maps: Zimbabwe Malaria Elimination 205","status":"ARCHIVED","created":"2017","lastUpdated":"2017","lastActive":"no","area":175.78590806693822,"changesets":1285,"mappers":38,"roads":34.3096475562587,"buildings":56885,"edits":59658,"latest":"2017-08-08T10:52:53.000Z"},"geometry":{"type":"Point","coordinates":[28.5525554958836,-20.1804660797694]}},{"type":"Feature","properties":{"id":3178,"title":"Missing Maps: Zimbabwe Malaria Elimination 199","status":"ARCHIVED","created":"2017","lastUpdated":"2017","lastActive":"no","area":576.8361020165468,"changesets":1797,"mappers":61,"roads":30.4338955415223,"buildings":16408,"edits":16578,"latest":"2017-08-11T22:12:30.000Z"},"geometry":{"type":"Point","coordinates":[30.6308046236137,-18.2753330386397]}},{"type":"Feature","properties":{"id":2714,"title":"Missing Maps: Zimbabwe Malaria Elimination 2","status":"ARCHIVED","created":"2017","lastUpdated":"2017","lastActive":"no","area":46.45985614111522,"changesets":1227,"mappers":45,"roads":185.564798288569,"buildings":6564,"edits":7435,"latest":"2017-04-03T03:23:24.000Z"},"geometry":{"type":"Point","coordinates":[25.9557168999993,-18.2019930061726]}},{"type":"Feature","properties":{"id":2716,"title":"Missing Maps: Zimbabwe Malaria Elimination 4","status":"ARCHIVED","created":"2017","lastUpdated":"2017","lastActive":"no","area":49.35292387250715,"changesets":677,"mappers":37,"roads":1.85145140144686,"buildings":5910,"edits":5932,"latest":"2017-08-03T21:43:04.000Z"},"geometry":{"type":"Point","coordinates":[26.2507374907538,-18.0705092690979]}},{"type":"Feature","properties":{"id":2908,"title":"Missing Maps: Zimbabwe Malaria Elimination 97","status":"ARCHIVED","created":"2017","lastUpdated":"2017","lastActive":"no","area":840.9408494891122,"changesets":1590,"mappers":58,"roads":0.0184929341218144,"buildings":13370,"edits":13404,"latest":"2017-04-28T15:08:09.000Z"},"geometry":{"type":"Point","coordinates":[28.0904018450942,-18.3450972110612]}},{"type":"Feature","properties":{"id":2780,"title":"Missing Maps: Zimbabwe Malaria Elimination 15","status":"ARCHIVED","created":"2017","lastUpdated":"2017","lastActive":"no","area":47.67809912225816,"changesets":601,"mappers":36,"roads":19.0363858182915,"buildings":5853,"edits":5929,"latest":"2017-04-21T23:03:23.000Z"},"geometry":{"type":"Point","coordinates":[28.4651883212544,-19.3165289213411]}},{"type":"Feature","properties":{"id":2776,"title":"Missing Maps: Zimbabwe Malaria Elimination 13","status":"ARCHIVED","created":"2017","lastUpdated":"2017","lastActive":"no","area":47.76204265750697,"changesets":564,"mappers":32,"roads":37.643946802134,"buildings":4883,"edits":5095,"latest":"2017-04-09T12:08:03.000Z"},"geometry":{"type":"Point","coordinates":[27.7387293405888,-18.9186501626047]}},{"type":"Feature","properties":{"id":2766,"title":"Missing Maps: Zimbabwe Malaria Elimination 11","status":"ARCHIVED","created":"2017","lastUpdated":"2017","lastActive":"no","area":54.610325594887385,"changesets":970,"mappers":64,"roads":11.3477092395096,"buildings":9419,"edits":9509,"latest":"2017-04-08T18:19:42.000Z"},"geometry":{"type":"Point","coordinates":[27.692029856682,-19.2180354950513]}},{"type":"Feature","properties":{"id":2799,"title":"Missing Maps: Zimbabwe Malaria Elimination 28","status":"ARCHIVED","created":"2017","lastUpdated":"2017","lastActive":"no","area":49.53888928857819,"changesets":678,"mappers":38,"roads":59.6297227934625,"buildings":4801,"edits":5137,"latest":"2017-04-14T09:33:30.000Z"},"geometry":{"type":"Point","coordinates":[28.802231067226,-18.898359981717]}},{"type":"Feature","properties":{"id":2789,"title":"Missing Maps: Zimbabwe Malaria Elimination 22","status":"ARCHIVED","created":"2017","lastUpdated":"2017","lastActive":"no","area":52.35019196485108,"changesets":647,"mappers":27,"roads":0.232545343445868,"buildings":9018,"edits":9101,"latest":"2017-10-17T15:50:43.000Z"},"geometry":{"type":"Point","coordinates":[28.7865163129833,-19.1201864694034]}},{"type":"Feature","properties":{"id":2785,"title":"Missing Maps: Zimbabwe Malaria Elimination 18","status":"ARCHIVED","created":"2017","lastUpdated":"2017","lastActive":"no","area":41.68570309698071,"changesets":709,"mappers":33,"roads":179.50315444901,"buildings":4243,"edits":4409,"latest":"2017-04-23T16:48:00.000Z"},"geometry":{"type":"Point","coordinates":[29.1120376648609,-19.2855348945685]}},{"type":"Feature","properties":{"id":2803,"title":"Missing Maps: Zimbabwe Malaria Elimination 32","status":"ARCHIVED","created":"2017","lastUpdated":"2017","lastActive":"no","area":50.14844680416713,"changesets":991,"mappers":55,"roads":3.03150913098425,"buildings":10579,"edits":10688,"latest":"2017-04-29T12:37:03.000Z"},"geometry":{"type":"Point","coordinates":[27.998972713352,-17.5100081872764]}},{"type":"Feature","properties":{"id":2918,"title":"Missing Maps: Zimbabwe Malaria Elimination 102","status":"ARCHIVED","created":"2017","lastUpdated":"2017","lastActive":"no","area":758.7826664438055,"changesets":1659,"mappers":61,"roads":0.714509695886348,"buildings":20229,"edits":20252,"latest":"2017-08-16T05:56:53.000Z"},"geometry":{"type":"Point","coordinates":[28.9147179183597,-17.78132167437]}},{"type":"Feature","properties":{"id":2791,"title":"Missing Maps: Zimbabwe Malaria Elimination 23","status":"ARCHIVED","created":"2017","lastUpdated":"2017","lastActive":"no","area":52.81408198390934,"changesets":514,"mappers":24,"roads":1.71210764593682,"buildings":7549,"edits":7709,"latest":"2017-08-04T17:30:22.000Z"},"geometry":{"type":"Point","coordinates":[28.6672097053319,-19.0560511698056]}},{"type":"Feature","properties":{"id":2886,"title":"Missing Maps: Zimbabwe Malaria Elimination 87","status":"ARCHIVED","created":"2017","lastUpdated":"2017","lastActive":"no","area":834.6885291880953,"changesets":1893,"mappers":89,"roads":16.1005093871448,"buildings":12618,"edits":12702,"latest":"2017-05-22T06:40:07.000Z"},"geometry":{"type":"Point","coordinates":[28.7660519971267,-21.4601801859268]}},{"type":"Feature","properties":{"id":3180,"title":"Missing Maps: Zimbabwe Malaria Elimination 200","status":"ARCHIVED","created":"2017","lastUpdated":"2017","lastActive":"no","area":468.90085785512247,"changesets":1393,"mappers":52,"roads":24.3441886432429,"buildings":11759,"edits":11941,"latest":"2017-08-11T12:17:42.000Z"},"geometry":{"type":"Point","coordinates":[30.6918659774459,-18.4794704160666]}},{"type":"Feature","properties":{"id":2834,"title":"Missing Maps: Zimbabwe Malaria Elimination 51","status":"ARCHIVED","created":"2017","lastUpdated":"2017","lastActive":"no","area":781.6518732727494,"changesets":1297,"mappers":40,"roads":0.00294728341229165,"buildings":10828,"edits":10849,"latest":"2017-04-18T16:16:42.000Z"},"geometry":{"type":"Point","coordinates":[28.0310117628817,-18.7752819556892]}},{"type":"Feature","properties":{"id":3182,"title":"Missing Maps: Zimbabwe Malaria Elimination 202","status":"ARCHIVED","created":"2017","lastUpdated":"2017","lastActive":"no","area":743.2178219131076,"changesets":1356,"mappers":47,"roads":58.8103080106425,"buildings":17120,"edits":17508,"latest":"2017-08-09T13:57:42.000Z"},"geometry":{"type":"Point","coordinates":[30.4471309077624,-18.7536619120408]}},{"type":"Feature","properties":{"id":3131,"title":"Missing Maps: Zimbabwe Malaria Elimination 184","status":"ARCHIVED","created":"2017","lastUpdated":"2017","lastActive":"no","area":490.2411132356081,"changesets":1949,"mappers":87,"roads":33.4056516437662,"buildings":17317,"edits":17625,"latest":"2017-06-14T18:33:33.000Z"},"geometry":{"type":"Point","coordinates":[30.088842103874,-17.6987363647752]}},{"type":"Feature","properties":{"id":3124,"title":"Missing Maps: Zimbabwe Malaria Elimination 179","status":"ARCHIVED","created":"2017","lastUpdated":"2017","lastActive":"no","area":442.9310925398836,"changesets":1796,"mappers":59,"roads":28.5635242317219,"buildings":11421,"edits":11819,"latest":"2017-06-06T13:34:47.000Z"},"geometry":{"type":"Point","coordinates":[29.6806633888192,-17.4236796149417]}},{"type":"Feature","properties":{"id":3158,"title":"Missing Maps: Zimbabwe Malaria Elimination 194","status":"ARCHIVED","created":"2017","lastUpdated":"2017","lastActive":"no","area":943.6261001263152,"changesets":1554,"mappers":49,"roads":1.47608241892859,"buildings":29809,"edits":29918,"latest":"2017-06-14T12:40:05.000Z"},"geometry":{"type":"Point","coordinates":[29.8945115144606,-18.2341155758634]}},{"type":"Feature","properties":{"id":3142,"title":"Missing Maps: Zimbabwe Malaria Elimination 188","status":"ARCHIVED","created":"2017","lastUpdated":"2017","lastActive":"no","area":669.7436797243276,"changesets":1339,"mappers":47,"roads":9.15404996402167,"buildings":29278,"edits":29755,"latest":"2017-06-10T13:53:36.000Z"},"geometry":{"type":"Point","coordinates":[30.8057572135393,-17.7276544994894]}},{"type":"Feature","properties":{"id":3106,"title":"Missing Maps: Zimbabwe Malaria Elimination 168","status":"ARCHIVED","created":"2017","lastUpdated":"2017","lastActive":"no","area":469.9584882252969,"changesets":1526,"mappers":40,"roads":23.3282361852767,"buildings":13386,"edits":13594,"latest":"2017-06-02T02:22:14.000Z"},"geometry":{"type":"Point","coordinates":[29.1250398260031,-17.05399059154]}},{"type":"Feature","properties":{"id":3113,"title":"Missing Maps: Zimbabwe Malaria Elimination 173","status":"ARCHIVED","created":"2017","lastUpdated":"2017","lastActive":"no","area":628.4363743542132,"changesets":1008,"mappers":15,"roads":0.371876211775723,"buildings":14481,"edits":14489,"latest":"2017-06-01T14:52:01.000Z"},"geometry":{"type":"Point","coordinates":[29.20862258556,-17.2230122103122]}},{"type":"Feature","properties":{"id":3083,"title":"Missing Maps: Zimbabwe Malaria Elimination 161","status":"ARCHIVED","created":"2017","lastUpdated":"2017","lastActive":"no","area":418.27615191492544,"changesets":978,"mappers":23,"roads":0.22986936573625,"buildings":13987,"edits":14017,"latest":"2017-06-16T13:15:40.000Z"},"geometry":{"type":"Point","coordinates":[29.814936851077,-16.6117395086801]}},{"type":"Feature","properties":{"id":3122,"title":"Missing Maps: Zimbabwe Malaria Elimination 177","status":"ARCHIVED","created":"2017","lastUpdated":"2017","lastActive":"no","area":1207.6629834989033,"changesets":1414,"mappers":30,"roads":21.7976038065419,"buildings":16649,"edits":16870,"latest":"2017-06-04T01:56:19.000Z"},"geometry":{"type":"Point","coordinates":[30.5290536728974,-17.3173297116304]}},{"type":"Feature","properties":{"id":3108,"title":"Missing Maps: Zimbabwe Malaria Elimination 170","status":"ARCHIVED","created":"2017","lastUpdated":"2017","lastActive":"no","area":676.920547502407,"changesets":1253,"mappers":30,"roads":5.17000710472129,"buildings":16606,"edits":16638,"latest":"2017-06-03T23:37:43.000Z"},"geometry":{"type":"Point","coordinates":[29.5572194014236,-17.0132555109317]}},{"type":"Feature","properties":{"id":3071,"title":"Missing Maps: Zimbabwe Malaria Elimination 155","status":"ARCHIVED","created":"2017","lastUpdated":"2017","lastActive":"no","area":297.93289844155726,"changesets":681,"mappers":35,"roads":0.00867063057797776,"buildings":7041,"edits":7060,"latest":"2017-05-26T07:04:36.000Z"},"geometry":{"type":"Point","coordinates":[29.5981877099749,-20.9785071979843]}},{"type":"Feature","properties":{"id":3129,"title":"Missing Maps: Zimbabwe Malaria Elimination 182","status":"ARCHIVED","created":"2017","lastUpdated":"2017","lastActive":"no","area":1379.482828223931,"changesets":1234,"mappers":62,"roads":60.4317199019563,"buildings":12853,"edits":13346,"latest":"2017-06-19T14:38:07.000Z"},"geometry":{"type":"Point","coordinates":[29.5613293847061,-17.6740871337562]}},{"type":"Feature","properties":{"id":3053,"title":"Missing Maps: Zimbabwe Malaria Elimination 151","status":"ARCHIVED","created":"2017","lastUpdated":"2017","lastActive":"no","area":875.8937238085917,"changesets":1235,"mappers":19,"roads":0.227654127303031,"buildings":20834,"edits":20850,"latest":"2017-05-25T06:17:26.000Z"},"geometry":{"type":"Point","coordinates":[30.2144691694134,-20.8988687739626]}},{"type":"Feature","properties":{"id":3045,"title":"Missing Maps: Zimbabwe Malaria Elimination 148","status":"ARCHIVED","created":"2017","lastUpdated":"2017","lastActive":"no","area":867.2229440148042,"changesets":1674,"mappers":66,"roads":8.86745854044668,"buildings":18308,"edits":18434,"latest":"2017-05-24T20:51:53.000Z"},"geometry":{"type":"Point","coordinates":[30.240926217747,-20.4529750744059]}},{"type":"Feature","properties":{"id":2978,"title":"Missing Maps: Zimbabwe Malaria Elimination 134","status":"ARCHIVED","created":"2017","lastUpdated":"2017","lastActive":"no","area":648.606231114088,"changesets":1367,"mappers":28,"roads":3.67012790478405,"buildings":15800,"edits":15852,"latest":"2017-05-22T12:05:04.000Z"},"geometry":{"type":"Point","coordinates":[30.0307774930051,-19.1823834935955]}},{"type":"Feature","properties":{"id":2961,"title":"Missing Maps: Zimbabwe Malaria Elimination 125","status":"ARCHIVED","created":"2017","lastUpdated":"2017","lastActive":"no","area":801.0789808453789,"changesets":1731,"mappers":63,"roads":74.2502625992992,"buildings":17961,"edits":18257,"latest":"2017-07-29T19:32:35.000Z"},"geometry":{"type":"Point","coordinates":[31.2035438957527,-18.9280364051614]}},{"type":"Feature","properties":{"id":2951,"title":"Missing Maps: Zimbabwe Malaria Elimination 122","status":"ARCHIVED","created":"2017","lastUpdated":"2017","lastActive":"no","area":547.6634062724839,"changesets":1738,"mappers":66,"roads":52.1116858747779,"buildings":16295,"edits":16524,"latest":"2017-07-21T23:45:21.000Z"},"geometry":{"type":"Point","coordinates":[31.6011066011286,-18.9488882313388]}},{"type":"Feature","properties":{"id":2930,"title":"Missing Maps: Zimbabwe Malaria Elimination 110","status":"ARCHIVED","created":"2017","lastUpdated":"2017","lastActive":"no","area":678.7600348417029,"changesets":1522,"mappers":15,"roads":0.0151922955693008,"buildings":16664,"edits":16674,"latest":"2017-05-27T01:56:43.000Z"},"geometry":{"type":"Point","coordinates":[28.8533761401118,-18.232939711933]}},{"type":"Feature","properties":{"id":2920,"title":"Missing Maps: Zimbabwe Malaria Elimination 104","status":"ARCHIVED","created":"2017","lastUpdated":"2017","lastActive":"no","area":774.3019207499435,"changesets":1749,"mappers":61,"roads":306.699091496953,"buildings":21011,"edits":21514,"latest":"2017-05-24T14:44:58.000Z"},"geometry":{"type":"Point","coordinates":[28.698674320355,-18.0005625482025]}},{"type":"Feature","properties":{"id":2902,"title":"Missing Maps: Zimbabwe Malaria Elimination 96","status":"ARCHIVED","created":"2017","lastUpdated":"2017","lastActive":"no","area":899.8936142183323,"changesets":1614,"mappers":101,"roads":11.6636889867731,"buildings":10977,"edits":11135,"latest":"2017-04-28T20:53:49.000Z"},"geometry":{"type":"Point","coordinates":[29.1109403263994,-17.3913012549791]}},{"type":"Feature","properties":{"id":2928,"title":"Missing Maps: Zimbabwe Malaria Elimination 108","status":"ARCHIVED","created":"2017","lastUpdated":"2017","lastActive":"no","area":634.819969515313,"changesets":1841,"mappers":45,"roads":2.52194463667579,"buildings":23871,"edits":23967,"latest":"2017-05-10T11:19:22.000Z"},"geometry":{"type":"Point","coordinates":[28.6599626882398,-18.4905906736488]}},{"type":"Feature","properties":{"id":2946,"title":"Missing Maps: Zimbabwe Malaria Elimination 118","status":"ARCHIVED","created":"2017","lastUpdated":"2017","lastActive":"no","area":1014.6572139193219,"changesets":1368,"mappers":19,"roads":0.495611215276909,"buildings":16692,"edits":16734,"latest":"2017-05-05T20:02:40.000Z"},"geometry":{"type":"Point","coordinates":[29.5554679434188,-18.79509627157]}},{"type":"Feature","properties":{"id":2872,"title":"Missing Maps: Zimbabwe Malaria Elimination 80","status":"ARCHIVED","created":"2017","lastUpdated":"2017","lastActive":"no","area":702.2646735088541,"changesets":1777,"mappers":24,"roads":12.6657902833175,"buildings":19669,"edits":19727,"latest":"2017-04-26T22:43:17.000Z"},"geometry":{"type":"Point","coordinates":[29.5265799328361,-20.7810852288175]}},{"type":"Feature","properties":{"id":2884,"title":"Missing Maps: Zimbabwe Malaria Elimination 85","status":"ARCHIVED","created":"2017","lastUpdated":"2017","lastActive":"no","area":1248.4453657272625,"changesets":1836,"mappers":77,"roads":327.843837306853,"buildings":16627,"edits":17142,"latest":"2017-04-26T00:09:08.000Z"},"geometry":{"type":"Point","coordinates":[28.849777251612,-21.1215069717201]}},{"type":"Feature","properties":{"id":2898,"title":"Missing Maps: Zimbabwe Malaria Elimination 92","status":"ARCHIVED","created":"2017","lastUpdated":"2017","lastActive":"no","area":656.9522364499987,"changesets":1866,"mappers":95,"roads":9.6831566369035,"buildings":19914,"edits":20043,"latest":"2017-08-06T02:03:52.000Z"},"geometry":{"type":"Point","coordinates":[30.0164254826459,-22.0586825780552]}},{"type":"Feature","properties":{"id":2866,"title":"Missing Maps: Zimbabwe Malaria Elimination 74","status":"ARCHIVED","created":"2017","lastUpdated":"2017","lastActive":"no","area":1643.9582078357225,"changesets":1979,"mappers":51,"roads":0.0273826366802114,"buildings":15621,"edits":15775,"latest":"2017-04-30T19:19:31.000Z"},"geometry":{"type":"Point","coordinates":[29.4129168854387,-20.3312634291515]}},{"type":"Feature","properties":{"id":2863,"title":"Missing Maps: Zimbabwe Malaria Elimination 72","status":"ARCHIVED","created":"2017","lastUpdated":"2017","lastActive":"no","area":886.7826033634965,"changesets":1469,"mappers":43,"roads":3.17020973521512,"buildings":17848,"edits":17870,"latest":"2017-08-01T14:08:01.000Z"},"geometry":{"type":"Point","coordinates":[29.6958098200894,-20.1075434199308]}},{"type":"Feature","properties":{"id":2868,"title":"Missing Maps: Zimbabwe Malaria Elimination 76","status":"ARCHIVED","created":"2017","lastUpdated":"2017","lastActive":"no","area":961.7217263278618,"changesets":2196,"mappers":88,"roads":99.7714136406293,"buildings":19598,"edits":20563,"latest":"2017-08-08T17:14:41.000Z"},"geometry":{"type":"Point","coordinates":[29.1541389349112,-20.5310944058819]}},{"type":"Feature","properties":{"id":2854,"title":"Missing Maps: Zimbabwe Malaria Elimination 64","status":"ARCHIVED","created":"2017","lastUpdated":"2017","lastActive":"no","area":1765.992534945832,"changesets":1445,"mappers":55,"roads":0.389146803883084,"buildings":17327,"edits":17366,"latest":"2017-04-25T04:45:02.000Z"},"geometry":{"type":"Point","coordinates":[28.8219773317838,-19.5909436929353]}},{"type":"Feature","properties":{"id":2848,"title":"Missing Maps: Zimbabwe Malaria Elimination 60","status":"ARCHIVED","created":"2017","lastUpdated":"2017","lastActive":"no","area":1406.686247536727,"changesets":2056,"mappers":18,"roads":0.00994352395308397,"buildings":21365,"edits":21375,"latest":"2017-04-19T09:36:07.000Z"},"geometry":{"type":"Point","coordinates":[28.2365501477583,-19.6018807948715]}},{"type":"Feature","properties":{"id":3042,"title":"Missing Maps: Zimbabwe Malaria Elimination 146","status":"ARCHIVED","created":"2017","lastUpdated":"2017","lastActive":"no","area":620.367888492036,"changesets":1205,"mappers":37,"roads":1.58015881348076,"buildings":22591,"edits":22822,"latest":"2017-05-23T06:07:42.000Z"},"geometry":{"type":"Point","coordinates":[30.0515324417814,-20.2578473669188]}},{"type":"Feature","properties":{"id":3068,"title":"Missing Maps: Zimbabwe Malaria Elimination 153","status":"ARCHIVED","created":"2017","lastUpdated":"2017","lastActive":"no","area":592.4423664590373,"changesets":1434,"mappers":54,"roads":6.01945431741486,"buildings":16741,"edits":16893,"latest":"2017-07-25T18:26:15.000Z"},"geometry":{"type":"Point","coordinates":[29.7659596352043,-20.7737949898472]}},{"type":"Feature","properties":{"id":3089,"title":"Missing Maps: Zimbabwe Malaria Elimination 163","status":"ARCHIVED","created":"2017","lastUpdated":"2017","lastActive":"no","area":576.6665206943172,"changesets":1332,"mappers":30,"roads":4.29125079484944,"buildings":19053,"edits":19117,"latest":"2017-05-30T07:04:20.000Z"},"geometry":{"type":"Point","coordinates":[29.1996806510278,-16.8894041668994]}},{"type":"Feature","properties":{"id":3015,"title":"Missing Maps: Zimbabwe Malaria Elimination 144","status":"ARCHIVED","created":"2017","lastUpdated":"2017","lastActive":"no","area":792.5148279888792,"changesets":1883,"mappers":52,"roads":36.7819791267178,"buildings":18172,"edits":18328,"latest":"2017-05-24T14:28:42.000Z"},"geometry":{"type":"Point","coordinates":[30.2063325087928,-19.9151332695338]}},{"type":"Feature","properties":{"id":3050,"title":"Missing Maps: Zimbabwe Malaria Elimination 149","status":"ARCHIVED","created":"2017","lastUpdated":"2017","lastActive":"no","area":711.2869446833417,"changesets":1533,"mappers":25,"roads":2.22176492898854,"buildings":19530,"edits":19637,"latest":"2017-05-24T10:28:16.000Z"},"geometry":{"type":"Point","coordinates":[30.2340375658384,-20.6299023127838]}},{"type":"Feature","properties":{"id":3081,"title":"Missing Maps: Zimbabwe Malaria Elimination 159","status":"ARCHIVED","created":"2017","lastUpdated":"2017","lastActive":"no","area":1105.2207315128408,"changesets":1539,"mappers":57,"roads":2.39488549326567,"buildings":18080,"edits":18138,"latest":"2017-05-31T21:05:43.000Z"},"geometry":{"type":"Point","coordinates":[29.5302487752657,-16.5568250517425]}},{"type":"Feature","properties":{"id":3073,"title":"Missing Maps: Zimbabwe Malaria Elimination 157","status":"ARCHIVED","created":"2017","lastUpdated":"2017","lastActive":"no","area":695.9857392539496,"changesets":1569,"mappers":41,"roads":10.026616043723,"buildings":16773,"edits":16888,"latest":"2017-05-26T21:44:35.000Z"},"geometry":{"type":"Point","coordinates":[29.5445331729926,-16.2765169906273]}},{"type":"Feature","properties":{"id":3144,"title":"Missing Maps: Zimbabwe Malaria Elimination 190","status":"ARCHIVED","created":"2017","lastUpdated":"2017","lastActive":"no","area":855.9145938032663,"changesets":1373,"mappers":23,"roads":9.05247437350637,"buildings":13589,"edits":13665,"latest":"2017-06-11T11:32:09.000Z"},"geometry":{"type":"Point","coordinates":[30.3152845077154,-17.9355292419046]}},{"type":"Feature","properties":{"id":3156,"title":"Missing Maps: Zimbabwe Malaria Elimination 192","status":"ARCHIVED","created":"2017","lastUpdated":"2017","lastActive":"no","area":694.1504036837471,"changesets":2133,"mappers":82,"roads":96.6153843452904,"buildings":19793,"edits":20622,"latest":"2017-06-15T00:40:42.000Z"},"geometry":{"type":"Point","coordinates":[29.3944796089884,-17.9199571439981]}},{"type":"Feature","properties":{"id":3164,"title":"Missing Maps: Zimbabwe Malaria Elimination 197","status":"ARCHIVED","created":"2017","lastUpdated":"2017","lastActive":"no","area":1029.4826092486537,"changesets":1936,"mappers":58,"roads":15.6737107491728,"buildings":16063,"edits":16194,"latest":"2017-08-14T12:35:55.000Z"},"geometry":{"type":"Point","coordinates":[30.3548944989636,-18.220109074111]}},{"type":"Feature","properties":{"id":3162,"title":"Missing Maps: Zimbabwe Malaria Elimination 195","status":"ARCHIVED","created":"2017","lastUpdated":"2017","lastActive":"no","area":1174.7572055922467,"changesets":1383,"mappers":52,"roads":3.59011559839763,"buildings":12306,"edits":12336,"latest":"2017-06-16T06:41:18.000Z"},"geometry":{"type":"Point","coordinates":[30.0527956897123,-18.5294466417876]}},{"type":"Feature","properties":{"id":3912,"title":"Road network Zimbabwe (4)","status":"ARCHIVED","created":"2017","lastUpdated":"2018","lastActive":"no","area":1677.6794478491497,"changesets":2085,"mappers":108,"roads":6862.01144656863,"buildings":4646,"edits":47550,"latest":"2018-06-11T12:52:10.000Z"},"geometry":{"type":"Point","coordinates":[31.662859106183,-19.6829027180726]}},{"type":"Feature","properties":{"id":3889,"title":"Road network Zimbabwe (1)","status":"ARCHIVED","created":"2017","lastUpdated":"2018","lastActive":"no","area":1245.9465836749403,"changesets":1196,"mappers":156,"roads":4457.27905970679,"buildings":728,"edits":25266,"latest":"2018-03-06T20:27:20.000Z"},"geometry":{"type":"Point","coordinates":[31.1223739425421,-19.5591192978281]}}],"Uruguay":[{"type":"Feature","properties":{"id":4743,"title":"Soriano, UY - Missing Roads","status":"PUBLISHED","created":"2018","lastUpdated":"2018","lastActive":"no","area":9.312488894094873,"changesets":1,"mappers":1,"roads":3.05662815455746,"buildings":6,"edits":11,"latest":"2018-06-17T19:14:31.000Z"},"geometry":{"type":"Point","coordinates":[-57.7948189212049,-33.4673815847698]}},{"type":"Feature","properties":{"id":4744,"title":"Tacuaremb, UY - Missing Roads","status":"PUBLISHED","created":"2018","lastUpdated":"2018","lastActive":"no","area":3.9431238372270627,"changesets":0,"mappers":0,"roads":0,"buildings":0,"edits":0,"latest":null},"geometry":{"type":"Point","coordinates":[-55.8433819359977,-32.1176451285194]}},{"type":"Feature","properties":{"id":4740,"title":"Rocha, UY - Missing Roads","status":"PUBLISHED","created":"2018","lastUpdated":"2018","lastActive":"no","area":4.100013506717109,"changesets":11,"mappers":2,"roads":23.5724183748576,"buildings":2,"edits":39,"latest":"2018-08-01T08:33:54.000Z"},"geometry":{"type":"Point","coordinates":[-54.0481754640001,-33.7565447813606]}}],"Grenada":[{"type":"Feature","properties":{"id":2123,"title":"URISA: Southern Grenada (buildings)","status":"PUBLISHED","created":"2016","lastUpdated":"2018","lastActive":"no","area":65.46636355235067,"changesets":0,"mappers":0,"roads":0,"buildings":0,"edits":0,"latest":null},"geometry":{"type":"Point","coordinates":[-61.7138067711277,12.0305369460453]}},{"type":"Feature","properties":{"id":4367,"title":"Sauteurs, Grenada","status":"PUBLISHED","created":"2018","lastUpdated":"2018","lastActive":"no","area":5.541859915143177,"changesets":245,"mappers":17,"roads":14.7740713123304,"buildings":1844,"edits":2360,"latest":"2018-04-22T14:33:47.000Z"},"geometry":{"type":"Point","coordinates":[-61.6405330548817,12.2199788159952]}},{"type":"Feature","properties":{"id":4876,"title":"Grenada, East Side of Island","status":"PUBLISHED","created":"2018","lastUpdated":"2018","lastActive":"no","area":24.195072513694313,"changesets":207,"mappers":31,"roads":12.373844554738,"buildings":2342,"edits":2508,"latest":"2018-10-12T13:56:33.000Z"},"geometry":{"type":"Point","coordinates":[-61.7279127200747,12.1060490990422]}}],"Bangladesh":[{"type":"Feature","properties":{"id":967,"title":"Madan Upazila, Bangladesh Health Workers Map","status":"ARCHIVED","created":"2015","lastUpdated":"2015","lastActive":"no","area":231.32183096890685,"changesets":0,"mappers":0,"roads":0,"buildings":0,"edits":0,"latest":null},"geometry":{"type":"Point","coordinates":[90.9670769266166,24.6775284129275]}},{"type":"Feature","properties":{"id":4117,"title":"Bangladesh Refugee Crisis - Kutupalong camp shelters (new area 11)","status":"ARCHIVED","created":"2018","lastUpdated":"2018","lastActive":"no","area":0.7890758538219015,"changesets":555,"mappers":66,"roads":2.88641338019215,"buildings":6688,"edits":7640,"latest":"2018-02-03T15:57:22.000Z"},"geometry":{"type":"Point","coordinates":[92.1682255424455,21.2040223577882]}},{"type":"Feature","properties":{"id":4146,"title":"Bangladesh Refugee Crisis - Kutupalong camp shelters (new area 15)","status":"ARCHIVED","created":"2018","lastUpdated":"2018","lastActive":"no","area":1.1711380424532771,"changesets":828,"mappers":98,"roads":11.4060399496943,"buildings":9940,"edits":10857,"latest":"2018-02-13T14:03:16.000Z"},"geometry":{"type":"Point","coordinates":[92.1643718910906,21.1924972954646]}},{"type":"Feature","properties":{"id":4032,"title":"Missing Maps: Pirojpur Sadar, Bangladesh","status":"ARCHIVED","created":"2018","lastUpdated":"2018","lastActive":"no","area":163.27718741770573,"changesets":993,"mappers":81,"roads":376.604296754097,"buildings":40057,"edits":41522,"latest":"2018-08-04T13:38:46.000Z"},"geometry":{"type":"Point","coordinates":[89.9810714962393,22.6087544216835]}},{"type":"Feature","properties":{"id":379,"title":"Mapping in Jamalpur City, Jamalpur District, Bangladesh - SA activities","status":"PUBLISHED","created":"2013","lastUpdated":"2017","lastActive":"no","area":11.305254865523564,"changesets":0,"mappers":0,"roads":0,"buildings":0,"edits":0,"latest":null},"geometry":{"type":"Point","coordinates":[89.9456457469483,24.9206035422861]}},{"type":"Feature","properties":{"id":4605,"title":"Bangladesh Refugee Crisis camp mapping - Charkmarkul camp","status":"ARCHIVED","created":"2018","lastUpdated":"2018","lastActive":"no","area":38.2691530955905,"changesets":981,"mappers":44,"roads":96.5154776252042,"buildings":13624,"edits":16111,"latest":"2018-07-10T20:46:08.000Z"},"geometry":{"type":"Point","coordinates":[92.1719303368657,21.1287523168181]}},{"type":"Feature","properties":{"id":4651,"title":"Bangladesh Refugee Crisis - Teknaf camp shelters (new area 21)","status":"ARCHIVED","created":"2018","lastUpdated":"2018","lastActive":"no","area":0.338285962560821,"changesets":276,"mappers":18,"roads":6.52330328892298,"buildings":2044,"edits":2286,"latest":"2018-06-07T11:51:31.000Z"},"geometry":{"type":"Point","coordinates":[92.2537198202293,20.9585820642033]}},{"type":"Feature","properties":{"id":4797,"title":"Bangladesh Refugee Crisis camp mapping - NW of megacamp 2 Update","status":"ARCHIVED","created":"2018","lastUpdated":"2018","lastActive":"no","area":0.22455568991710326,"changesets":338,"mappers":36,"roads":18.9723021238568,"buildings":1545,"edits":2749,"latest":"2018-07-03T14:31:24.000Z"},"geometry":{"type":"Point","coordinates":[92.1421345434211,21.2064290590785]}},{"type":"Feature","properties":{"id":4200,"title":"Bangladesh Refugee Crisis - Kutupalong camp shelters (new area 17)","status":"ARCHIVED","created":"2018","lastUpdated":"2018","lastActive":"no","area":0.2739405073645721,"changesets":105,"mappers":30,"roads":7.83174031794166,"buildings":1280,"edits":1494,"latest":"2018-02-26T10:55:13.000Z"},"geometry":{"type":"Point","coordinates":[92.1503377538941,21.1961051271021]}},{"type":"Feature","properties":{"id":3855,"title":"Bangladesh Population Movement - Kutupalong camp and surrounding settlements","status":"ARCHIVED","created":"2017","lastUpdated":"2018","lastActive":"no","area":2.0582964664952064,"changesets":370,"mappers":43,"roads":9.47258219955097,"buildings":8408,"edits":8951,"latest":"2017-12-03T17:58:08.000Z"},"geometry":{"type":"Point","coordinates":[92.151789631083,21.1625446907998]}},{"type":"Feature","properties":{"id":5275,"title":"Bangladesh Refugee Crisis camp mapping - Update (4)","status":"ARCHIVED","created":"2018","lastUpdated":"2018","lastActive":"no","area":0.034184560501277717,"changesets":42,"mappers":4,"roads":0.979128562991105,"buildings":364,"edits":466,"latest":"2018-10-01T05:59:13.000Z"},"geometry":{"type":"Point","coordinates":[92.16360926092,21.205985895755]}},{"type":"Feature","properties":{"id":3581,"title":"Bangladesh Floods: Fulbaria, Dinajpur","status":"ARCHIVED","created":"2017","lastUpdated":"2017","lastActive":"no","area":232.80544420464676,"changesets":793,"mappers":96,"roads":921.645112246394,"buildings":285,"edits":8930,"latest":"2017-09-23T09:53:59.000Z"},"geometry":{"type":"Point","coordinates":[88.900685426883,25.4700758033858]}},{"type":"Feature","properties":{"id":3634,"title":"Bangladesh Floods: Bochaganj, Dinajpur","status":"ARCHIVED","created":"2017","lastUpdated":"2017","lastActive":"no","area":220.8197645579697,"changesets":1073,"mappers":102,"roads":1335.07185827988,"buildings":3161,"edits":13001,"latest":"2017-10-30T13:50:01.000Z"},"geometry":{"type":"Point","coordinates":[88.4539529676837,25.7858926074504]}},{"type":"Feature","properties":{"id":4143,"title":"Bangladesh Refugee Crisis - Kutupalong camp shelters (new area 13)","status":"ARCHIVED","created":"2018","lastUpdated":"2018","lastActive":"no","area":0.43804531230520205,"changesets":299,"mappers":37,"roads":3.29874808660354,"buildings":5835,"edits":6433,"latest":"2018-02-05T03:53:17.000Z"},"geometry":{"type":"Point","coordinates":[92.1628945486189,21.2069335354152]}},{"type":"Feature","properties":{"id":4063,"title":"Bangladesh Refugee Crisis - Kutupalong camp shelters (new area 6)","status":"ARCHIVED","created":"2018","lastUpdated":"2018","lastActive":"no","area":0.6557090054624053,"changesets":663,"mappers":45,"roads":2.84719413861605,"buildings":3972,"edits":4289,"latest":"2018-01-25T11:10:53.000Z"},"geometry":{"type":"Point","coordinates":[92.1473609876732,21.201114668552]}},{"type":"Feature","properties":{"id":4101,"title":"Bangladesh Refugee Crisis - Kutupalong camp shelters (new area 10)","status":"ARCHIVED","created":"2018","lastUpdated":"2018","lastActive":"no","area":2.725485656539492,"changesets":1719,"mappers":124,"roads":9.25662480329567,"buildings":28026,"edits":29793,"latest":"2018-02-02T07:58:57.000Z"},"geometry":{"type":"Point","coordinates":[92.1449948161645,21.1617641787275]}},{"type":"Feature","properties":{"id":4003,"title":"Bangladesh Refugee Crisis - Kutupalong camp shelters (update 1)","status":"ARCHIVED","created":"2018","lastUpdated":"2018","lastActive":"no","area":0.560551829908655,"changesets":638,"mappers":39,"roads":5.37360285596247,"buildings":5769,"edits":6443,"latest":"2018-01-17T21:55:57.000Z"},"geometry":{"type":"Point","coordinates":[92.1650902627661,21.2118115897629]}},{"type":"Feature","properties":{"id":4009,"title":"Bangladesh Refugee Crisis - Kutupalong camp shelters (new area 1)","status":"ARCHIVED","created":"2018","lastUpdated":"2018","lastActive":"no","area":0.8950801094137826,"changesets":1219,"mappers":78,"roads":8.13770653298807,"buildings":11106,"edits":11348,"latest":"2018-01-24T11:15:14.000Z"},"geometry":{"type":"Point","coordinates":[92.1530673585344,21.1817077832931]}},{"type":"Feature","properties":{"id":4145,"title":"Bangladesh Refugee Crisis - Kutupalong camp shelters (new area 14)","status":"ARCHIVED","created":"2018","lastUpdated":"2018","lastActive":"no","area":0.6770310679773668,"changesets":478,"mappers":56,"roads":4.79389392618713,"buildings":11076,"edits":11710,"latest":"2018-02-21T02:42:17.000Z"},"geometry":{"type":"Point","coordinates":[92.1561954122302,21.1903851920751]}},{"type":"Feature","properties":{"id":3939,"title":"Bangladesh Population Movement - Kutupalong camp and surrounding settlements","status":"ARCHIVED","created":"2017","lastUpdated":"2018","lastActive":"no","area":1.3753135755901653,"changesets":851,"mappers":65,"roads":54.4662760182813,"buildings":14696,"edits":18516,"latest":"2017-12-21T10:21:14.000Z"},"geometry":{"type":"Point","coordinates":[92.1498699040256,21.1895559391536]}},{"type":"Feature","properties":{"id":4065,"title":"Bangladesh Refugee Crisis - Kutupalong camp shelters (new area 7)","status":"ARCHIVED","created":"2018","lastUpdated":"2018","lastActive":"no","area":1.3987481281993837,"changesets":895,"mappers":68,"roads":8.85247761594677,"buildings":14980,"edits":15882,"latest":"2018-01-25T22:46:08.000Z"},"geometry":{"type":"Point","coordinates":[92.1541334888666,21.21485865551]}},{"type":"Feature","properties":{"id":4060,"title":"Bangladesh Refugee Crisis - Kutupalong camp shelters (new area 5)","status":"ARCHIVED","created":"2018","lastUpdated":"2018","lastActive":"no","area":0.6529093318319865,"changesets":897,"mappers":54,"roads":2.47054079508089,"buildings":5393,"edits":5842,"latest":"2018-01-24T09:07:05.000Z"},"geometry":{"type":"Point","coordinates":[92.1539825267243,21.1961627830435]}},{"type":"Feature","properties":{"id":4038,"title":"Bangladesh Refugee Crisis - Kutupalong camp shelters (new area 3)","status":"ARCHIVED","created":"2018","lastUpdated":"2018","lastActive":"no","area":1.3657248667531448,"changesets":760,"mappers":86,"roads":5.30200217116189,"buildings":9043,"edits":9531,"latest":"2018-01-21T12:55:56.000Z"},"geometry":{"type":"Point","coordinates":[92.1435005079448,21.2083280296438]}},{"type":"Feature","properties":{"id":4081,"title":"Bangladesh Refugee Crisis - Kutupalong camp shelters (new area 9)","status":"ARCHIVED","created":"2018","lastUpdated":"2018","lastActive":"no","area":0.7507063738047272,"changesets":875,"mappers":60,"roads":6.8634771237288,"buildings":9550,"edits":10993,"latest":"2018-01-30T15:55:37.000Z"},"geometry":{"type":"Point","coordinates":[92.1598023596382,21.2001267152425]}},{"type":"Feature","properties":{"id":3652,"title":"Mapping Flood Affected Communities in Bangladesh - Kolagaon, Chittagong","status":"ARCHIVED","created":"2017","lastUpdated":"2018","lastActive":"no","area":48.86777380755232,"changesets":1975,"mappers":210,"roads":152.958625429228,"buildings":26352,"edits":30309,"latest":"2018-01-06T10:14:35.000Z"},"geometry":{"type":"Point","coordinates":[91.8988565727231,22.3502125099868]}},{"type":"Feature","properties":{"id":901,"title":"Kendua, Bangladesh Health Workers Map","status":"PUBLISHED","created":"2015","lastUpdated":"2018","lastActive":"no","area":313.91353811096394,"changesets":5707,"mappers":60,"roads":1544.70863005798,"buildings":92996,"edits":102428,"latest":"2018-10-13T06:14:50.000Z"},"geometry":{"type":"Point","coordinates":[90.8017298707623,24.6774559089141]}},{"type":"Feature","properties":{"id":4137,"title":"Bangladesh Refugee Crisis - Kutupalong camp shelters (new area 12)","status":"ARCHIVED","created":"2018","lastUpdated":"2018","lastActive":"no","area":1.3116723369043854,"changesets":585,"mappers":55,"roads":4.1022575970082,"buildings":10000,"edits":11128,"latest":"2018-02-04T09:36:52.000Z"},"geometry":{"type":"Point","coordinates":[92.1473765782023,21.1902776747792]}},{"type":"Feature","properties":{"id":4196,"title":"Bangladesh Refugee Crisis - Kutupalong camp shelters (new area 16)","status":"ARCHIVED","created":"2018","lastUpdated":"2018","lastActive":"no","area":0.7464430169477224,"changesets":440,"mappers":52,"roads":5.55095267577989,"buildings":3293,"edits":3607,"latest":"2018-02-23T20:45:26.000Z"},"geometry":{"type":"Point","coordinates":[92.142771220254,21.2026621791434]}},{"type":"Feature","properties":{"id":3553,"title":"Bangladesh Floods: Khansama, Dinajpur","status":"ARCHIVED","created":"2017","lastUpdated":"2017","lastActive":"no","area":181.6711346972787,"changesets":572,"mappers":93,"roads":388.519752107972,"buildings":850,"edits":7614,"latest":"2017-09-18T12:27:23.000Z"},"geometry":{"type":"Point","coordinates":[88.7643148365518,25.8718111529983]}},{"type":"Feature","properties":{"id":4573,"title":"Bangladesh Refugee Crisis - Teknaf camp shelters (new area 19)","status":"ARCHIVED","created":"2018","lastUpdated":"2018","lastActive":"no","area":0.34956551761876054,"changesets":139,"mappers":12,"roads":0.00197602296146943,"buildings":2300,"edits":2355,"latest":"2018-05-24T09:54:10.000Z"},"geometry":{"type":"Point","coordinates":[92.252873870817,20.9455177795897]}},{"type":"Feature","properties":{"id":4041,"title":"Missing Maps: Satkhira Sadar, Bangladesh","status":"PUBLISHED","created":"2018","lastUpdated":"2018","lastActive":"no","area":399.8501115432759,"changesets":5682,"mappers":315,"roads":1787.02534493688,"buildings":135830,"edits":142447,"latest":"2018-08-26T10:03:01.000Z"},"geometry":{"type":"Point","coordinates":[89.0386376518338,22.7209377247088]}},{"type":"Feature","properties":{"id":3543,"title":"Bangladesh Floods: Parbatipur, Dinajpur","status":"ARCHIVED","created":"2017","lastUpdated":"2017","lastActive":"no","area":399.7907668715187,"changesets":864,"mappers":129,"roads":2114.27716523464,"buildings":2102,"edits":18301,"latest":"2017-09-17T13:44:44.000Z"},"geometry":{"type":"Point","coordinates":[88.9228263283339,25.6190801778256]}},{"type":"Feature","properties":{"id":3730,"title":"Bangladesh Population Movement - Kutupalong camp and surrounding settlements","status":"ARCHIVED","created":"2017","lastUpdated":"2018","lastActive":"no","area":16.438765314744483,"changesets":2307,"mappers":235,"roads":245.627656963081,"buildings":55037,"edits":64568,"latest":"2017-11-28T07:56:59.000Z"},"geometry":{"type":"Point","coordinates":[92.1537221740418,21.1930919498782]}},{"type":"Feature","properties":{"id":4006,"title":"Bangladesh Refugee Crisis - Kutupalong camp roads (global update)","status":"ARCHIVED","created":"2018","lastUpdated":"2018","lastActive":"no","area":37.58708302411728,"changesets":1462,"mappers":88,"roads":855.744077342016,"buildings":15897,"edits":56880,"latest":"2018-01-31T15:39:32.000Z"},"geometry":{"type":"Point","coordinates":[92.1512344720882,21.1911921601746]}},{"type":"Feature","properties":{"id":3893,"title":"Missing Maps: Bangladesh, Bagerhat Sadar","status":"PUBLISHED","created":"2017","lastUpdated":"2018","lastActive":"no","area":312.0883611557927,"changesets":4547,"mappers":419,"roads":77.3472128738284,"buildings":42629,"edits":43301,"latest":"2018-09-21T19:38:18.000Z"},"geometry":{"type":"Point","coordinates":[89.7632937630692,22.6775527819722]}},{"type":"Feature","properties":{"id":4067,"title":"Bangladesh Refugee Crisis - Kutupalong camp shelters (new area 8)","status":"ARCHIVED","created":"2018","lastUpdated":"2018","lastActive":"no","area":1.8199746017972194,"changesets":771,"mappers":81,"roads":12.2703185613898,"buildings":11463,"edits":12641,"latest":"2018-01-27T16:19:38.000Z"},"geometry":{"type":"Point","coordinates":[92.1410262715345,21.1807598113435]}},{"type":"Feature","properties":{"id":4040,"title":"Bangladesh Refugee Crisis - Kutupalong camp shelters (new area 4)","status":"ARCHIVED","created":"2018","lastUpdated":"2018","lastActive":"no","area":0.6259929529305098,"changesets":430,"mappers":52,"roads":1.88416159791042,"buildings":9476,"edits":9830,"latest":"2018-01-24T09:33:40.000Z"},"geometry":{"type":"Point","coordinates":[92.1554038558946,21.205509142876]}},{"type":"Feature","properties":{"id":3492,"title":"Bangladesh Floods: Islampur, Jamalpur","status":"ARCHIVED","created":"2017","lastUpdated":"2017","lastActive":"no","area":334.64237334298946,"changesets":1359,"mappers":244,"roads":1787.46039335752,"buildings":8931,"edits":24591,"latest":"2017-09-11T07:48:19.000Z"},"geometry":{"type":"Point","coordinates":[89.7612778527329,25.0751909790336]}},{"type":"Feature","properties":{"id":4473,"title":"Bangladesh Refugee Crisis - Kutupalong camp shelters (new area 18)","status":"ARCHIVED","created":"2018","lastUpdated":"2018","lastActive":"no","area":2.007783828831955,"changesets":622,"mappers":91,"roads":28.4368366133859,"buildings":6510,"edits":8396,"latest":"2018-05-27T17:52:35.000Z"},"geometry":{"type":"Point","coordinates":[92.1420695382031,21.1932191290579]}},{"type":"Feature","properties":{"id":5478,"title":"Missing Maps: Teknaf, Cox's Bazar, Bangladesh (2)","status":"PUBLISHED","created":"2018","lastUpdated":"2018","lastActive":"yes","area":29.654833641202238,"changesets":504,"mappers":63,"roads":75.2315317207602,"buildings":1771,"edits":2743,"latest":"2018-12-05T14:49:38.000Z"},"geometry":{"type":"Point","coordinates":[92.3060051117919,20.8144810746799]}},{"type":"Feature","properties":{"id":4578,"title":"Bangladesh Refugee Crisis - Teknaf camp shelters (new area 20)","status":"ARCHIVED","created":"2018","lastUpdated":"2018","lastActive":"no","area":1.7077918888633548,"changesets":360,"mappers":21,"roads":16.5980527629591,"buildings":5289,"edits":5748,"latest":"2018-06-03T21:25:53.000Z"},"geometry":{"type":"Point","coordinates":[92.2602092870735,20.9381257997458]}},{"type":"Feature","properties":{"id":5252,"title":"Bangladesh Refugee Crisis camp mapping - Update (3)","status":"ARCHIVED","created":"2018","lastUpdated":"2018","lastActive":"no","area":0.012926602231904005,"changesets":14,"mappers":3,"roads":2.80921812093854,"buildings":357,"edits":426,"latest":"2018-09-26T11:01:06.000Z"},"geometry":{"type":"Point","coordinates":[92.1638024899217,21.2076188045245]}},{"type":"Feature","properties":{"id":3636,"title":"Bangladesh Floods: Birampur, Dinajpur","status":"ARCHIVED","created":"2017","lastUpdated":"2017","lastActive":"no","area":214.00709510313644,"changesets":1025,"mappers":79,"roads":1085.94805721375,"buildings":1332,"edits":14801,"latest":"2018-01-03T00:04:00.000Z"},"geometry":{"type":"Point","coordinates":[88.9633234339553,25.3798285622054]}},{"type":"Feature","properties":{"id":3583,"title":"Bangladesh Floods: Chirirbandar, Dinajpur","status":"ARCHIVED","created":"2017","lastUpdated":"2017","lastActive":"no","area":315.01971902256355,"changesets":1635,"mappers":84,"roads":1579.41470572803,"buildings":1551,"edits":21274,"latest":"2017-11-11T15:17:45.000Z"},"geometry":{"type":"Point","coordinates":[88.7844158046166,25.6666771394736]}},{"type":"Feature","properties":{"id":4768,"title":"Bangladesh Refugee Crisis - Teknaf camp shelters (new area 23)","status":"ARCHIVED","created":"2018","lastUpdated":"2018","lastActive":"no","area":3.495893077720623,"changesets":536,"mappers":45,"roads":27.5536359412888,"buildings":5532,"edits":5968,"latest":"2018-10-13T12:56:28.000Z"},"geometry":{"type":"Point","coordinates":[92.2446883281974,20.9853945404503]}},{"type":"Feature","properties":{"id":3630,"title":"Mapping Flood Affected Communities in Bangladesh (Panchagarh, Rangpur)","status":"PUBLISHED","created":"2017","lastUpdated":"2018","lastActive":"no","area":1368.7065038384933,"changesets":24508,"mappers":1109,"roads":18093.9565792255,"buildings":976050,"edits":1117277,"latest":"2018-11-13T01:32:14.000Z"},"geometry":{"type":"Point","coordinates":[88.5754590338312,26.2851291051997]}},{"type":"Feature","properties":{"id":3637,"title":"Bangladesh Floods: Biral, Dinajpur","status":"ARCHIVED","created":"2017","lastUpdated":"2017","lastActive":"no","area":354.81268903651,"changesets":1588,"mappers":101,"roads":3877.01864246518,"buildings":19819,"edits":46867,"latest":"2018-04-10T18:09:09.000Z"},"geometry":{"type":"Point","coordinates":[88.5471982621254,25.6473726483622]}},{"type":"Feature","properties":{"id":3582,"title":"Bangladesh Floods: Dinajpur, Dinajpur","status":"ARCHIVED","created":"2017","lastUpdated":"2017","lastActive":"no","area":360.96701703796793,"changesets":2262,"mappers":155,"roads":2049.15312879816,"buildings":1163,"edits":25345,"latest":"2017-10-23T06:28:37.000Z"},"geometry":{"type":"Point","coordinates":[88.6764837309964,25.6087234129727]}},{"type":"Feature","properties":{"id":3635,"title":"Bangladesh Floods: Birganj, Dinajpur","status":"ARCHIVED","created":"2017","lastUpdated":"2017","lastActive":"no","area":411.4458972479278,"changesets":1670,"mappers":115,"roads":2364.87154651896,"buildings":1289,"edits":16806,"latest":"2017-11-23T17:28:44.000Z"},"geometry":{"type":"Point","coordinates":[88.6260635863027,25.9293342334293]}},{"type":"Feature","properties":{"id":3651,"title":"can be deleted","status":"ARCHIVED","created":"2017","lastUpdated":"2017","lastActive":"no","area":4472.115634364655,"changesets":0,"mappers":0,"roads":0,"buildings":0,"edits":0,"latest":null},"geometry":{"type":"Point","coordinates":[91.8343689213137,22.4432644673298]}},{"type":"Feature","properties":{"id":3854,"title":"Bangladesh Population Movement - Kutupalong camp and surrounding settlements","status":"ARCHIVED","created":"2017","lastUpdated":"2018","lastActive":"no","area":1.5851833211456114,"changesets":426,"mappers":61,"roads":15.7049207848477,"buildings":6563,"edits":7079,"latest":"2017-12-04T05:39:49.000Z"},"geometry":{"type":"Point","coordinates":[92.1548454994368,21.2012082033631]}},{"type":"Feature","properties":{"id":3853,"title":"Delete","status":"ARCHIVED","created":"2017","lastUpdated":"2017","lastActive":"no","area":1.5851833211456114,"changesets":0,"mappers":0,"roads":0,"buildings":0,"edits":0,"latest":null},"geometry":{"type":"Point","coordinates":[92.1548454994368,21.2012082033631]}},{"type":"Feature","properties":{"id":3949,"title":"Missing Maps: Bangladesh, Patuakhali Sadar","status":"ARCHIVED","created":"2017","lastUpdated":"2018","lastActive":"no","area":368.2816501057199,"changesets":2634,"mappers":249,"roads":1632.66535810477,"buildings":68848,"edits":77483,"latest":"2018-10-06T08:20:23.000Z"},"geometry":{"type":"Point","coordinates":[90.3289363915102,22.3358325859841]}},{"type":"Feature","properties":{"id":934,"title":"Khulna Northeast - GWU & USAID Mapping Exercise (Area 2)","status":"ARCHIVED","created":"2015","lastUpdated":"2017","lastActive":"no","area":269.6635364274935,"changesets":3556,"mappers":79,"roads":210.327172939665,"buildings":11808,"edits":13220,"latest":"2017-04-14T03:10:52.000Z"},"geometry":{"type":"Point","coordinates":[89.6996332636041,22.7518781864227]}},{"type":"Feature","properties":{"id":3723,"title":"Bangladesh Floods: Kaharole, Dinajpur","status":"ARCHIVED","created":"2017","lastUpdated":"2017","lastActive":"no","area":205.3487306943922,"changesets":2860,"mappers":82,"roads":984.778311734532,"buildings":2575,"edits":17007,"latest":"2017-11-05T11:57:14.000Z"},"geometry":{"type":"Point","coordinates":[88.599153924107,25.802899687123]}},{"type":"Feature","properties":{"id":1816,"title":"Missing Maps : DRR programs in Ghogadaha Union, Kurigram Sadar Upazila, Kurigram District, Bangladesh","status":"PUBLISHED","created":"2016","lastUpdated":"2018","lastActive":"no","area":27.648976927740403,"changesets":216,"mappers":31,"roads":171.663545429675,"buildings":203,"edits":1404,"latest":"2016-05-24T20:15:04.000Z"},"geometry":{"type":"Point","coordinates":[89.7237127548791,25.8446123283085]}},{"type":"Feature","properties":{"id":4002,"title":"Missing Maps: Bangladesh, Barisal Sadar West","status":"ARCHIVED","created":"2018","lastUpdated":"2018","lastActive":"no","area":105.30820518035584,"changesets":2106,"mappers":252,"roads":770.254087610049,"buildings":98421,"edits":104839,"latest":"2018-09-22T09:38:51.000Z"},"geometry":{"type":"Point","coordinates":[90.329930590656,22.7145787795814]}},{"type":"Feature","properties":{"id":1093,"title":"Missing Maps: Durgapur Upazila, Bangladesh (a Y Care Int DRR & Health Project)","status":"ARCHIVED","created":"2015","lastUpdated":"2015","lastActive":"no","area":194.38095483799592,"changesets":551,"mappers":30,"roads":253.66175562413,"buildings":314,"edits":1888,"latest":"2015-09-09T05:35:00.000Z"},"geometry":{"type":"Point","coordinates":[90.6737194443905,25.0866424174674]}},{"type":"Feature","properties":{"id":3672,"title":"Missing Maps: Kurigram, Bangladesh 3","status":"PUBLISHED","created":"2017","lastUpdated":"2018","lastActive":"no","area":556.4887451906692,"changesets":2197,"mappers":118,"roads":1149.57400028338,"buildings":122342,"edits":127132,"latest":"2018-05-31T05:51:33.000Z"},"geometry":{"type":"Point","coordinates":[89.7679617942303,25.5488366434994]}},{"type":"Feature","properties":{"id":1391,"title":"MissingMaps: Moghbazar, Dhaka","status":"ARCHIVED","created":"2015","lastUpdated":"2017","lastActive":"no","area":2.2813570680395547,"changesets":7585,"mappers":47,"roads":44.2176428236437,"buildings":12365,"edits":14341,"latest":"2016-08-12T06:50:29.000Z"},"geometry":{"type":"Point","coordinates":[90.4122977792349,23.7578339833056]}},{"type":"Feature","properties":{"id":1674,"title":"Data 4 Action - Missing Maps - Dhaka","status":"ARCHIVED","created":"2016","lastUpdated":"2017","lastActive":"no","area":14.46712453939816,"changesets":1660,"mappers":12,"roads":10.6054293173411,"buildings":1712,"edits":3448,"latest":"2016-06-17T11:49:57.000Z"},"geometry":{"type":"Point","coordinates":[90.4123898726437,23.7583003276125]}},{"type":"Feature","properties":{"id":4891,"title":"Bangladesh Refugee Crisis camp mapping - NW of megacamp 3 Update","status":"ARCHIVED","created":"2018","lastUpdated":"2018","lastActive":"no","area":0.4833315559159053,"changesets":125,"mappers":15,"roads":17.3371883879362,"buildings":5254,"edits":6040,"latest":"2018-08-09T09:18:16.000Z"},"geometry":{"type":"Point","coordinates":[92.1428704148335,21.2111616930025]}},{"type":"Feature","properties":{"id":4796,"title":"Bangladesh Refugee Crisis camp mapping - NW of megacamp 1 Update","status":"ARCHIVED","created":"2018","lastUpdated":"2018","lastActive":"no","area":0.21214589831320188,"changesets":167,"mappers":29,"roads":13.9014035246205,"buildings":288,"edits":651,"latest":"2018-06-27T09:06:10.000Z"},"geometry":{"type":"Point","coordinates":[92.1381699557021,21.2124977008707]}},{"type":"Feature","properties":{"id":4331,"title":"Solidarit International, refugees crisis, Bandarban (Bengladesh)","status":"PUBLISHED","created":"2018","lastUpdated":"2018","lastActive":"no","area":145.63066042938559,"changesets":802,"mappers":104,"roads":510.870436294131,"buildings":11649,"edits":14335,"latest":"2018-11-20T22:08:45.000Z"},"geometry":{"type":"Point","coordinates":[92.1970987244855,21.3889549752086]}},{"type":"Feature","properties":{"id":4170,"title":"Mirzapur, Bangladesh: Typhoid Burden Assessment","status":"PUBLISHED","created":"2018","lastUpdated":"2018","lastActive":"no","area":218.91877670477695,"changesets":1175,"mappers":78,"roads":771.443533008432,"buildings":95805,"edits":98475,"latest":"2018-06-05T11:08:04.000Z"},"geometry":{"type":"Point","coordinates":[90.1027374467937,24.0936633181173]}}],"Sierra Leone":[{"type":"Feature","properties":{"id":2712,"title":"Missing Maps: Kenema, Sierra Leone (part 5 - residential areas and buildings)","status":"ARCHIVED","created":"2017","lastUpdated":"2018","lastActive":"no","area":932.3154018142167,"changesets":490,"mappers":111,"roads":11.1726265257088,"buildings":3676,"edits":4052,"latest":"2018-02-14T08:51:01.000Z"},"geometry":{"type":"Point","coordinates":[-11.3012310560845,7.9408980818352]}},{"type":"Feature","properties":{"id":1757,"title":"Missing Maps: Land borders, Sierra Leone","status":"ARCHIVED","created":"2016","lastUpdated":"2017","lastActive":"no","area":12595.65541504893,"changesets":1416,"mappers":233,"roads":1173.28788008103,"buildings":14090,"edits":22250,"latest":"2017-10-04T20:07:23.000Z"},"geometry":{"type":"Point","coordinates":[-11.3419826927826,8.80266022131783]}},{"type":"Feature","properties":{"id":3421,"title":"Missing Maps: Kaffu Bullom, Sierra Leone","status":"PUBLISHED","created":"2017","lastUpdated":"2018","lastActive":"no","area":101.2171668546338,"changesets":1369,"mappers":71,"roads":144.971428486157,"buildings":20488,"edits":23467,"latest":"2018-11-04T02:09:43.000Z"},"geometry":{"type":"Point","coordinates":[-13.1926698829431,8.62887028282324]}},{"type":"Feature","properties":{"id":5272,"title":"Mapping to help end FGM in SIerra Leone","status":"PUBLISHED","created":"2018","lastUpdated":"2018","lastActive":"no","area":72.02167459126986,"changesets":277,"mappers":41,"roads":64.6221531710216,"buildings":2090,"edits":2513,"latest":"2018-11-23T13:57:10.000Z"},"geometry":{"type":"Point","coordinates":[-12.7842069467354,9.0204148516622]}},{"type":"Feature","properties":{"id":2550,"title":"Missing Maps: Mongo Chiefdom, Sierra Leone (Road networks)","status":"PUBLISHED","created":"2017","lastUpdated":"2018","lastActive":"no","area":1716.6023887430629,"changesets":704,"mappers":59,"roads":688.426903467455,"buildings":451,"edits":4133,"latest":"2017-05-11T12:45:26.000Z"},"geometry":{"type":"Point","coordinates":[-10.9526742075555,9.46168515833645]}},{"type":"Feature","properties":{"id":2664,"title":"Missing Maps: Kenema, Sierra Leone (part 1 - residential areas and buildings)","status":"ARCHIVED","created":"2017","lastUpdated":"2018","lastActive":"no","area":984.3221512909654,"changesets":645,"mappers":155,"roads":32.0339223744406,"buildings":1703,"edits":2250,"latest":"2018-04-30T17:42:34.000Z"},"geometry":{"type":"Point","coordinates":[-11.4103856576128,8.39416440763316]}},{"type":"Feature","properties":{"id":2193,"title":"Missing Maps: Magburaka buildings, Sierra Leone","status":"ARCHIVED","created":"2016","lastUpdated":"2016","lastActive":"no","area":9.67035781935381,"changesets":580,"mappers":23,"roads":3.2825438133313,"buildings":3512,"edits":3739,"latest":"2016-10-04T09:32:07.000Z"},"geometry":{"type":"Point","coordinates":[-11.9435589120182,8.72068264705568]}}],"Indonesia":[{"type":"Feature","properties":{"id":875,"title":"---","status":"ARCHIVED","created":"2015","lastUpdated":"2015","lastActive":"no","area":1673.155615732146,"changesets":0,"mappers":0,"roads":0,"buildings":0,"edits":0,"latest":null},"geometry":{"type":"Point","coordinates":[114.052436529188,-7.80132615385991]}},{"type":"Feature","properties":{"id":4058,"title":"Missing Maps: Tembalang Sub Districts #PDC Semarang","status":"PUBLISHED","created":"2018","lastUpdated":"2018","lastActive":"no","area":40.54145098859969,"changesets":665,"mappers":56,"roads":264.065386297172,"buildings":45216,"edits":48320,"latest":"2018-07-23T04:57:28.000Z"},"geometry":{"type":"Point","coordinates":[110.460995575373,-7.04854201123433]}},{"type":"Feature","properties":{"id":295,"title":"Aceh Project Area 1","status":"PUBLISHED","created":"2013","lastUpdated":"2014","lastActive":"no","area":9.138886115765386,"changesets":762,"mappers":23,"roads":871.082861117099,"buildings":451,"edits":9857,"latest":"2018-02-14T03:27:17.000Z"},"geometry":{"type":"Point","coordinates":[96.7522140579729,4.72098543699988]}},{"type":"Feature","properties":{"id":3033,"title":"Missing Maps: Penjaringan Sub Districs #PDC Jakarta","status":"ARCHIVED","created":"2017","lastUpdated":"2017","lastActive":"no","area":34.25824196319767,"changesets":252,"mappers":11,"roads":30.055312740412,"buildings":38727,"edits":41424,"latest":"2017-10-06T08:43:50.000Z"},"geometry":{"type":"Point","coordinates":[106.765900217218,-6.11862209534467]}},{"type":"Feature","properties":{"id":3025,"title":"Missing Maps: Cilandak Sub Districs #PDC Jakarta","status":"ARCHIVED","created":"2017","lastUpdated":"2017","lastActive":"no","area":17.826440731180615,"changesets":183,"mappers":4,"roads":28.6590632722901,"buildings":26772,"edits":28477,"latest":"2017-09-18T02:21:25.000Z"},"geometry":{"type":"Point","coordinates":[106.793307284061,-6.29318797958196]}},{"type":"Feature","properties":{"id":877,"title":"Data Preparedness Activity in Kabupaten Malang, East Java, Indonesia","status":"PUBLISHED","created":"2015","lastUpdated":"2017","lastActive":"no","area":3608.974911525084,"changesets":323,"mappers":29,"roads":96.0386433508552,"buildings":4919,"edits":6130,"latest":"2017-03-08T12:35:23.000Z"},"geometry":{"type":"Point","coordinates":[112.638874058965,-8.12350380352826]}},